{
  "garages": [
    {
      "id": "arl-att-stadium",
      "name": "AT&T Stadium (Cowboys) \u2014 Lots",
      "addr": "1 AT&T Way",
      "lat": 32.7473,
      "lng": -97.0945,
      "height_in": null,
      "height_label": "No limit (uncovered)",
      "oversized": true,
      "notes": "Cowboys + concerts. Massive surface lots. RV tailgating.\nReclassified 2026-04-30 as surface lot per web research: All AT&T Stadium parking is open surface lots",
      "source": "Web-verified surface lot \u2014 was: attstadium.com",
      "structure_type": "surface_lot"
    },
    {
      "id": "arl-att-rv",
      "name": "AT&T Stadium \u2014 RV Lot (Lot 11)",
      "addr": "AT&T Way",
      "lat": 32.749,
      "lng": -97.0965,
      "height_in": null,
      "height_label": "No limit (uncovered)",
      "oversized": true,
      "notes": "Designated RV lot on game days.\nReclassified 2026-04-30 as surface lot per web research: Per attstadium.com, RV/oversize parking is in Silver Lot 14, surface only",
      "source": "Web-verified surface lot \u2014 was: attstadium.com",
      "structure_type": "surface_lot"
    },
    {
      "id": "arl-globe-life-field",
      "name": "Globe Life Field (Rangers) \u2014 Lots",
      "addr": "734 Stadium Dr",
      "lat": 32.7473,
      "lng": -97.0838,
      "height_in": null,
      "height_label": "No limit (uncovered)",
      "oversized": true,
      "notes": "Rangers stadium. Shared AT&T Stadium lot complex.",
      "source": "mlb.com/rangers"
    },
    {
      "id": "arl-choctaw-stadium",
      "name": "Choctaw Stadium (former Rangers Globe Life)",
      "addr": "1000 Ballpark Way",
      "lat": 32.7518,
      "lng": -97.0834,
      "height_in": null,
      "height_label": "No limit",
      "oversized": true,
      "notes": "XFL + Cowboys training lots. Surface lots E and L; RV in Lot D",
      "source": "Web-verified surface lot - was: Needs verification",
      "entrance_lat": 32.7525157,
      "entrance_lng": -97.0844401,
      "entrance_source": "OSM parking_entrance node 12836696946",
      "structure_type": "surface_lot",
      "verified_on": "2026-04-30"
    },
    {
      "id": "arl-esports-stadium",
      "name": "Esports Stadium Arlington",
      "addr": "1200 Ballpark Way",
      "lat": 32.7505,
      "lng": -97.0838,
      "height_in": null,
      "height_label": null,
      "oversized": false,
      "notes": "Esports venue in Convention Center.",
      "source": "esportsstadium.gg"
    },
    {
      "id": "arl-six-flags",
      "name": "Six Flags Over Texas",
      "addr": "2201 Road to Six Flags",
      "lat": 32.7557,
      "lng": -97.0697,
      "height_in": null,
      "height_label": "No limit (uncovered)",
      "oversized": true,
      "notes": "Theme park surface lot. $30+ parking. Oversized OK.",
      "source": "sixflags.com"
    },
    {
      "id": "arl-hurricane-harbor",
      "name": "Hurricane Harbor Arlington (Six Flags)",
      "addr": "1800 E Lamar Blvd",
      "lat": 32.7669,
      "lng": -97.0705,
      "height_in": null,
      "height_label": "No limit (uncovered)",
      "oversized": true,
      "notes": "Water park. Surface lot.",
      "source": "sixflags.com"
    },
    {
      "id": "arl-arlington-conv",
      "name": "Arlington Convention Center Lots",
      "addr": "1200 Ballpark Way",
      "lat": 32.7506,
      "lng": -97.084,
      "height_in": null,
      "height_label": "No limit",
      "oversized": true,
      "notes": "Part of entertainment district. Surface lots adjacent to Choctaw Stadium",
      "source": "Web-verified surface lot - was: arlingtonconventioncenter.com",
      "structure_type": "surface_lot",
      "verified_on": "2026-04-30"
    },
    {
      "id": "arl-texas-live",
      "name": "Texas Live! Garage",
      "addr": "1650 E Randol Mill Rd",
      "lat": 32.7498,
      "lng": -97.0838,
      "height_in": null,
      "height_label": null,
      "oversized": false,
      "notes": "Entertainment + hotel + restaurant complex.",
      "source": "texas-live.com"
    },
    {
      "id": "arl-loews-hotel",
      "name": "Loews Arlington Hotel",
      "addr": "888 Nolan Ryan Expy",
      "lat": 32.7533,
      "lng": -97.0845,
      "height_in": null,
      "height_label": null,
      "oversized": false,
      "notes": "New 2024 Cordish hotel.",
      "source": "loewshotels.com",
      "entrance_lat": 32.7525157,
      "entrance_lng": -97.0844401,
      "entrance_source": "OSM parking_entrance node 12836696946"
    },
    {
      "id": "arl-parks-mall",
      "name": "The Parks Mall at Arlington",
      "addr": "3811 S Cooper St",
      "lat": 32.6823,
      "lng": -97.1135,
      "height_in": null,
      "height_label": "No limit (uncovered)",
      "oversized": false,
      "notes": "Major enclosed mall.",
      "source": "simon.com"
    },
    {
      "id": "arl-highlands",
      "name": "The Highlands of Arlington",
      "addr": "1201 N Collins St",
      "lat": 32.7498,
      "lng": -97.1024,
      "height_in": null,
      "height_label": "No limit (uncovered)",
      "oversized": false,
      "notes": "Shopping area.",
      "source": "Needs verification"
    },
    {
      "id": "arl-uta-maverick",
      "name": "UT Arlington \u2014 Maverick Activities Center Garage",
      "addr": "500 W Nedderman Dr",
      "lat": 32.7323,
      "lng": -97.1141,
      "height_in": null,
      "height_label": null,
      "oversized": false,
      "notes": "UTA visitor garage.",
      "source": "uta.edu"
    },
    {
      "id": "arl-parks-lincoln-sq",
      "name": "Lincoln Square",
      "addr": "1500 E Copeland Rd",
      "lat": 32.743,
      "lng": -97.1027,
      "height_in": null,
      "height_label": "No limit (uncovered)",
      "oversized": false,
      "notes": "Shopping center.",
      "source": "Needs verification"
    },
    {
      "id": "arl-river-legacy",
      "name": "River Legacy Parks",
      "addr": "701 NW Green Oaks Blvd",
      "lat": 32.761,
      "lng": -97.0986,
      "height_in": null,
      "height_label": "No limit (uncovered)",
      "oversized": true,
      "notes": "Trail parks.",
      "source": "riverlegacy.org"
    },
    {
      "id": "arl-arlington-life-ctr",
      "name": "Arlington ISD Center for Visual & Performing Arts",
      "addr": "1200 W Green Oaks Blvd",
      "lat": 32.7125,
      "lng": -97.1316,
      "height_in": null,
      "height_label": "No limit (uncovered)",
      "oversized": false,
      "notes": "Large performing arts venue.",
      "source": "aisd.net"
    },
    {
      "id": "arl-levitt",
      "name": "Levitt Pavilion Arlington",
      "addr": "100 W Abram St",
      "lat": 32.7358,
      "lng": -97.1095,
      "height_in": null,
      "height_label": "No limit (uncovered)",
      "oversized": false,
      "notes": "Downtown concert venue + Main Street district.",
      "source": "levittpavilion.com"
    },
    {
      "id": "arl-gpfl-ride-out",
      "name": "Great Southwest Parkway Park-Ride",
      "addr": "GSW Pkwy @ I-30",
      "lat": 32.7645,
      "lng": -97.0938,
      "height_in": null,
      "height_label": "No limit (uncovered)",
      "oversized": true,
      "notes": "Event-day shuttle lot for AT&T/Globe Life.",
      "source": "arlingtontx.gov"
    },
    {
      "id": "osm-w25553946",
      "name": "CenterPort Station - Park and Ride",
      "addr": "",
      "lat": 32.8178,
      "lng": -97.05241,
      "height_in": null,
      "height_label": "No limit (uncovered)",
      "oversized": true,
      "structure_type": "surface_lot",
      "notes": "Imported 2026 from OSM as an oversized-vehicle-friendly surface lot: large capacity (985 spaces). 985 spaces. Operator: Trinity Metro.",
      "source": "OpenStreetMap (surface lot)"
    },
    {
      "id": "osm-w97555485",
      "name": "D Lot Bus/RV",
      "addr": "",
      "lat": 32.75059,
      "lng": -97.07871,
      "height_in": null,
      "height_label": "No limit (uncovered)",
      "oversized": true,
      "structure_type": "surface_lot",
      "notes": "Imported 2026 from OSM as an oversized-vehicle-friendly surface lot: name signals oversized use ('rv').",
      "source": "OpenStreetMap (surface lot)"
    },
    {
      "id": "osm-w311716709",
      "name": "City of Grand Prairie",
      "addr": "",
      "lat": 32.76799,
      "lng": -96.98734,
      "height_in": null,
      "height_label": "No limit (uncovered)",
      "oversized": true,
      "structure_type": "surface_lot",
      "notes": "Imported 2026 from OSM as an oversized-vehicle-friendly surface lot: large capacity (80 spaces). 80 spaces. Free parking. Operator: City of Grand Prairie.",
      "source": "OpenStreetMap (surface lot)"
    },
    {
      "id": "osm-w361470126",
      "name": "Veterans Center Parking",
      "addr": "",
      "lat": 32.73706,
      "lng": -97.01847,
      "height_in": null,
      "height_label": "No limit (uncovered)",
      "oversized": true,
      "structure_type": "surface_lot",
      "notes": "Imported 2026 from OSM as an oversized-vehicle-friendly surface lot: large capacity (50 spaces). 50 spaces.",
      "source": "OpenStreetMap (surface lot)"
    },
    {
      "id": "osm-w365216277",
      "name": "Lynn Creek Marina Parking",
      "addr": "",
      "lat": 32.63146,
      "lng": -97.04066,
      "height_in": null,
      "height_label": "No limit (uncovered)",
      "oversized": true,
      "structure_type": "surface_lot",
      "notes": "Imported 2026 from OSM as an oversized-vehicle-friendly surface lot: large capacity (50 spaces). 50 spaces. Free parking. Operator: City of Grand Prairie.",
      "source": "OpenStreetMap (surface lot)"
    },
    {
      "id": "osm-w366777081",
      "name": "Bank of America Building Park",
      "addr": "",
      "lat": 32.74042,
      "lng": -97.01852,
      "height_in": null,
      "height_label": "No limit (uncovered)",
      "oversized": true,
      "structure_type": "surface_lot",
      "notes": "Imported 2026 from OSM as an oversized-vehicle-friendly surface lot: large capacity (200 spaces). 200 spaces.",
      "source": "OpenStreetMap (surface lot)"
    },
    {
      "id": "osm-w557078826",
      "name": "Traders Village RV Park",
      "addr": "",
      "lat": 32.69369,
      "lng": -97.04937,
      "height_in": null,
      "height_label": "No limit (uncovered)",
      "oversized": true,
      "structure_type": "surface_lot",
      "notes": "Imported 2026 from OSM as an oversized-vehicle-friendly surface lot: RV park (OSM tourism=caravan_site).",
      "source": "OpenStreetMap (surface lot)"
    },
    {
      "id": "osm-w1458952075",
      "name": "Mid-Cities RV park",
      "addr": "",
      "lat": 32.61495,
      "lng": -97.22323,
      "height_in": null,
      "height_label": "No limit (uncovered)",
      "oversized": true,
      "structure_type": "surface_lot",
      "notes": "Imported 2026 from OSM as an oversized-vehicle-friendly surface lot: RV park (OSM tourism=caravan_site).",
      "source": "OpenStreetMap (surface lot)"
    },
    {
      "id": "osm-w1470156906",
      "name": "Starry Night RV Resort",
      "addr": "4513 Kennedale New Hope Road",
      "lat": 32.61772,
      "lng": -97.21911,
      "height_in": null,
      "height_label": "No limit (uncovered)",
      "oversized": true,
      "structure_type": "surface_lot",
      "notes": "Imported 2026 from OSM as an oversized-vehicle-friendly surface lot: RV park (OSM tourism=caravan_site).",
      "source": "OpenStreetMap (surface lot)",
      "entrance_lat": 32.6177124,
      "entrance_lng": -97.2209676,
      "entrance_source": "Auto (nearest Street View pano within 300m, 2026-04-24 surface-lot pass)"
    },
    {
      "id": "osm-w1470156930",
      "name": "RV Park (unnamed)",
      "addr": "",
      "lat": 32.60021,
      "lng": -97.22195,
      "height_in": null,
      "height_label": "No limit (uncovered)",
      "oversized": true,
      "structure_type": "surface_lot",
      "notes": "Imported 2026 from OSM as an oversized-vehicle-friendly surface lot: RV park (OSM tourism=caravan_site).",
      "source": "OpenStreetMap (surface lot)"
    }
  ],
  "tunnels": [],
  "bridges": [
    {
      "id": "arl-i30-low",
      "name": "I-30 \u2014 Ballpark Way Underpass",
      "addr": "I-30 @ Ballpark Way",
      "lat": 32.7471,
      "lng": -97.0835,
      "height_in": 168,
      "height_label": "14'0\"",
      "notes": "Standard interstate clearance.",
      "source": "TxDOT"
    }
  ]
}
