{
  "garages": [
    {
      "id": "atl-mercedes-benz",
      "name": "Mercedes-Benz Stadium \u2014 Green/Red Lots",
      "addr": "1 AMB Dr NW",
      "lat": 33.7554,
      "lng": -84.4008,
      "height_in": 80,
      "height_label": "6'8\"",
      "oversized": false,
      "notes": "Falcons/Atlanta United. Multiple attached decks.\nWeb-verified 2026-04-30: https://parking.mercedesbenzstadium.com/lot-info/ \u2014 Official MBS parking site lists 6'8 for Green Deck; J Deck also 6'8; I Deck 6'3",
      "source": "Web-verified (high confidence) \u2014 was: mercedesbenzstadium.com",
      "entrance_lat": 33.7548626,
      "entrance_lng": -84.4022761,
      "entrance_source": "OSM parking_entrance node 6252180171",
      "verified_on": "2026-04-30"
    },
    {
      "id": "atl-state-farm-arena",
      "name": "State Farm Arena Parking Deck",
      "addr": "1 State Farm Dr",
      "lat": 33.7573,
      "lng": -84.3963,
      "height_in": null,
      "height_label": "No limit (uncovered)",
      "oversized": true,
      "notes": "Hawks arena.\nReclassified 2026-04-30 as surface lot per web research: Sapphire Deck has no posted height restriction per official page; Diamond + Ruby are surface",
      "source": "Web-verified surface lot \u2014 was: statefarmarena.com",
      "entrance_lat": 33.7566431,
      "entrance_lng": -84.3982086,
      "entrance_source": "OSM parking_entrance node 8296811839",
      "structure_type": "surface_lot"
    },
    {
      "id": "atl-centennial-olympic",
      "name": "Centennial Olympic Park Parking Decks",
      "addr": "265 Park Ave W NW",
      "lat": 33.7604,
      "lng": -84.3933,
      "height_in": null,
      "height_label": null,
      "oversized": false,
      "notes": "COP area \u2014 serves Aquarium, World of Coke, CNN Center.",
      "source": "centennialparkatlanta.com",
      "entrance_lat": 33.7595048,
      "entrance_lng": -84.3948617,
      "entrance_source": "OSM parking_entrance node 7483005060"
    },
    {
      "id": "atl-aquarium",
      "name": "Georgia Aquarium Parking Deck",
      "addr": "557 Luckie St NW",
      "lat": 33.7637,
      "lng": -84.3953,
      "height_in": null,
      "height_label": null,
      "oversized": false,
      "notes": "Attached to Aquarium.",
      "source": "georgiaaquarium.org",
      "entrance_lat": 33.7635924,
      "entrance_lng": -84.3959789,
      "entrance_source": "OSM parking_entrance node 3523447159"
    },
    {
      "id": "atl-cnn",
      "name": "CNN Center Garage",
      "addr": "190 Marietta St NW",
      "lat": 33.7582,
      "lng": -84.3952,
      "height_in": null,
      "height_label": null,
      "oversized": false,
      "notes": "Former CNN HQ. Central downtown.",
      "source": "Needs verification",
      "entrance_lat": 33.7586986,
      "entrance_lng": -84.3943771,
      "entrance_source": "OSM parking_entrance node 13675764690"
    },
    {
      "id": "atl-ponce-city",
      "name": "Ponce City Market Garage",
      "addr": "675 Ponce de Leon Ave NE",
      "lat": 33.7724,
      "lng": -84.3661,
      "height_in": null,
      "height_label": null,
      "oversized": false,
      "notes": "Adaptive-reuse food + shopping hall. Free with validation.",
      "source": "poncecitymarket.com",
      "entrance_lat": 33.7721524,
      "entrance_lng": -84.3669532,
      "entrance_source": "OSM parking_entrance node 3416374751"
    },
    {
      "id": "atl-atlantic-station",
      "name": "Atlantic Station Garage",
      "addr": "1380 Atlantic Dr NW",
      "lat": 33.7917,
      "lng": -84.3996,
      "height_in": null,
      "height_label": null,
      "oversized": false,
      "notes": "Mixed-use + retail.",
      "source": "atlanticstation.com",
      "entrance_lat": 33.7914131,
      "entrance_lng": -84.4004448,
      "entrance_source": "OSM parking_entrance node 9822107030"
    },
    {
      "id": "atl-phipps-plaza",
      "name": "Phipps Plaza Garage (Buckhead)",
      "addr": "3500 Peachtree Rd NE",
      "lat": 33.8474,
      "lng": -84.365,
      "height_in": null,
      "height_label": null,
      "oversized": false,
      "notes": "Upscale Buckhead mall.",
      "source": "simon.com",
      "entrance_lat": 33.847828,
      "entrance_lng": -84.3655994,
      "entrance_source": "OSM parking_entrance node 6444930378"
    },
    {
      "id": "atl-lenox-square",
      "name": "Lenox Square (Buckhead)",
      "addr": "3393 Peachtree Rd NE",
      "lat": 33.8463,
      "lng": -84.362,
      "height_in": null,
      "height_label": null,
      "oversized": false,
      "notes": "Major Buckhead mall.",
      "source": "simon.com",
      "entrance_lat": 33.8465592,
      "entrance_lng": -84.3615309,
      "entrance_source": "OSM parking_entrance node 8205835715"
    },
    {
      "id": "atl-truist-park",
      "name": "Truist Park \u2014 The Battery Atlanta",
      "addr": "755 Battery Ave SE",
      "lat": 33.8907,
      "lng": -84.4677,
      "height_in": null,
      "height_label": null,
      "oversized": false,
      "notes": "Braves ballpark + retail. Cobb County.",
      "source": "mlb.com/braves",
      "entrance_lat": 33.8912882,
      "entrance_lng": -84.4691853,
      "entrance_source": "OSM parking_entrance node 4763062590"
    },
    {
      "id": "atl-world-of-coke",
      "name": "World of Coca-Cola Lot",
      "addr": "121 Baker St NW",
      "lat": 33.763,
      "lng": -84.3924,
      "height_in": null,
      "height_label": null,
      "oversized": false,
      "notes": "Attached to Coke museum.",
      "source": "worldofcoca-cola.com",
      "entrance_lat": 33.7641847,
      "entrance_lng": -84.3938242,
      "entrance_source": "OSM parking_entrance node 2036951742"
    },
    {
      "id": "atl-center-civil-rights",
      "name": "National Center for Civil & Human Rights",
      "addr": "100 Ivan Allen Jr Blvd NW",
      "lat": 33.7631,
      "lng": -84.3937,
      "height_in": null,
      "height_label": "No limit (uncovered)",
      "oversized": true,
      "notes": "Shares COP-area parking.\nReclassified 2026-04-30 as surface lot per web research: Uses MBS lots; no dedicated covered garage at the museum itself",
      "source": "Web-verified surface lot \u2014 was: civilandhumanrights.org",
      "entrance_lat": 33.7641847,
      "entrance_lng": -84.3938242,
      "entrance_source": "OSM parking_entrance node 2036951742",
      "structure_type": "surface_lot"
    },
    {
      "id": "atl-georgia-dome-site",
      "name": "GWCC \u2014 Orange Parking Deck",
      "addr": "255 Ivan Allen Jr Blvd NW",
      "lat": 33.7632,
      "lng": -84.3986,
      "height_in": null,
      "height_label": null,
      "oversized": false,
      "notes": "Georgia World Congress Center.",
      "source": "gwcca.org"
    },
    {
      "id": "atl-airport-south",
      "name": "Hartsfield-Jackson ATL \u2014 South Parking",
      "addr": "6000 N Terminal Pkwy",
      "lat": 33.6428,
      "lng": -84.4502,
      "height_in": null,
      "height_label": null,
      "oversized": false,
      "notes": "ATL South Terminal garage.",
      "source": "atl.com"
    },
    {
      "id": "atl-airport-north",
      "name": "ATL \u2014 North Parking",
      "addr": "6000 N Terminal Pkwy",
      "lat": 33.6407,
      "lng": -84.4476,
      "height_in": null,
      "height_label": null,
      "oversized": false,
      "notes": "North Terminal garage.",
      "source": "atl.com",
      "entrance_lat": 33.6397776,
      "entrance_lng": -84.4459616,
      "entrance_source": "OSM parking_entrance node 5515174780"
    },
    {
      "id": "atl-airport-economy",
      "name": "ATL \u2014 ATL West / Economy Lot",
      "addr": "4629 Riverdale Rd",
      "lat": 33.6325,
      "lng": -84.4605,
      "height_in": null,
      "height_label": "No limit (uncovered)",
      "oversized": true,
      "notes": "Uncovered. Oversized OK.",
      "source": "atl.com",
      "entrance_lat": 33.6324958,
      "entrance_lng": -84.4590713,
      "entrance_source": "Auto (nearest Street View pano within 300m, 2026-04-24)"
    },
    {
      "id": "atl-airport-park-ride",
      "name": "ATL \u2014 Park-Ride Lot C",
      "addr": "Spring St",
      "lat": 33.6366,
      "lng": -84.442,
      "height_in": null,
      "height_label": "No limit (uncovered)",
      "oversized": true,
      "notes": "Uncovered.",
      "source": "atl.com",
      "entrance_lat": 33.6375735,
      "entrance_lng": -84.4432858,
      "entrance_source": "OSM parking_entrance node 5375575643"
    },
    {
      "id": "atl-zoo",
      "name": "Zoo Atlanta",
      "addr": "800 Cherokee Ave SE",
      "lat": 33.7326,
      "lng": -84.3712,
      "height_in": null,
      "height_label": "No limit (uncovered)",
      "oversized": true,
      "notes": "Grant Park. Surface lot.",
      "source": "zooatlanta.org"
    },
    {
      "id": "atl-sweetauburn",
      "name": "Sweet Auburn / MLK Historic District Lots",
      "addr": "450 Auburn Ave NE",
      "lat": 33.7559,
      "lng": -84.3749,
      "height_in": null,
      "height_label": "No limit (uncovered)",
      "oversized": false,
      "notes": "MLK Jr. NHP visitor lot.",
      "source": "nps.gov"
    },
    {
      "id": "atl-piedmont-park",
      "name": "Piedmont Park Lots",
      "addr": "400 Park Dr NE",
      "lat": 33.7851,
      "lng": -84.3727,
      "height_in": null,
      "height_label": "No limit (uncovered)",
      "oversized": true,
      "notes": "Midtown park surface lots.",
      "source": "piedmontpark.org"
    },
    {
      "id": "osm-w38760224",
      "name": "Kensington North Park and Ride",
      "addr": "",
      "lat": 33.77347,
      "lng": -84.25148,
      "height_in": null,
      "height_label": "No limit (uncovered)",
      "oversized": true,
      "structure_type": "surface_lot",
      "notes": "Imported 2026 from OSM as an oversized-vehicle-friendly surface lot: large capacity (1946 spaces). 1946 spaces. Free parking. Operator: MARTA.",
      "source": "OpenStreetMap (surface lot)"
    },
    {
      "id": "osm-w38938234",
      "name": "Indian Creek Park and Ride",
      "addr": "",
      "lat": 33.76811,
      "lng": -84.22959,
      "height_in": null,
      "height_label": "No limit (uncovered)",
      "oversized": true,
      "structure_type": "surface_lot",
      "notes": "Imported 2026 from OSM as an oversized-vehicle-friendly surface lot: large capacity (2350 spaces). 2350 spaces. Operator: MARTA.",
      "source": "OpenStreetMap (surface lot)"
    },
    {
      "id": "osm-w40877765",
      "name": "Edgewood/Candler Park Park & Ride",
      "addr": "",
      "lat": 33.76257,
      "lng": -84.34085,
      "height_in": null,
      "height_label": "No limit (uncovered)",
      "oversized": true,
      "structure_type": "surface_lot",
      "notes": "Imported 2026 from OSM as an oversized-vehicle-friendly surface lot: large capacity (105 spaces). 105 spaces. Operator: MARTA.",
      "source": "OpenStreetMap (surface lot)"
    },
    {
      "id": "osm-w79793724",
      "name": "West End Park & Ride",
      "addr": "",
      "lat": 33.73761,
      "lng": -84.41335,
      "height_in": null,
      "height_label": "No limit (uncovered)",
      "oversized": true,
      "structure_type": "surface_lot",
      "notes": "Imported 2026 from OSM as an oversized-vehicle-friendly surface lot: large capacity (537 spaces). 537 spaces. Operator: MARTA.",
      "source": "OpenStreetMap (surface lot)"
    },
    {
      "id": "osm-w79793726",
      "name": "West End Park & Ride",
      "addr": "",
      "lat": 33.73413,
      "lng": -84.41358,
      "height_in": null,
      "height_label": "No limit (uncovered)",
      "oversized": true,
      "structure_type": "surface_lot",
      "notes": "Imported 2026 from OSM as an oversized-vehicle-friendly surface lot: large capacity (537 spaces). 537 spaces. Operator: MARTA.",
      "source": "OpenStreetMap (surface lot)"
    },
    {
      "id": "osm-w216559692",
      "name": "Lot 21 Parking",
      "addr": "841 North Highland Avenue Northeast",
      "lat": 33.77752,
      "lng": -84.35219,
      "height_in": null,
      "height_label": "No limit (uncovered)",
      "oversized": true,
      "structure_type": "surface_lot",
      "notes": "Imported 2026 from OSM as an oversized-vehicle-friendly surface lot: large capacity (94 spaces). 94 spaces.",
      "source": "OpenStreetMap (surface lot)"
    },
    {
      "id": "osm-w239353092",
      "name": "50 Ivan Allen Junior Boulevard Parking",
      "addr": "50 Ivan Allen Jr Boulevard",
      "lat": 33.7643,
      "lng": -84.38978,
      "height_in": null,
      "height_label": "No limit (uncovered)",
      "oversized": true,
      "structure_type": "surface_lot",
      "notes": "Imported 2026 from OSM as an oversized-vehicle-friendly surface lot: large capacity (115 spaces). 115 spaces. Paid parking. Operator: Lanier/REEF/Reimagened Parking.",
      "source": "OpenStreetMap (surface lot)"
    },
    {
      "id": "osm-w245718999",
      "name": "City of Marietta",
      "addr": "",
      "lat": 33.95301,
      "lng": -84.55169,
      "height_in": null,
      "height_label": "No limit (uncovered)",
      "oversized": true,
      "structure_type": "surface_lot",
      "notes": "Imported 2026 from OSM as an oversized-vehicle-friendly surface lot: large capacity (79 spaces). 79 spaces. Free parking. Operator: City of Marietta.",
      "source": "OpenStreetMap (surface lot)"
    },
    {
      "id": "osm-w264162551",
      "name": "IBEW parking lot",
      "addr": "501 Pulliam Street Southwest",
      "lat": 33.7413,
      "lng": -84.39294,
      "height_in": null,
      "height_label": "No limit (uncovered)",
      "oversized": true,
      "structure_type": "surface_lot",
      "notes": "Imported 2026 from OSM as an oversized-vehicle-friendly surface lot: large capacity (200 spaces). 200 spaces. Free parking.",
      "source": "OpenStreetMap (surface lot)"
    },
    {
      "id": "osm-w264387890",
      "name": "Cochran Shoals Unit - Powers Island Parking Lot",
      "addr": "5450 Interstate North Parkway",
      "lat": 33.90408,
      "lng": -84.44211,
      "height_in": null,
      "height_label": "No limit (uncovered)",
      "oversized": true,
      "structure_type": "surface_lot",
      "notes": "Imported 2026 from OSM as an oversized-vehicle-friendly surface lot: large capacity (154 spaces). 154 spaces. Paid parking. Operator: National Park Service.",
      "source": "OpenStreetMap (surface lot)"
    },
    {
      "id": "osm-w278220817",
      "name": "Stockbridge Park & Ride",
      "addr": "",
      "lat": 33.5477,
      "lng": -84.2793,
      "height_in": null,
      "height_label": "No limit (uncovered)",
      "oversized": true,
      "structure_type": "surface_lot",
      "notes": "Imported 2026 from OSM as an oversized-vehicle-friendly surface lot: large capacity (337 spaces). 337 spaces.",
      "source": "OpenStreetMap (surface lot)"
    },
    {
      "id": "osm-w278225525",
      "name": "Riverdale Park & Ride",
      "addr": "6842 Lamar Hutcheson Parkway",
      "lat": 33.56746,
      "lng": -84.40383,
      "height_in": null,
      "height_label": "No limit (uncovered)",
      "oversized": true,
      "structure_type": "surface_lot",
      "notes": "Imported 2026 from OSM as an oversized-vehicle-friendly surface lot: large capacity (271 spaces). 271 spaces.",
      "source": "OpenStreetMap (surface lot)"
    },
    {
      "id": "osm-w278229189",
      "name": "Union City Park & Ride",
      "addr": "",
      "lat": 33.58727,
      "lng": -84.51249,
      "height_in": null,
      "height_label": "No limit (uncovered)",
      "oversized": true,
      "structure_type": "surface_lot",
      "notes": "Imported 2026 from OSM as an oversized-vehicle-friendly surface lot: large capacity (420 spaces). 420 spaces.",
      "source": "OpenStreetMap (surface lot)"
    },
    {
      "id": "osm-w278389252",
      "name": "Mableton Park & Ride",
      "addr": "5239 Floyd Road Southwest",
      "lat": 33.82595,
      "lng": -84.57439,
      "height_in": null,
      "height_label": "No limit (uncovered)",
      "oversized": true,
      "structure_type": "surface_lot",
      "notes": "Imported 2026 from OSM as an oversized-vehicle-friendly surface lot: large capacity (100 spaces). 100 spaces.",
      "source": "OpenStreetMap (surface lot)"
    },
    {
      "id": "osm-w278395922",
      "name": "Jonesboro Park & Ride",
      "addr": "8488 Tara Boulevard",
      "lat": 33.52425,
      "lng": -84.36216,
      "height_in": null,
      "height_label": "No limit (uncovered)",
      "oversized": true,
      "structure_type": "surface_lot",
      "notes": "Imported 2026 from OSM as an oversized-vehicle-friendly surface lot: large capacity (150 spaces). 150 spaces.",
      "source": "OpenStreetMap (surface lot)"
    },
    {
      "id": "osm-w287354542",
      "name": "East Point Park & Ride",
      "addr": "",
      "lat": 33.67706,
      "lng": -84.44024,
      "height_in": null,
      "height_label": "No limit (uncovered)",
      "oversized": true,
      "structure_type": "surface_lot",
      "notes": "Imported 2026 from OSM as an oversized-vehicle-friendly surface lot: large capacity (927 spaces). 927 spaces. Operator: MARTA.",
      "source": "OpenStreetMap (surface lot)"
    },
    {
      "id": "osm-w297231621",
      "name": "Doraville Park & Ride",
      "addr": "",
      "lat": 33.90126,
      "lng": -84.28141,
      "height_in": null,
      "height_label": "No limit (uncovered)",
      "oversized": true,
      "structure_type": "surface_lot",
      "notes": "Imported 2026 from OSM as an oversized-vehicle-friendly surface lot: large capacity (1231 spaces). 1231 spaces.",
      "source": "OpenStreetMap (surface lot)"
    },
    {
      "id": "osm-w341638564",
      "name": "City of Marietta Parks & Recreation",
      "addr": "",
      "lat": 33.93913,
      "lng": -84.52738,
      "height_in": null,
      "height_label": "No limit (uncovered)",
      "oversized": true,
      "structure_type": "surface_lot",
      "notes": "Imported 2026 from OSM as an oversized-vehicle-friendly surface lot: large capacity (69 spaces). 69 spaces. Free parking. Operator: City of Marietta Parks & Recreation.",
      "source": "OpenStreetMap (surface lot)"
    },
    {
      "id": "osm-w344855914",
      "name": "102 Broad St SW Parking",
      "addr": "102 Broad Street Southwest",
      "lat": 33.75156,
      "lng": -84.39302,
      "height_in": null,
      "height_label": "No limit (uncovered)",
      "oversized": true,
      "structure_type": "surface_lot",
      "notes": "Imported 2026 from OSM as an oversized-vehicle-friendly surface lot: large capacity (67 spaces). 67 spaces. Paid parking. Operator: LAZ Parking.",
      "source": "OpenStreetMap (surface lot)"
    },
    {
      "id": "osm-w359415024",
      "name": "134 Fortsyth Street SW parking",
      "addr": "134 Forsyth Street Southwest",
      "lat": 33.7509,
      "lng": -84.39454,
      "height_in": null,
      "height_label": "No limit (uncovered)",
      "oversized": true,
      "structure_type": "surface_lot",
      "notes": "Imported 2026 from OSM as an oversized-vehicle-friendly surface lot: large capacity (105 spaces). 105 spaces. Paid parking. Operator: LAZ Parking.",
      "source": "OpenStreetMap (surface lot)"
    },
    {
      "id": "osm-w449338799",
      "name": "Cell Phone Lot",
      "addr": "",
      "lat": 33.63724,
      "lng": -84.44605,
      "height_in": null,
      "height_label": "No limit (uncovered)",
      "oversized": true,
      "structure_type": "surface_lot",
      "notes": "Imported 2026 from OSM as an oversized-vehicle-friendly surface lot: large capacity (160 spaces). 160 spaces. Free parking. Operator: Hartsfield-Jackson Atlanta International Airport - South Terminal.",
      "source": "OpenStreetMap (surface lot)"
    },
    {
      "id": "osm-w696538486",
      "name": "Oakland City Park and Ride",
      "addr": "",
      "lat": 33.71688,
      "lng": -84.42672,
      "height_in": null,
      "height_label": "No limit (uncovered)",
      "oversized": true,
      "structure_type": "surface_lot",
      "notes": "Imported 2026 from OSM as an oversized-vehicle-friendly surface lot: large capacity (337 spaces). 337 spaces. Operator: MARTA.",
      "source": "OpenStreetMap (surface lot)"
    },
    {
      "id": "osm-w892776635",
      "name": "Indian Trail Park & Ride",
      "addr": "",
      "lat": 33.92997,
      "lng": -84.17545,
      "height_in": null,
      "height_label": "No limit (uncovered)",
      "oversized": true,
      "structure_type": "surface_lot",
      "notes": "Imported 2026 from OSM as an oversized-vehicle-friendly surface lot: large capacity (506 spaces). 506 spaces.",
      "source": "OpenStreetMap (surface lot)"
    },
    {
      "id": "osm-w892779116",
      "name": "Ashby Park & Ride",
      "addr": "",
      "lat": 33.75639,
      "lng": -84.41895,
      "height_in": null,
      "height_label": "No limit (uncovered)",
      "oversized": true,
      "structure_type": "surface_lot",
      "notes": "Imported 2026 from OSM as an oversized-vehicle-friendly surface lot: large capacity (159 spaces). 159 spaces. Operator: MARTA.",
      "source": "OpenStreetMap (surface lot)"
    },
    {
      "id": "osm-w892828643",
      "name": "C.W. Grant Parkway Park & Ride",
      "addr": "",
      "lat": 33.64391,
      "lng": -84.39694,
      "height_in": null,
      "height_label": "No limit (uncovered)",
      "oversized": true,
      "structure_type": "surface_lot",
      "notes": "Imported 2026 from OSM as an oversized-vehicle-friendly surface lot: large capacity (579 spaces). 579 spaces.",
      "source": "OpenStreetMap (surface lot)"
    },
    {
      "id": "osm-w971211516",
      "name": "173 Peachtree St SW Parking",
      "addr": "173 Peachtree Street Southwest",
      "lat": 33.75061,
      "lng": -84.39376,
      "height_in": null,
      "height_label": "No limit (uncovered)",
      "oversized": true,
      "structure_type": "surface_lot",
      "notes": "Imported 2026 from OSM as an oversized-vehicle-friendly surface lot: large capacity (89 spaces). 89 spaces. Paid parking. Operator: Parking Company of America.",
      "source": "OpenStreetMap (surface lot)"
    },
    {
      "id": "osm-w971211524",
      "name": "104 Ted Turner Drive Parking - Lot 054",
      "addr": "104 Ted Turner Drive Southwest",
      "lat": 33.75115,
      "lng": -84.39563,
      "height_in": null,
      "height_label": "No limit (uncovered)",
      "oversized": true,
      "structure_type": "surface_lot",
      "notes": "Imported 2026 from OSM as an oversized-vehicle-friendly surface lot: large capacity (236 spaces). 236 spaces. Paid parking. Operator: Park Place Parking.",
      "source": "OpenStreetMap (surface lot)"
    },
    {
      "id": "osm-w971211525",
      "name": "LAZ Parking",
      "addr": "250 Trinity Avenue Southwest",
      "lat": 33.75026,
      "lng": -84.39627,
      "height_in": null,
      "height_label": "No limit (uncovered)",
      "oversized": true,
      "structure_type": "surface_lot",
      "notes": "Imported 2026 from OSM as an oversized-vehicle-friendly surface lot: large capacity (125 spaces). 125 spaces. Paid parking. Operator: LAZ Parking.",
      "source": "OpenStreetMap (surface lot)"
    },
    {
      "id": "osm-w1161216062",
      "name": "340 Ted Turner Drive NW",
      "addr": "340 Ted Turner Drive Northwest",
      "lat": 33.76366,
      "lng": -84.38944,
      "height_in": null,
      "height_label": "No limit (uncovered)",
      "oversized": true,
      "structure_type": "surface_lot",
      "notes": "Imported 2026 from OSM as an oversized-vehicle-friendly surface lot: large capacity (90 spaces). 90 spaces. Paid parking. Operator: Park Place.",
      "source": "OpenStreetMap (surface lot)"
    },
    {
      "id": "osm-w1265891823",
      "name": "Mercedes-Benz Stadium Parking - Lot 17",
      "addr": "",
      "lat": 33.75334,
      "lng": -84.40068,
      "height_in": null,
      "height_label": "No limit (uncovered)",
      "oversized": true,
      "structure_type": "surface_lot",
      "notes": "Imported 2026 from OSM as an oversized-vehicle-friendly surface lot: name signals oversized use ('stadium'). Paid parking.",
      "source": "OpenStreetMap (surface lot)"
    },
    {
      "id": "osm-w1268206573",
      "name": "255 Forsyth Street SW parking",
      "addr": "255 Forsyth Street Southwest",
      "lat": 33.74804,
      "lng": -84.39749,
      "height_in": null,
      "height_label": "No limit (uncovered)",
      "oversized": true,
      "structure_type": "surface_lot",
      "notes": "Imported 2026 from OSM as an oversized-vehicle-friendly surface lot: large capacity (81 spaces). 81 spaces. Paid parking. Operator: City Parking, Inc..",
      "source": "OpenStreetMap (surface lot)"
    },
    {
      "id": "osm-w1271831252",
      "name": "323 Ted Turner Dr NW Parking",
      "addr": "",
      "lat": 33.76366,
      "lng": -84.38859,
      "height_in": null,
      "height_label": "No limit (uncovered)",
      "oversized": true,
      "structure_type": "surface_lot",
      "notes": "Imported 2026 from OSM as an oversized-vehicle-friendly surface lot: large capacity (91 spaces). 91 spaces. Paid parking. Operator: Lanier/REEF/Reimagened Parking.",
      "source": "OpenStreetMap (surface lot)"
    }
  ],
  "tunnels": [],
  "bridges": [
    {
      "id": "atl-i85-connector-low",
      "name": "Downtown Connector (I-75/85) Underpasses",
      "addr": "Connector through downtown",
      "lat": 33.757,
      "lng": -84.3885,
      "height_in": 168,
      "height_label": "14'0\"",
      "notes": "Standard urban freeway clearances.",
      "source": "GDOT"
    },
    {
      "id": "atl-freedom-pkwy",
      "name": "Freedom Parkway \u2014 Low Spots",
      "addr": "Freedom Pkwy east of downtown",
      "lat": 33.762,
      "lng": -84.365,
      "height_in": 168,
      "height_label": "14'0\"",
      "notes": "Standard.",
      "source": "GDOT"
    },
    {
      "id": "nbi-13-000000006350790",
      "name": "Low on-bridge clearance: OLE TOWN MORROW RO",
      "addr": "OLE TOWN MORROW RO",
      "lat": 33.57768,
      "lng": -84.35277,
      "height_in": 167,
      "height_label": "13'11\"",
      "notes": "FHWA NBI; on-bridge clearance; built 2013",
      "source": "FHWA National Bridge Inventory"
    },
    {
      "id": "nbi-13-000000006750830",
      "name": "Low on-bridge clearance: CONCORD RD (COVERE",
      "addr": "CONCORD RD (COVERE",
      "lat": 33.84917,
      "lng": -84.55893,
      "height_in": 96,
      "height_label": "8'0\"",
      "notes": "FHWA NBI; on-bridge clearance; built 1872",
      "source": "FHWA National Bridge Inventory"
    },
    {
      "id": "nbi-13-000000006753420",
      "name": "Low on-bridge clearance: I-75 MANAGED LANES",
      "addr": "I-75 MANAGED LANES",
      "lat": 33.94388,
      "lng": -84.50977,
      "height_in": 99,
      "height_label": "8'3\"",
      "notes": "FHWA NBI; on-bridge clearance; built 2017",
      "source": "FHWA National Bridge Inventory"
    },
    {
      "id": "nbi-13-000000006753450",
      "name": "Low clearance: ELIZABETH BRANCH under I-75 MANAGED LANES",
      "addr": "ELIZABETH BRANCH",
      "lat": 33.97357,
      "lng": -84.53185,
      "height_in": 88,
      "height_label": "7'4\"",
      "notes": "FHWA NBI; under-bridge clearance; built 2018; bridge carries I-75 MANAGED LANES",
      "source": "FHWA National Bridge Inventory"
    },
    {
      "id": "nbi-13-000000008950810",
      "name": "Low on-bridge clearance: COVERED BR. LANE",
      "addr": "COVERED BR. LANE",
      "lat": 33.80323,
      "lng": -84.13351,
      "height_in": 154,
      "height_label": "12'10\"",
      "notes": "FHWA NBI; on-bridge clearance; built 1891",
      "source": "FHWA National Bridge Inventory"
    },
    {
      "id": "nbi-13-000000008951770",
      "name": "Low clearance: SWIFT CREEK TRIB under LITHONIA IND BLVD",
      "addr": "SWIFT CREEK TRIB",
      "lat": 33.74503,
      "lng": -84.08701,
      "height_in": 99,
      "height_label": "8'3\"",
      "notes": "FHWA NBI; under-bridge clearance; built 2010; bridge carries LITHONIA IND BLVD",
      "source": "FHWA National Bridge Inventory"
    }
  ]
}
