{
  "garages": [
    {
      "id": "atl-mercedes-benz",
      "name": "Mercedes-Benz Stadium \u2014 Green/Red Lots",
      "addr": "1 AMB Dr NW",
      "lat": 33.7554,
      "lng": -84.4008,
      "height_in": null,
      "height_label": null,
      "oversized": false,
      "notes": "Falcons/Atlanta United. Multiple attached decks.",
      "source": "mercedesbenzstadium.com"
    },
    {
      "id": "atl-state-farm-arena",
      "name": "State Farm Arena Parking Deck",
      "addr": "1 State Farm Dr",
      "lat": 33.7573,
      "lng": -84.3963,
      "height_in": null,
      "height_label": null,
      "oversized": false,
      "notes": "Hawks arena.",
      "source": "statefarmarena.com"
    },
    {
      "id": "atl-centennial-olympic",
      "name": "Centennial Olympic Park Parking Decks",
      "addr": "265 Park Ave W NW",
      "lat": 33.7604,
      "lng": -84.3933,
      "height_in": null,
      "height_label": null,
      "oversized": false,
      "notes": "COP area \u2014 serves Aquarium, World of Coke, CNN Center.",
      "source": "centennialparkatlanta.com"
    },
    {
      "id": "atl-aquarium",
      "name": "Georgia Aquarium Parking Deck",
      "addr": "557 Luckie St NW",
      "lat": 33.7637,
      "lng": -84.3953,
      "height_in": null,
      "height_label": null,
      "oversized": false,
      "notes": "Attached to Aquarium.",
      "source": "georgiaaquarium.org"
    },
    {
      "id": "atl-cnn",
      "name": "CNN Center Garage",
      "addr": "190 Marietta St NW",
      "lat": 33.7582,
      "lng": -84.3952,
      "height_in": null,
      "height_label": null,
      "oversized": false,
      "notes": "Former CNN HQ. Central downtown.",
      "source": "Needs verification"
    },
    {
      "id": "atl-ponce-city",
      "name": "Ponce City Market Garage",
      "addr": "675 Ponce de Leon Ave NE",
      "lat": 33.7724,
      "lng": -84.3661,
      "height_in": null,
      "height_label": null,
      "oversized": false,
      "notes": "Adaptive-reuse food + shopping hall. Free with validation.",
      "source": "poncecitymarket.com"
    },
    {
      "id": "atl-atlantic-station",
      "name": "Atlantic Station Garage",
      "addr": "1380 Atlantic Dr NW",
      "lat": 33.7917,
      "lng": -84.3996,
      "height_in": null,
      "height_label": null,
      "oversized": false,
      "notes": "Mixed-use + retail.",
      "source": "atlanticstation.com"
    },
    {
      "id": "atl-phipps-plaza",
      "name": "Phipps Plaza Garage (Buckhead)",
      "addr": "3500 Peachtree Rd NE",
      "lat": 33.8474,
      "lng": -84.365,
      "height_in": null,
      "height_label": null,
      "oversized": false,
      "notes": "Upscale Buckhead mall.",
      "source": "simon.com"
    },
    {
      "id": "atl-lenox-square",
      "name": "Lenox Square (Buckhead)",
      "addr": "3393 Peachtree Rd NE",
      "lat": 33.8463,
      "lng": -84.362,
      "height_in": null,
      "height_label": null,
      "oversized": false,
      "notes": "Major Buckhead mall.",
      "source": "simon.com"
    },
    {
      "id": "atl-truist-park",
      "name": "Truist Park \u2014 The Battery Atlanta",
      "addr": "755 Battery Ave SE",
      "lat": 33.8907,
      "lng": -84.4677,
      "height_in": null,
      "height_label": null,
      "oversized": false,
      "notes": "Braves ballpark + retail. Cobb County.",
      "source": "mlb.com/braves"
    },
    {
      "id": "atl-world-of-coke",
      "name": "World of Coca-Cola Lot",
      "addr": "121 Baker St NW",
      "lat": 33.763,
      "lng": -84.3924,
      "height_in": null,
      "height_label": null,
      "oversized": false,
      "notes": "Attached to Coke museum.",
      "source": "worldofcoca-cola.com"
    },
    {
      "id": "atl-center-civil-rights",
      "name": "National Center for Civil & Human Rights",
      "addr": "100 Ivan Allen Jr Blvd NW",
      "lat": 33.7631,
      "lng": -84.3937,
      "height_in": null,
      "height_label": null,
      "oversized": false,
      "notes": "Shares COP-area parking.",
      "source": "civilandhumanrights.org"
    },
    {
      "id": "atl-georgia-dome-site",
      "name": "GWCC \u2014 Orange Parking Deck",
      "addr": "255 Ivan Allen Jr Blvd NW",
      "lat": 33.7632,
      "lng": -84.3986,
      "height_in": null,
      "height_label": null,
      "oversized": false,
      "notes": "Georgia World Congress Center.",
      "source": "gwcca.org"
    },
    {
      "id": "atl-airport-south",
      "name": "Hartsfield-Jackson ATL \u2014 South Parking",
      "addr": "6000 N Terminal Pkwy",
      "lat": 33.6428,
      "lng": -84.4502,
      "height_in": null,
      "height_label": null,
      "oversized": false,
      "notes": "ATL South Terminal garage.",
      "source": "atl.com"
    },
    {
      "id": "atl-airport-north",
      "name": "ATL \u2014 North Parking",
      "addr": "6000 N Terminal Pkwy",
      "lat": 33.6407,
      "lng": -84.4476,
      "height_in": null,
      "height_label": null,
      "oversized": false,
      "notes": "North Terminal garage.",
      "source": "atl.com"
    },
    {
      "id": "atl-airport-economy",
      "name": "ATL \u2014 ATL West / Economy Lot",
      "addr": "4629 Riverdale Rd",
      "lat": 33.6325,
      "lng": -84.4605,
      "height_in": null,
      "height_label": "No limit (uncovered)",
      "oversized": true,
      "notes": "Uncovered. Oversized OK.",
      "source": "atl.com"
    },
    {
      "id": "atl-airport-park-ride",
      "name": "ATL \u2014 Park-Ride Lot C",
      "addr": "Spring St",
      "lat": 33.6366,
      "lng": -84.442,
      "height_in": null,
      "height_label": "No limit (uncovered)",
      "oversized": true,
      "notes": "Uncovered.",
      "source": "atl.com"
    },
    {
      "id": "atl-zoo",
      "name": "Zoo Atlanta",
      "addr": "800 Cherokee Ave SE",
      "lat": 33.7326,
      "lng": -84.3712,
      "height_in": null,
      "height_label": "No limit (uncovered)",
      "oversized": true,
      "notes": "Grant Park. Surface lot.",
      "source": "zooatlanta.org"
    },
    {
      "id": "atl-sweetauburn",
      "name": "Sweet Auburn / MLK Historic District Lots",
      "addr": "450 Auburn Ave NE",
      "lat": 33.7559,
      "lng": -84.3749,
      "height_in": null,
      "height_label": "No limit (uncovered)",
      "oversized": false,
      "notes": "MLK Jr. NHP visitor lot.",
      "source": "nps.gov"
    },
    {
      "id": "atl-piedmont-park",
      "name": "Piedmont Park Lots",
      "addr": "400 Park Dr NE",
      "lat": 33.7851,
      "lng": -84.3727,
      "height_in": null,
      "height_label": "No limit (uncovered)",
      "oversized": true,
      "notes": "Midtown park surface lots.",
      "source": "piedmontpark.org"
    }
  ],
  "tunnels": [],
  "bridges": [
    {
      "id": "atl-i85-connector-low",
      "name": "Downtown Connector (I-75/85) Underpasses",
      "addr": "Connector through downtown",
      "lat": 33.757,
      "lng": -84.3885,
      "height_in": 168,
      "height_label": "14'0\"",
      "notes": "Standard urban freeway clearances.",
      "source": "GDOT"
    },
    {
      "id": "atl-freedom-pkwy",
      "name": "Freedom Parkway \u2014 Low Spots",
      "addr": "Freedom Pkwy east of downtown",
      "lat": 33.762,
      "lng": -84.365,
      "height_in": 168,
      "height_label": "14'0\"",
      "notes": "Standard.",
      "source": "GDOT"
    },
    {
      "id": "nbi-13-000000006350790",
      "name": "Low on-bridge clearance: OLE TOWN MORROW RO",
      "addr": "OLE TOWN MORROW RO",
      "lat": 33.57768,
      "lng": -84.35277,
      "height_in": 167,
      "height_label": "13'11\"",
      "notes": "FHWA NBI; on-bridge clearance; built 2013",
      "source": "FHWA National Bridge Inventory"
    },
    {
      "id": "nbi-13-000000006750830",
      "name": "Low on-bridge clearance: CONCORD RD (COVERE",
      "addr": "CONCORD RD (COVERE",
      "lat": 33.84917,
      "lng": -84.55893,
      "height_in": 96,
      "height_label": "8'0\"",
      "notes": "FHWA NBI; on-bridge clearance; built 1872",
      "source": "FHWA National Bridge Inventory"
    },
    {
      "id": "nbi-13-000000006753420",
      "name": "Low on-bridge clearance: I-75 MANAGED LANES",
      "addr": "I-75 MANAGED LANES",
      "lat": 33.94388,
      "lng": -84.50977,
      "height_in": 99,
      "height_label": "8'3\"",
      "notes": "FHWA NBI; on-bridge clearance; built 2017",
      "source": "FHWA National Bridge Inventory"
    },
    {
      "id": "nbi-13-000000006753450",
      "name": "Low clearance: ELIZABETH BRANCH under I-75 MANAGED LANES",
      "addr": "ELIZABETH BRANCH",
      "lat": 33.97357,
      "lng": -84.53185,
      "height_in": 88,
      "height_label": "7'4\"",
      "notes": "FHWA NBI; under-bridge clearance; built 2018; bridge carries I-75 MANAGED LANES",
      "source": "FHWA National Bridge Inventory"
    },
    {
      "id": "nbi-13-000000008950810",
      "name": "Low on-bridge clearance: COVERED BR. LANE",
      "addr": "COVERED BR. LANE",
      "lat": 33.80323,
      "lng": -84.13351,
      "height_in": 154,
      "height_label": "12'10\"",
      "notes": "FHWA NBI; on-bridge clearance; built 1891",
      "source": "FHWA National Bridge Inventory"
    },
    {
      "id": "nbi-13-000000008951770",
      "name": "Low clearance: SWIFT CREEK TRIB under LITHONIA IND BLVD",
      "addr": "SWIFT CREEK TRIB",
      "lat": 33.74503,
      "lng": -84.08701,
      "height_in": 99,
      "height_label": "8'3\"",
      "notes": "FHWA NBI; under-bridge clearance; built 2010; bridge carries LITHONIA IND BLVD",
      "source": "FHWA National Bridge Inventory"
    }
  ]
}
