{
  "garages": [
    {
      "id": "osm-w40582460",
      "name": "Shady Pines",
      "addr": "",
      "lat": 39.46196,
      "lng": -74.50753,
      "height_in": null,
      "height_label": "No limit (uncovered)",
      "oversized": true,
      "structure_type": "surface_lot",
      "notes": "Imported 2026 from OSM as an oversized-vehicle-friendly surface lot: RV park (OSM tourism=caravan_site).",
      "source": "OpenStreetMap (surface lot)",
      "entrance_lat": 39.4611608,
      "entrance_lng": -74.5063456,
      "entrance_source": "Auto (nearest Street View pano within 300m, 2026-04-24)"
    },
    {
      "id": "osm-w81343414",
      "name": "Bus Parking",
      "addr": "",
      "lat": 39.48797,
      "lng": -74.51441,
      "height_in": null,
      "height_label": "No limit (uncovered)",
      "oversized": true,
      "structure_type": "surface_lot",
      "notes": "Imported 2026 from OSM as an oversized-vehicle-friendly surface lot: HGV-friendly (OSM hgv=yes).",
      "source": "OpenStreetMap (surface lot)",
      "entrance_lat": 39.4873381,
      "entrance_lng": -74.5152804,
      "entrance_source": "Auto (nearest Street View pano within 300m, 2026-04-24)"
    }
  ],
  "tunnels": [],
  "bridges": [
    {
      "id": "nbi-34-0511155",
      "name": "Low on-bridge clearance: NJ 52 Ramp",
      "addr": "NJ 52 Ramp",
      "lat": 39.28833,
      "lng": -74.58317,
      "height_in": 168,
      "height_label": "14'0\"",
      "notes": "FHWA NBI; on-bridge clearance; built 2013",
      "source": "FHWA National Bridge Inventory"
    },
    {
      "id": "nbi-34-3100002",
      "name": "Low on-bridge clearance: OCEAN DRIVE CR 619",
      "addr": "OCEAN DRIVE CR 619",
      "lat": 39.20126,
      "lng": -74.65489,
      "height_in": 175,
      "height_label": "14'7\"",
      "notes": "FHWA NBI; on-bridge clearance; built 1948",
      "source": "FHWA National Bridge Inventory"
    }
  ]
}
