{
  "garages": [
    {
      "id": "bak-convention-ctr",
      "name": "Mechanics Bank Convention Center",
      "addr": "1001 Truxtun Ave",
      "lat": 35.3737,
      "lng": -119.0178,
      "height_in": null,
      "height_label": null,
      "oversized": false,
      "notes": "Convention center + arena complex.",
      "source": "mechanicsbankarena.com"
    },
    {
      "id": "bak-arena",
      "name": "Mechanics Bank Arena (Condors)",
      "addr": "1001 Truxtun Ave",
      "lat": 35.3735,
      "lng": -119.0175,
      "height_in": null,
      "height_label": null,
      "oversized": false,
      "notes": "AHL arena + concerts.",
      "source": "mechanicsbankarena.com"
    },
    {
      "id": "bak-17th-place",
      "name": "17th Place Parking Structure",
      "addr": "1800 Eye St",
      "lat": 35.3785,
      "lng": -119.0176,
      "height_in": null,
      "height_label": null,
      "oversized": false,
      "notes": "Downtown city garage.",
      "source": "bakersfieldcity.us"
    },
    {
      "id": "bak-20-21-structure",
      "name": "20-21 Street Parking Structure",
      "addr": "2100 Eye St",
      "lat": 35.3801,
      "lng": -119.018,
      "height_in": null,
      "height_label": null,
      "oversized": false,
      "notes": "Downtown city garage.",
      "source": "bakersfieldcity.us"
    },
    {
      "id": "bak-fox-theater",
      "name": "Fox Theater District Lots",
      "addr": "2001 H St",
      "lat": 35.3784,
      "lng": -119.0193,
      "height_in": null,
      "height_label": "No limit (uncovered)",
      "oversized": false,
      "notes": "Historic Fox Theater + downtown arts.",
      "source": "thebakersfieldfox.com"
    },
    {
      "id": "bak-padre-hotel",
      "name": "Padre Hotel Garage",
      "addr": "1702 18th St",
      "lat": 35.3768,
      "lng": -119.0183,
      "height_in": null,
      "height_label": null,
      "oversized": false,
      "notes": "Historic downtown hotel.",
      "source": "thepadrehotel.com"
    },
    {
      "id": "bak-valley-plaza-mall",
      "name": "Valley Plaza Mall",
      "addr": "2701 Ming Ave",
      "lat": 35.3434,
      "lng": -119.0556,
      "height_in": null,
      "height_label": "No limit (uncovered)",
      "oversized": false,
      "notes": "Enclosed mall surface lot.",
      "source": "valleyplazashopping.com"
    },
    {
      "id": "bak-bakersfield-commons",
      "name": "Bakersfield Commons / The Marketplace",
      "addr": "9000 Ming Ave",
      "lat": 35.3437,
      "lng": -119.1212,
      "height_in": null,
      "height_label": "No limit (uncovered)",
      "oversized": false,
      "notes": "Open-air retail.",
      "source": "Needs verification"
    },
    {
      "id": "bak-csub",
      "name": "CSU Bakersfield \u2014 Visitor Parking Structure",
      "addr": "9001 Stockdale Hwy",
      "lat": 35.349,
      "lng": -119.1049,
      "height_in": null,
      "height_label": null,
      "oversized": false,
      "notes": "CSUB visitor parking.",
      "source": "csub.edu"
    },
    {
      "id": "bak-kern-river",
      "name": "Kern River Parkway Lots",
      "addr": "Stockdale Hwy Trailheads",
      "lat": 35.3612,
      "lng": -119.084,
      "height_in": null,
      "height_label": "No limit (uncovered)",
      "oversized": true,
      "notes": "Kern River Parkway trail surface lots.",
      "source": "bakersfieldcity.us"
    },
    {
      "id": "bak-crystal-palace",
      "name": "Buck Owens' Crystal Palace",
      "addr": "2800 Buck Owens Blvd",
      "lat": 35.3963,
      "lng": -119.0459,
      "height_in": null,
      "height_label": "No limit (uncovered)",
      "oversized": true,
      "notes": "Iconic music venue. Surface lot.",
      "source": "buckowens.com",
      "entrance_lat": 35.3965188,
      "entrance_lng": -119.0451114,
      "entrance_source": "Auto (nearest Street View pano within 300m, 2026-04-24)"
    },
    {
      "id": "bak-kern-county-museum",
      "name": "Kern County Museum",
      "addr": "3801 Chester Ave",
      "lat": 35.3979,
      "lng": -119.0155,
      "height_in": null,
      "height_label": "No limit (uncovered)",
      "oversized": false,
      "notes": "Outdoor museum. Free surface lot.",
      "source": "kerncountymuseum.org"
    },
    {
      "id": "bak-rabobank-stadium",
      "name": "Bakersfield College Memorial Stadium",
      "addr": "1801 Panorama Dr",
      "lat": 35.4159,
      "lng": -119.0139,
      "height_in": null,
      "height_label": "No limit (uncovered)",
      "oversized": true,
      "notes": "BC football.",
      "source": "bakersfieldcollege.edu"
    },
    {
      "id": "bak-river-walk-park",
      "name": "The Park at River Walk",
      "addr": "11200 Stockdale Hwy",
      "lat": 35.3458,
      "lng": -119.1383,
      "height_in": null,
      "height_label": "No limit (uncovered)",
      "oversized": false,
      "notes": "Community park + concerts.",
      "source": "bakersfieldcity.us"
    },
    {
      "id": "bak-kern-museum-pioneer",
      "name": "Pioneer Village",
      "addr": "3801 Chester Ave",
      "lat": 35.3974,
      "lng": -119.0155,
      "height_in": null,
      "height_label": "No limit (uncovered)",
      "oversized": true,
      "notes": "60-structure historical village \u2014 Kern County Museum grounds.",
      "source": "kerncountymuseum.org"
    },
    {
      "id": "bak-kern-fairgrounds",
      "name": "Kern County Fairgrounds",
      "addr": "1142 S P St",
      "lat": 35.3449,
      "lng": -119.0211,
      "height_in": null,
      "height_label": "No limit (uncovered)",
      "oversized": true,
      "notes": "Annual fair + events. Massive surface lots + RV camping.",
      "source": "kerncountyfair.com"
    },
    {
      "id": "bak-airport-garage",
      "name": "Meadows Field (BFL) Parking",
      "addr": "1401 Skyway Dr",
      "lat": 35.4336,
      "lng": -119.0574,
      "height_in": null,
      "height_label": null,
      "oversized": false,
      "notes": "Terminal-adjacent.",
      "source": "meadowsfield.com",
      "entrance_lat": 35.4378477,
      "entrance_lng": -119.0547146,
      "entrance_source": "Auto (nearest Street View pano within 300m, 2026-04-24)"
    },
    {
      "id": "bak-airport-longterm",
      "name": "Meadows Field \u2014 Long Term Lot",
      "addr": "1401 Skyway Dr",
      "lat": 35.431,
      "lng": -119.058,
      "height_in": null,
      "height_label": "No limit (uncovered)",
      "oversized": true,
      "notes": "Uncovered.",
      "source": "meadowsfield.com",
      "entrance_lat": 35.4280429,
      "entrance_lng": -119.0583289,
      "entrance_source": "Auto (nearest Street View pano within 300m, 2026-04-24)"
    },
    {
      "id": "bak-amtrak-station",
      "name": "Bakersfield Amtrak Station Lot",
      "addr": "601 Truxtun Ave",
      "lat": 35.3729,
      "lng": -119.0242,
      "height_in": null,
      "height_label": "No limit (uncovered)",
      "oversized": false,
      "notes": "San Joaquins terminus.",
      "source": "amtrak.com"
    },
    {
      "id": "bak-east-hills-mall",
      "name": "East Hills Mall (largely vacated)",
      "addr": "3000 Mall View Rd",
      "lat": 35.3868,
      "lng": -118.9419,
      "height_in": null,
      "height_label": "No limit (uncovered)",
      "oversized": false,
      "notes": "Mall struggling. Surface lot.",
      "source": "Needs verification"
    },
    {
      "id": "osm-w56175071",
      "name": "Bakersfield River Run RV Park",
      "addr": "Burr street",
      "lat": 35.37761,
      "lng": -119.04827,
      "height_in": null,
      "height_label": "No limit (uncovered)",
      "oversized": true,
      "structure_type": "surface_lot",
      "notes": "Imported 2026 from OSM as an oversized-vehicle-friendly surface lot: RV park (OSM tourism=caravan_site).",
      "source": "OpenStreetMap (surface lot)"
    },
    {
      "id": "osm-w60219036",
      "name": "Stadium Parking Lot (Permit Required)",
      "addr": "",
      "lat": 35.40689,
      "lng": -118.96895,
      "height_in": null,
      "height_label": "No limit (uncovered)",
      "oversized": true,
      "structure_type": "surface_lot",
      "notes": "Imported 2026 from OSM as an oversized-vehicle-friendly surface lot: large capacity (3800 spaces). 3800 spaces. Paid parking.",
      "source": "OpenStreetMap (surface lot)"
    },
    {
      "id": "osm-w178881964",
      "name": "Orange Grove RV Park & Resort",
      "addr": "1452 Edison Road",
      "lat": 35.34183,
      "lng": -118.88006,
      "height_in": null,
      "height_label": "No limit (uncovered)",
      "oversized": true,
      "structure_type": "surface_lot",
      "notes": "Imported 2026 from OSM as an oversized-vehicle-friendly surface lot: RV park (OSM tourism=caravan_site). Paid parking.",
      "source": "OpenStreetMap (surface lot)",
      "entrance_lat": 35.3418763,
      "entrance_lng": -118.8786689,
      "entrance_source": "Auto (nearest Street View pano within 300m, 2026-04-24 surface-lot pass)"
    },
    {
      "id": "osm-w211202487",
      "name": "RV Park (unnamed)",
      "addr": "",
      "lat": 35.38267,
      "lng": -119.12856,
      "height_in": null,
      "height_label": "No limit (uncovered)",
      "oversized": true,
      "structure_type": "surface_lot",
      "notes": "Imported 2026 from OSM as an oversized-vehicle-friendly surface lot: RV park (OSM tourism=caravan_site).",
      "source": "OpenStreetMap (surface lot)"
    },
    {
      "id": "osm-w285605277",
      "name": "RV Park (unnamed)",
      "addr": "",
      "lat": 35.26418,
      "lng": -119.02015,
      "height_in": null,
      "height_label": "No limit (uncovered)",
      "oversized": true,
      "structure_type": "surface_lot",
      "notes": "Imported 2026 from OSM as an oversized-vehicle-friendly surface lot: RV park (OSM tourism=caravan_site).",
      "source": "OpenStreetMap (surface lot)",
      "entrance_lat": 35.2641981,
      "entrance_lng": -119.0212859,
      "entrance_source": "Auto (nearest Street View pano within 300m, 2026-04-24 surface-lot pass)"
    },
    {
      "id": "osm-w885743858",
      "name": "A Country RV Park",
      "addr": "622 South Fairfax Road",
      "lat": 35.35004,
      "lng": -118.93387,
      "height_in": null,
      "height_label": "No limit (uncovered)",
      "oversized": true,
      "structure_type": "surface_lot",
      "notes": "Imported 2026 from OSM as an oversized-vehicle-friendly surface lot: RV park (OSM tourism=caravan_site). 120 spaces.",
      "source": "OpenStreetMap (surface lot)",
      "entrance_lat": 35.3507605,
      "entrance_lng": -118.9348452,
      "entrance_source": "Auto (nearest Street View pano within 300m, 2026-04-24 surface-lot pass)"
    },
    {
      "id": "osm-w1359422955",
      "name": "Smoke Tree RV Park",
      "addr": "",
      "lat": 35.31436,
      "lng": -119.03225,
      "height_in": null,
      "height_label": "No limit (uncovered)",
      "oversized": true,
      "structure_type": "surface_lot",
      "notes": "Imported 2026 from OSM as an oversized-vehicle-friendly surface lot: RV park (OSM tourism=caravan_site).",
      "source": "OpenStreetMap (surface lot)",
      "entrance_lat": 35.3143467,
      "entrance_lng": -119.030103,
      "entrance_source": "Auto (nearest Street View pano within 300m, 2026-04-24 surface-lot pass)"
    }
  ],
  "tunnels": [],
  "bridges": [
    {
      "id": "bak-99-bridge",
      "name": "SR-99 \u2014 Kern River Bridge",
      "addr": "SR-99 over Kern River",
      "lat": 35.409,
      "lng": -119.0537,
      "height_in": 168,
      "height_label": "14'0\"",
      "notes": "Standard interstate/freeway clearance.",
      "source": "Caltrans",
      "entrance_lat": 35.4101745,
      "entrance_lng": -119.052864,
      "entrance_source": "Auto (nearest Street View pano within 300m, 2026-04-24)"
    },
    {
      "id": "bak-oildale-underpass",
      "name": "Oildale \u2014 Rail Underpass",
      "addr": "N Chester Ave @ UPRR",
      "lat": 35.4063,
      "lng": -119.0168,
      "height_in": 138,
      "height_label": "11'6\"",
      "notes": "Rail underpass. Some box trucks may need to detour.",
      "source": "Caltrans",
      "entrance_lat": 35.4062488,
      "entrance_lng": -119.01877,
      "entrance_source": "Auto (nearest Street View pano within 300m, 2026-04-24)"
    },
    {
      "id": "osm-w10379618",
      "name": "Low clearance \u2014 Goodmanville Road",
      "addr": "Goodmanville Road",
      "lat": 35.43603,
      "lng": -118.93199,
      "height_in": 184,
      "height_label": "15'4\"",
      "notes": "Underpass / low clearance",
      "source": "OpenStreetMap"
    },
    {
      "id": "osm-w48775436",
      "name": "Low clearance \u2014 Golden State Freeway (CA 99)",
      "addr": "CA 99",
      "lat": 35.32324,
      "lng": -119.0373,
      "height_in": 186,
      "height_label": "15'6\"",
      "notes": "Underpass / low clearance",
      "source": "OpenStreetMap"
    },
    {
      "id": "osm-w184765511",
      "name": "Low clearance \u2014 Golden State Freeway (CA 99)",
      "addr": "CA 99",
      "lat": 35.3564,
      "lng": -119.03959,
      "height_in": 181,
      "height_label": "15'1\"",
      "notes": "Underpass / low clearance",
      "source": "OpenStreetMap"
    },
    {
      "id": "osm-w186462600",
      "name": "Low clearance \u2014 McMannus Road",
      "addr": "McMannus Road",
      "lat": 35.42176,
      "lng": -118.94894,
      "height_in": 172,
      "height_label": "14'4\"",
      "notes": "Underpass / low clearance",
      "source": "OpenStreetMap"
    },
    {
      "id": "osm-w245284491",
      "name": "Low clearance \u2014 Weedpatch Highway (CA 184)",
      "addr": "CA 184",
      "lat": 35.35027,
      "lng": -118.9142,
      "height_in": 182,
      "height_label": "15'2\"",
      "notes": "Underpass / low clearance",
      "source": "OpenStreetMap"
    },
    {
      "id": "osm-w613208690",
      "name": "Low clearance underpass (secondary)",
      "addr": "",
      "lat": 35.38726,
      "lng": -119.01848,
      "height_in": 178,
      "height_label": "14'10\"",
      "notes": "Underpass / low clearance",
      "source": "OpenStreetMap"
    },
    {
      "id": "osm-w1083516779",
      "name": "Low clearance \u2014 Golden State Freeway (CA 99)",
      "addr": "CA 99",
      "lat": 35.32939,
      "lng": -119.03892,
      "height_in": 186,
      "height_label": "15'6\"",
      "notes": "Underpass / low clearance",
      "source": "OpenStreetMap"
    },
    {
      "id": "osm-w1085379633",
      "name": "Low clearance underpass (secondary)",
      "addr": "",
      "lat": 35.38664,
      "lng": -119.01912,
      "height_in": 180,
      "height_label": "15'0\"",
      "notes": "Underpass / low clearance",
      "source": "OpenStreetMap"
    },
    {
      "id": "osm-w1090352245",
      "name": "Low clearance underpass (motorway link)",
      "addr": "",
      "lat": 35.35282,
      "lng": -119.03805,
      "height_in": 196,
      "height_label": "16'4\"",
      "notes": "Underpass / low clearance",
      "source": "OpenStreetMap"
    },
    {
      "id": "osm-w1163297170",
      "name": "Low clearance \u2014 Weedpatch Highway (CA 184)",
      "addr": "CA 184",
      "lat": 35.3538,
      "lng": -118.91427,
      "height_in": 182,
      "height_label": "15'2\"",
      "notes": "Underpass / low clearance",
      "source": "OpenStreetMap"
    },
    {
      "id": "osm-w1374012288",
      "name": "Low clearance \u2014 Weedpatch Highway (CA 184)",
      "addr": "CA 184",
      "lat": 35.35219,
      "lng": -118.91427,
      "height_in": 182,
      "height_label": "15'2\"",
      "notes": "Underpass / low clearance",
      "source": "OpenStreetMap"
    },
    {
      "id": "osm-w1378635435",
      "name": "Low clearance underpass (motorway link)",
      "addr": "",
      "lat": 35.41234,
      "lng": -119.05448,
      "height_in": 179,
      "height_label": "14'11\"",
      "notes": "Underpass / low clearance",
      "source": "OpenStreetMap"
    },
    {
      "id": "osm-w1378635532",
      "name": "Low clearance \u2014 State Road",
      "addr": "State Road",
      "lat": 35.40731,
      "lng": -119.04804,
      "height_in": 172,
      "height_label": "14'4\"",
      "notes": "Underpass / low clearance",
      "source": "OpenStreetMap"
    },
    {
      "id": "osm-w1378636448",
      "name": "Low clearance \u2014 Airport Drive",
      "addr": "Airport Drive",
      "lat": 35.40201,
      "lng": -119.04139,
      "height_in": 183,
      "height_label": "15'3\"",
      "notes": "Underpass / low clearance",
      "source": "OpenStreetMap"
    },
    {
      "id": "osm-w1378641664",
      "name": "Low clearance \u2014 Union Avenue (CA 204;CA 99 BUS)",
      "addr": "CA 204;CA 99 BUS",
      "lat": 35.37219,
      "lng": -119.00303,
      "height_in": 185,
      "height_label": "15'5\"",
      "notes": "Underpass / low clearance",
      "source": "OpenStreetMap"
    }
  ]
}
