{
  "garages": [
    {
      "id": "btr-river-center",
      "name": "Raising Cane's River Center",
      "addr": "275 S River Rd",
      "lat": 30.4408,
      "lng": -91.19,
      "height_in": null,
      "height_label": null,
      "oversized": false,
      "notes": "Arena + theater + exhibition hall.",
      "source": "brrivercenter.com"
    },
    {
      "id": "btr-state-capitol",
      "name": "Louisiana State Capitol Lots",
      "addr": "900 N 3rd St",
      "lat": 30.457,
      "lng": -91.1868,
      "height_in": null,
      "height_label": "No limit (uncovered)",
      "oversized": false,
      "notes": "Capitol Grounds.",
      "source": "louisianaoldstatecapitol.org"
    },
    {
      "id": "btr-old-capitol",
      "name": "Old State Capitol Museum",
      "addr": "100 North Blvd",
      "lat": 30.4464,
      "lng": -91.188,
      "height_in": null,
      "height_label": "No limit (uncovered)",
      "oversized": false,
      "notes": "Historic 1847 Gothic building. Museum.",
      "source": "louisianaoldstatecapitol.org"
    },
    {
      "id": "btr-lsu-museum-art",
      "name": "LSU Shaw Center for the Arts",
      "addr": "100 Lafayette St",
      "lat": 30.446,
      "lng": -91.1891,
      "height_in": null,
      "height_label": null,
      "oversized": false,
      "notes": "Downtown museum + performance venue.",
      "source": "shawcenter.org"
    },
    {
      "id": "btr-public-library-main",
      "name": "East Baton Rouge Main Library",
      "addr": "7711 Goodwood Blvd",
      "lat": 30.4474,
      "lng": -91.126,
      "height_in": null,
      "height_label": "No limit (uncovered)",
      "oversized": false,
      "notes": "Flagship library.",
      "source": "ebrpl.com"
    },
    {
      "id": "btr-tiger-stadium",
      "name": "LSU Tiger Stadium (Death Valley)",
      "addr": "Skip Bertman Dr",
      "lat": 30.4119,
      "lng": -91.1839,
      "height_in": null,
      "height_label": "No limit (uncovered)",
      "oversized": true,
      "notes": "LSU football. Massive surface lots + RV tailgating ('Pre-game' most iconic tailgate).",
      "source": "lsusports.net"
    },
    {
      "id": "btr-alex-box-stadium",
      "name": "Alex Box Stadium (LSU Baseball)",
      "addr": "1 Gourrier Ln",
      "lat": 30.4049,
      "lng": -91.1866,
      "height_in": null,
      "height_label": "No limit (uncovered)",
      "oversized": true,
      "notes": "LSU baseball. 10,000+ RVs on weekends.",
      "source": "lsusports.net"
    },
    {
      "id": "btr-pmac",
      "name": "Pete Maravich Assembly Center (LSU Basketball)",
      "addr": "Skip Bertman Dr",
      "lat": 30.4126,
      "lng": -91.1872,
      "height_in": null,
      "height_label": "No limit (uncovered)",
      "oversized": false,
      "notes": "LSU basketball + gymnastics.",
      "source": "lsusports.net"
    },
    {
      "id": "btr-lsu-union-sq",
      "name": "LSU \u2014 Union Square Garage",
      "addr": "Raphael Semmes Rd",
      "lat": 30.4133,
      "lng": -91.179,
      "height_in": null,
      "height_label": null,
      "oversized": false,
      "notes": "LSU visitor parking.",
      "source": "lsu.edu/parking"
    },
    {
      "id": "btr-lsu-vet-med",
      "name": "LSU Vet Med + AgCenter Botanic Gardens",
      "addr": "Skip Bertman Dr",
      "lat": 30.4095,
      "lng": -91.172,
      "height_in": null,
      "height_label": "No limit (uncovered)",
      "oversized": false,
      "notes": "LSU ag campus.",
      "source": "lsu.edu"
    },
    {
      "id": "btr-baton-rouge-zoo",
      "name": "BREC's Baton Rouge Zoo",
      "addr": "3601 Thomas Rd",
      "lat": 30.5667,
      "lng": -91.1314,
      "height_in": null,
      "height_label": "No limit (uncovered)",
      "oversized": true,
      "notes": "Surface lot.",
      "source": "brzoo.org"
    },
    {
      "id": "btr-perkins-rowe",
      "name": "Perkins Rowe",
      "addr": "10202 Perkins Rowe",
      "lat": 30.4015,
      "lng": -91.1008,
      "height_in": null,
      "height_label": null,
      "oversized": false,
      "notes": "Upscale open-air mixed-use.",
      "source": "perkinsrowe.com"
    },
    {
      "id": "btr-mall-louisiana",
      "name": "Mall of Louisiana",
      "addr": "6401 Bluebonnet Blvd",
      "lat": 30.3917,
      "lng": -91.0992,
      "height_in": null,
      "height_label": null,
      "oversized": false,
      "notes": "Major enclosed mall.",
      "source": "mallofla.com"
    },
    {
      "id": "btr-towne-center-cortana",
      "name": "Towne Center at Cedar Lodge",
      "addr": "7415 Corporate Blvd",
      "lat": 30.4458,
      "lng": -91.11,
      "height_in": null,
      "height_label": "No limit (uncovered)",
      "oversized": false,
      "notes": "Open-air lifestyle center.",
      "source": "Needs verification"
    },
    {
      "id": "btr-uss-kidd",
      "name": "USS Kidd Veterans Museum",
      "addr": "305 S River Rd",
      "lat": 30.4401,
      "lng": -91.1927,
      "height_in": null,
      "height_label": "No limit (uncovered)",
      "oversized": false,
      "notes": "Destroyer museum on Mississippi.",
      "source": "usskidd.com"
    },
    {
      "id": "btr-louisiana-art-science",
      "name": "Louisiana Art & Science Museum",
      "addr": "100 River Rd",
      "lat": 30.4469,
      "lng": -91.1904,
      "height_in": null,
      "height_label": "No limit (uncovered)",
      "oversized": false,
      "notes": "Museum + planetarium.",
      "source": "lasm.org"
    },
    {
      "id": "btr-baton-rouge-gallery",
      "name": "Baton Rouge Gallery (City Park)",
      "addr": "1515 Dalrymple Dr",
      "lat": 30.4282,
      "lng": -91.1683,
      "height_in": null,
      "height_label": "No limit (uncovered)",
      "oversized": false,
      "notes": "Artist collective in city park.",
      "source": "batonrougegallery.org"
    },
    {
      "id": "btr-lasm-planetarium",
      "name": "Irene W. Pennington Planetarium",
      "addr": "100 S River Rd",
      "lat": 30.4466,
      "lng": -91.1901,
      "height_in": null,
      "height_label": "No limit (uncovered)",
      "oversized": false,
      "notes": "Downtown riverfront.",
      "source": "lasm.org"
    },
    {
      "id": "btr-southern-univ",
      "name": "Southern University A&M College Lots",
      "addr": "801 Harding Blvd",
      "lat": 30.5193,
      "lng": -91.1944,
      "height_in": null,
      "height_label": "No limit (uncovered)",
      "oversized": false,
      "notes": "HBCU campus.",
      "source": "subr.edu"
    },
    {
      "id": "btr-burden-museum-gardens",
      "name": "LSU AgCenter Botanic Gardens at Burden",
      "addr": "4560 Essen Ln",
      "lat": 30.3943,
      "lng": -91.1057,
      "height_in": null,
      "height_label": "No limit (uncovered)",
      "oversized": true,
      "notes": "440-acre research + gardens.",
      "source": "lsu.edu"
    },
    {
      "id": "btr-capitol-park-museum",
      "name": "Capitol Park Museum",
      "addr": "660 N 4th St",
      "lat": 30.4515,
      "lng": -91.1864,
      "height_in": null,
      "height_label": "No limit (uncovered)",
      "oversized": false,
      "notes": "LA history museum.",
      "source": "louisianastatemuseum.org"
    },
    {
      "id": "btr-baton-rouge-farmers",
      "name": "Red Stick Farmers Market",
      "addr": "501 Main St",
      "lat": 30.4498,
      "lng": -91.1883,
      "height_in": null,
      "height_label": "No limit (uncovered)",
      "oversized": false,
      "notes": "Saturday market.",
      "source": "redstickfm.com"
    },
    {
      "id": "btr-mid-city-district",
      "name": "Mid City / White Light Night District",
      "addr": "3000 block of Government St",
      "lat": 30.4397,
      "lng": -91.154,
      "height_in": null,
      "height_label": "No limit (uncovered)",
      "oversized": false,
      "notes": "Government St arts district.",
      "source": "Needs verification"
    },
    {
      "id": "btr-airport-main",
      "name": "Baton Rouge BTR \u2014 Main Garage",
      "addr": "9430 Jackie Cochran Dr",
      "lat": 30.535,
      "lng": -91.149,
      "height_in": null,
      "height_label": null,
      "oversized": false,
      "notes": "Terminal-adjacent.",
      "source": "flybtr.com"
    },
    {
      "id": "btr-airport-economy",
      "name": "BTR \u2014 Economy Lot",
      "addr": "9430 Jackie Cochran Dr",
      "lat": 30.534,
      "lng": -91.1525,
      "height_in": null,
      "height_label": "No limit (uncovered)",
      "oversized": true,
      "notes": "Uncovered.",
      "source": "flybtr.com"
    }
  ],
  "tunnels": [],
  "bridges": [
    {
      "id": "btr-horace-wilkinson",
      "name": "Horace Wilkinson Bridge (I-10)",
      "addr": "I-10 over Mississippi River",
      "lat": 30.4391,
      "lng": -91.205,
      "height_in": null,
      "height_label": "Over water",
      "notes": "Cantilever truss. Main I-10 crossing.",
      "source": "Wikipedia"
    },
    {
      "id": "btr-huey-long",
      "name": "Huey P. Long Bridge (Baton Rouge / US-190)",
      "addr": "US-190 over Mississippi",
      "lat": 30.4635,
      "lng": -91.202,
      "height_in": null,
      "height_label": "Over water",
      "notes": "Historic cantilever bridge (not to be confused with New Orleans' Huey Long).",
      "source": "ladotd.la.gov"
    },
    {
      "id": "btr-i-10-atchafalaya-basin",
      "name": "Atchafalaya Basin Bridge (I-10)",
      "addr": "I-10 west of BR",
      "lat": 30.39,
      "lng": -91.4,
      "height_in": null,
      "height_label": "Over water/swamp",
      "notes": "18-mile elevated span \u2014 2nd longest bridge in US.",
      "source": "ladotd.la.gov"
    },
    {
      "id": "nbi-22-612404500712892",
      "name": "Low clearance: LA 77  LA 411  BAYOU under I0010",
      "addr": "LA 77  LA 411  BAYOU",
      "lat": 30.41827,
      "lng": -91.43587,
      "height_in": 179,
      "height_label": "14'11\"",
      "notes": "FHWA NBI; under-bridge clearance; built 1972; bridge carries I0010",
      "source": "FHWA National Bridge Inventory"
    }
  ]
}
