{
  "garages": [
    {
      "id": "bra-landing",
      "name": "Branson Landing",
      "addr": "100 Branson Landing",
      "lat": 36.6457,
      "lng": -93.2189,
      "height_in": null,
      "height_label": "No limit (uncovered)",
      "oversized": true,
      "notes": "Waterfront shopping + dining + fountain show. Large surface lot.",
      "source": "bransonlanding.com",
      "structure_type": "surface_lot"
    },
    {
      "id": "bra-76-country-strip",
      "name": "Highway 76 / 76 Country Blvd Strip",
      "addr": "76 Country Blvd",
      "lat": 36.6434,
      "lng": -93.2649,
      "height_in": null,
      "height_label": "No limit (uncovered)",
      "oversized": true,
      "notes": "Main entertainment strip. Dozens of theater + hotel surface lots.",
      "source": "explorebranson.com",
      "structure_type": "surface_lot"
    },
    {
      "id": "bra-silver-dollar-city",
      "name": "Silver Dollar City",
      "addr": "399 Silver Dollar City Pkwy",
      "lat": 36.6673,
      "lng": -93.3387,
      "height_in": null,
      "height_label": "No limit (uncovered)",
      "oversized": true,
      "notes": "1880s-themed amusement park. Surface lots + RV.",
      "source": "silverdollarcity.com",
      "structure_type": "surface_lot"
    },
    {
      "id": "bra-whitewater",
      "name": "White Water (Branson)",
      "addr": "3505 W 76 Country Blvd",
      "lat": 36.642,
      "lng": -93.284,
      "height_in": null,
      "height_label": "No limit (uncovered)",
      "oversized": true,
      "notes": "Silver Dollar City water park.",
      "source": "silverdollarcity.com",
      "structure_type": "surface_lot"
    },
    {
      "id": "bra-big-cedar-lodge",
      "name": "Big Cedar Lodge Resort",
      "addr": "612 Devil's Pool Rd, Ridgedale",
      "lat": 36.5438,
      "lng": -93.2395,
      "height_in": null,
      "height_label": "No limit (uncovered)",
      "oversized": true,
      "notes": "Bass Pro's huge resort complex.",
      "source": "bigcedar.com",
      "structure_type": "surface_lot"
    },
    {
      "id": "bra-dixie-stampede",
      "name": "Dolly Parton's Stampede",
      "addr": "1525 W 76 Country Blvd",
      "lat": 36.6432,
      "lng": -93.244,
      "height_in": null,
      "height_label": "No limit (uncovered)",
      "oversized": true,
      "notes": "Dinner show venue. Large lot.",
      "source": "dpstampede.com",
      "structure_type": "surface_lot"
    },
    {
      "id": "bra-branson-conv-ctr",
      "name": "Branson Convention Center",
      "addr": "200 N Sycamore St",
      "lat": 36.6463,
      "lng": -93.2204,
      "height_in": null,
      "height_label": null,
      "oversized": false,
      "notes": "Hilton-attached convention center.",
      "source": "bransonconventioncenter.com"
    },
    {
      "id": "bra-showboat-branson",
      "name": "Showboat Branson Belle",
      "addr": "4800 MO-165",
      "lat": 36.5955,
      "lng": -93.2855,
      "height_in": null,
      "height_label": "No limit (uncovered)",
      "oversized": true,
      "notes": "Lake dinner cruise. Large lot.",
      "source": "silverdollarcity.com",
      "structure_type": "surface_lot"
    },
    {
      "id": "bra-presleys-theatre",
      "name": "Presleys' Country Jubilee",
      "addr": "2920 W 76 Country Blvd",
      "lat": 36.6427,
      "lng": -93.2757,
      "height_in": null,
      "height_label": "No limit (uncovered)",
      "oversized": true,
      "notes": "Long-running music show.",
      "source": "presleys.com",
      "structure_type": "surface_lot"
    },
    {
      "id": "bra-titanic-museum",
      "name": "Titanic Museum Branson",
      "addr": "3235 W 76 Country Blvd",
      "lat": 36.642,
      "lng": -93.2822,
      "height_in": null,
      "height_label": "No limit (uncovered)",
      "oversized": true,
      "notes": "Half-scale Titanic replica.",
      "source": "titanicbranson.com",
      "structure_type": "surface_lot"
    },
    {
      "id": "bra-branson-ip-casino",
      "name": "Branson Mill Craft Village",
      "addr": "1335 Branson Hills Pkwy",
      "lat": 36.6755,
      "lng": -93.239,
      "height_in": null,
      "height_label": "No limit (uncovered)",
      "oversized": false,
      "notes": "Crafts + attractions complex.",
      "source": "Needs verification",
      "entrance_lat": 36.6743825,
      "entrance_lng": -93.2397259,
      "entrance_source": "Auto (nearest Street View pano within 300m, 2026-04-24)"
    },
    {
      "id": "bra-table-rock-lake",
      "name": "Table Rock Lake State Park",
      "addr": "5272 Hwy 165, Branson",
      "lat": 36.6,
      "lng": -93.3,
      "height_in": null,
      "height_label": "No limit (uncovered)",
      "oversized": true,
      "notes": "Lake recreation + boating + campground.",
      "source": "mostateparks.com",
      "structure_type": "surface_lot"
    },
    {
      "id": "bra-hollywood-wax",
      "name": "Hollywood Wax Museum + Hollywood Entertainment",
      "addr": "3030 W 76 Country Blvd",
      "lat": 36.6428,
      "lng": -93.2783,
      "height_in": null,
      "height_label": "No limit (uncovered)",
      "oversized": false,
      "notes": "Attractions complex on 76.",
      "source": "hollywoodwaxentertainment.com"
    },
    {
      "id": "bra-track-family",
      "name": "The Track Family Fun Parks",
      "addr": "3525 W 76 Country Blvd",
      "lat": 36.6418,
      "lng": -93.2844,
      "height_in": null,
      "height_label": "No limit (uncovered)",
      "oversized": false,
      "notes": "Go-karts + mini golf.",
      "source": "bransontracks.com"
    },
    {
      "id": "bra-rv-park-branson",
      "name": "America's Best Campground",
      "addr": "499 Buena Vista Rd",
      "lat": 36.6145,
      "lng": -93.3032,
      "height_in": null,
      "height_label": "No limit (uncovered)",
      "oversized": true,
      "notes": "Branson RV park.",
      "source": "abcbranson.com",
      "structure_type": "surface_lot",
      "entrance_lat": 36.6146103,
      "entrance_lng": -93.304673,
      "entrance_source": "Auto (nearest Street View pano within 300m, 2026-04-24)"
    },
    {
      "id": "bra-koa-branson",
      "name": "Branson KOA RV Park",
      "addr": "1025 Headwaters Rd",
      "lat": 36.622,
      "lng": -93.2295,
      "height_in": null,
      "height_label": "No limit (uncovered)",
      "oversized": true,
      "notes": "KOA RV park + campground.",
      "source": "koa.com",
      "structure_type": "surface_lot",
      "entrance_lat": 36.622808,
      "entrance_lng": -93.2273289,
      "entrance_source": "Auto (nearest Street View pano within 300m, 2026-04-24)"
    },
    {
      "id": "bra-scenic-railroad",
      "name": "Branson Scenic Railway Depot",
      "addr": "206 E Main St",
      "lat": 36.6438,
      "lng": -93.2167,
      "height_in": null,
      "height_label": "No limit (uncovered)",
      "oversized": true,
      "notes": "Historic train excursions.",
      "source": "bransontrain.com",
      "entrance_lat": 36.6433372,
      "entrance_lng": -93.2158592,
      "entrance_source": "OSM parking_entrance node 13682325522",
      "structure_type": "surface_lot"
    },
    {
      "id": "bra-butterfly-palace",
      "name": "Butterfly Palace & Rainforest Adventure",
      "addr": "4106 W 76 Country Blvd",
      "lat": 36.6412,
      "lng": -93.29,
      "height_in": null,
      "height_label": "No limit (uncovered)",
      "oversized": false,
      "notes": "Indoor butterfly conservatory.",
      "source": "thebutterflypalace.com"
    },
    {
      "id": "bra-silver-dollar-rv",
      "name": "Silver Dollar City Wilderness Campground",
      "addr": "5125 State Hwy 265",
      "lat": 36.6718,
      "lng": -93.3268,
      "height_in": null,
      "height_label": "No limit (uncovered)",
      "oversized": true,
      "notes": "SDC-owned RV park.",
      "source": "silverdollarcity.com",
      "structure_type": "surface_lot"
    },
    {
      "id": "bra-promised-land-zoo",
      "name": "Promised Land Zoo",
      "addr": "2751 Shepherd of the Hills Expy",
      "lat": 36.6512,
      "lng": -93.2842,
      "height_in": null,
      "height_label": "No limit (uncovered)",
      "oversized": false,
      "notes": "Small zoo.",
      "source": "promisedlandzoo.com"
    },
    {
      "id": "bra-celebration-city",
      "name": "Shepherd of the Hills (historic)",
      "addr": "5586 W 76 Country Blvd",
      "lat": 36.6402,
      "lng": -93.3184,
      "height_in": null,
      "height_label": "No limit (uncovered)",
      "oversized": true,
      "notes": "Historic homestead + outdoor play venue.",
      "source": "theshepherdofthehills.com",
      "structure_type": "surface_lot"
    },
    {
      "id": "bra-veterans-memorial",
      "name": "Veterans Memorial Museum",
      "addr": "1250 W 76 Country Blvd",
      "lat": 36.6434,
      "lng": -93.238,
      "height_in": null,
      "height_label": "No limit (uncovered)",
      "oversized": false,
      "notes": "Military history museum.",
      "source": "vetsm.com"
    },
    {
      "id": "bra-bransonairport",
      "name": "Branson Airport (BKG)",
      "addr": "1 Airport Blvd",
      "lat": 36.5319,
      "lng": -93.2005,
      "height_in": null,
      "height_label": "No limit (uncovered)",
      "oversized": true,
      "notes": "Private regional airport (limited service). Surface lot.",
      "source": "flybranson.com",
      "structure_type": "surface_lot",
      "entrance_lat": 36.5343256,
      "entrance_lng": -93.1987509,
      "entrance_source": "Auto (nearest Street View pano within 300m, 2026-04-24)"
    },
    {
      "id": "bra-sgf-airport",
      "name": "Springfield-Branson SGF Airport (~45mi N)",
      "addr": "2300 N Airport Blvd, Springfield",
      "lat": 37.2458,
      "lng": -93.3891,
      "height_in": null,
      "height_label": null,
      "oversized": false,
      "notes": "Primary commercial airport for region.",
      "source": "flyspringfield.com"
    },
    {
      "id": "osm-n1534391946",
      "name": "Oak Grove RV Park and Campground",
      "addr": "780 State Highway 165",
      "lat": 36.6274,
      "lng": -93.28012,
      "height_in": null,
      "height_label": "No limit (uncovered)",
      "oversized": true,
      "structure_type": "surface_lot",
      "notes": "Imported 2026 from OSM as an oversized-vehicle-friendly surface lot: RV park (OSM tourism=caravan_site).",
      "source": "OpenStreetMap (surface lot)"
    },
    {
      "id": "osm-n2623113507",
      "name": "Willow Tree RV Park",
      "addr": "3381 Shepherd of the Hills Expwy",
      "lat": 36.65141,
      "lng": -93.28546,
      "height_in": null,
      "height_label": "No limit (uncovered)",
      "oversized": true,
      "structure_type": "surface_lot",
      "notes": "Imported 2026 from OSM as an oversized-vehicle-friendly surface lot: RV park (OSM tourism=caravan_site).",
      "source": "OpenStreetMap (surface lot)"
    },
    {
      "id": "osm-n2623113607",
      "name": "Branson Musicland Kampground",
      "addr": "116 Gretna Road",
      "lat": 36.64021,
      "lng": -93.27987,
      "height_in": null,
      "height_label": "No limit (uncovered)",
      "oversized": true,
      "structure_type": "surface_lot",
      "notes": "Imported 2026 from OSM as an oversized-vehicle-friendly surface lot: RV park (OSM tourism=caravan_site).",
      "source": "OpenStreetMap (surface lot)"
    },
    {
      "id": "osm-n2689309813",
      "name": "RV Park (unnamed)",
      "addr": "",
      "lat": 36.62719,
      "lng": -93.34665,
      "height_in": null,
      "height_label": "No limit (uncovered)",
      "oversized": true,
      "structure_type": "surface_lot",
      "notes": "Imported 2026 from OSM as an oversized-vehicle-friendly surface lot: RV park (OSM tourism=caravan_site).",
      "source": "OpenStreetMap (surface lot)"
    },
    {
      "id": "osm-n2689309835",
      "name": "Andrews Landing",
      "addr": "5329 State Highway 165",
      "lat": 36.58425,
      "lng": -93.30834,
      "height_in": null,
      "height_label": "No limit (uncovered)",
      "oversized": true,
      "structure_type": "surface_lot",
      "notes": "Imported 2026 from OSM as an oversized-vehicle-friendly surface lot: RV park (OSM tourism=caravan_site).",
      "source": "OpenStreetMap (surface lot)"
    },
    {
      "id": "osm-n2689339696",
      "name": "RV Park (unnamed)",
      "addr": "",
      "lat": 36.56052,
      "lng": -93.31751,
      "height_in": null,
      "height_label": "No limit (uncovered)",
      "oversized": true,
      "structure_type": "surface_lot",
      "notes": "Imported 2026 from OSM as an oversized-vehicle-friendly surface lot: RV park (OSM tourism=caravan_site).",
      "source": "OpenStreetMap (surface lot)"
    },
    {
      "id": "osm-n2691974077",
      "name": "Branson Stagecoach RV Park",
      "addr": "5751 State Highway 165",
      "lat": 36.58315,
      "lng": -93.30062,
      "height_in": null,
      "height_label": "No limit (uncovered)",
      "oversized": true,
      "structure_type": "surface_lot",
      "notes": "Imported 2026 from OSM as an oversized-vehicle-friendly surface lot: RV park (OSM tourism=caravan_site).",
      "source": "OpenStreetMap (surface lot)"
    },
    {
      "id": "osm-n2693744983",
      "name": "RV Park (unnamed)",
      "addr": "",
      "lat": 36.60311,
      "lng": -93.29545,
      "height_in": null,
      "height_label": "No limit (uncovered)",
      "oversized": true,
      "structure_type": "surface_lot",
      "notes": "Imported 2026 from OSM as an oversized-vehicle-friendly surface lot: RV park (OSM tourism=caravan_site).",
      "source": "OpenStreetMap (surface lot)"
    },
    {
      "id": "osm-n2693744991",
      "name": "RV Park (unnamed)",
      "addr": "",
      "lat": 36.60285,
      "lng": -93.28174,
      "height_in": null,
      "height_label": "No limit (uncovered)",
      "oversized": true,
      "structure_type": "surface_lot",
      "notes": "Imported 2026 from OSM as an oversized-vehicle-friendly surface lot: RV park (OSM tourism=caravan_site).",
      "source": "OpenStreetMap (surface lot)"
    },
    {
      "id": "osm-n2693807423",
      "name": "Ozark Country Campground",
      "addr": "679 Quebec Drive",
      "lat": 36.61481,
      "lng": -93.28712,
      "height_in": null,
      "height_label": "No limit (uncovered)",
      "oversized": true,
      "structure_type": "surface_lot",
      "notes": "Imported 2026 from OSM as an oversized-vehicle-friendly surface lot: RV park (OSM tourism=caravan_site).",
      "source": "OpenStreetMap (surface lot)"
    },
    {
      "id": "osm-n2693824293",
      "name": "RV Park (unnamed)",
      "addr": "",
      "lat": 36.6117,
      "lng": -93.2768,
      "height_in": null,
      "height_label": "No limit (uncovered)",
      "oversized": true,
      "structure_type": "surface_lot",
      "notes": "Imported 2026 from OSM as an oversized-vehicle-friendly surface lot: RV park (OSM tourism=caravan_site).",
      "source": "OpenStreetMap (surface lot)"
    },
    {
      "id": "osm-n2694043303",
      "name": "Branson View Campground",
      "addr": "2362 State Highway 265",
      "lat": 36.63453,
      "lng": -93.30518,
      "height_in": null,
      "height_label": "No limit (uncovered)",
      "oversized": true,
      "structure_type": "surface_lot",
      "notes": "Imported 2026 from OSM as an oversized-vehicle-friendly surface lot: RV park (OSM tourism=caravan_site).",
      "source": "OpenStreetMap (surface lot)"
    },
    {
      "id": "osm-n2694185840",
      "name": "Branson Shenanigans RV Park",
      "addr": "3675 Keeter Street",
      "lat": 36.6462,
      "lng": -93.29204,
      "height_in": null,
      "height_label": "No limit (uncovered)",
      "oversized": true,
      "structure_type": "surface_lot",
      "notes": "Imported 2026 from OSM as an oversized-vehicle-friendly surface lot: RV park (OSM tourism=caravan_site).",
      "source": "OpenStreetMap (surface lot)"
    },
    {
      "id": "osm-n2694354973",
      "name": "Treasure Lake Phase 4",
      "addr": "1 Treasure Lake Drive",
      "lat": 36.65765,
      "lng": -93.27664,
      "height_in": null,
      "height_label": "No limit (uncovered)",
      "oversized": true,
      "structure_type": "surface_lot",
      "notes": "Imported 2026 from OSM as an oversized-vehicle-friendly surface lot: RV park (OSM tourism=caravan_site).",
      "source": "OpenStreetMap (surface lot)"
    },
    {
      "id": "osm-n2702082936",
      "name": "Pea Patch RV Park",
      "addr": "",
      "lat": 36.63674,
      "lng": -93.28362,
      "height_in": null,
      "height_label": "No limit (uncovered)",
      "oversized": true,
      "structure_type": "surface_lot",
      "notes": "Imported 2026 from OSM as an oversized-vehicle-friendly surface lot: RV park (OSM tourism=caravan_site).",
      "source": "OpenStreetMap (surface lot)"
    },
    {
      "id": "osm-n5081709047",
      "name": "Branson KOA",
      "addr": "397 Animal Safari Road",
      "lat": 36.62834,
      "lng": -93.28534,
      "height_in": null,
      "height_label": "No limit (uncovered)",
      "oversized": true,
      "structure_type": "surface_lot",
      "notes": "Imported 2026 from OSM as an oversized-vehicle-friendly surface lot: RV park (OSM tourism=caravan_site).",
      "source": "OpenStreetMap (surface lot)"
    },
    {
      "id": "osm-n11434321227",
      "name": "Treasure Lake Phase 3",
      "addr": "1 Treasure Lake Drive",
      "lat": 36.66093,
      "lng": -93.27947,
      "height_in": null,
      "height_label": "No limit (uncovered)",
      "oversized": true,
      "structure_type": "surface_lot",
      "notes": "Imported 2026 from OSM as an oversized-vehicle-friendly surface lot: RV park (OSM tourism=caravan_site).",
      "source": "OpenStreetMap (surface lot)"
    },
    {
      "id": "osm-n11434321228",
      "name": "Treasure Lake Phase 2",
      "addr": "1 Treasure Lake Drive",
      "lat": 36.66406,
      "lng": -93.28402,
      "height_in": null,
      "height_label": "No limit (uncovered)",
      "oversized": true,
      "structure_type": "surface_lot",
      "notes": "Imported 2026 from OSM as an oversized-vehicle-friendly surface lot: RV park (OSM tourism=caravan_site).",
      "source": "OpenStreetMap (surface lot)"
    },
    {
      "id": "osm-n11434321229",
      "name": "Treasure Lake Phase 1",
      "addr": "1 Treasure Lake Drive",
      "lat": 36.65794,
      "lng": -93.2839,
      "height_in": null,
      "height_label": "No limit (uncovered)",
      "oversized": true,
      "structure_type": "surface_lot",
      "notes": "Imported 2026 from OSM as an oversized-vehicle-friendly surface lot: RV park (OSM tourism=caravan_site).",
      "source": "OpenStreetMap (surface lot)"
    },
    {
      "id": "osm-n13500828917",
      "name": "RV Park (unnamed)",
      "addr": "",
      "lat": 36.66828,
      "lng": -93.24933,
      "height_in": null,
      "height_label": "No limit (uncovered)",
      "oversized": true,
      "structure_type": "surface_lot",
      "notes": "Imported 2026 from OSM as an oversized-vehicle-friendly surface lot: RV park (OSM tourism=caravan_site).",
      "source": "OpenStreetMap (surface lot)"
    },
    {
      "id": "osm-w262613405",
      "name": "America's Best Campground - Branson",
      "addr": "499 Buena Vista Road",
      "lat": 36.68429,
      "lng": -93.25922,
      "height_in": null,
      "height_label": "No limit (uncovered)",
      "oversized": true,
      "structure_type": "surface_lot",
      "notes": "Imported 2026 from OSM as an oversized-vehicle-friendly surface lot: RV park (OSM tourism=caravan_site).",
      "source": "OpenStreetMap (surface lot)"
    },
    {
      "id": "osm-w264524301",
      "name": "Branson Lakeside RV Park",
      "addr": "",
      "lat": 36.63594,
      "lng": -93.21746,
      "height_in": null,
      "height_label": "No limit (uncovered)",
      "oversized": true,
      "structure_type": "surface_lot",
      "notes": "Imported 2026 from OSM as an oversized-vehicle-friendly surface lot: RV park (OSM tourism=caravan_site).",
      "source": "OpenStreetMap (surface lot)"
    },
    {
      "id": "osm-w706084501",
      "name": "Treasure Lake RV Resort",
      "addr": "1 Treasure Lake Drive",
      "lat": 36.65988,
      "lng": -93.28215,
      "height_in": null,
      "height_label": "No limit (uncovered)",
      "oversized": true,
      "structure_type": "surface_lot",
      "notes": "Imported 2026 from OSM as an oversized-vehicle-friendly surface lot: RV park (OSM tourism=caravan_site).",
      "source": "OpenStreetMap (surface lot)"
    }
  ],
  "tunnels": [],
  "bridges": [
    {
      "id": "bra-table-rock-dam",
      "name": "Table Rock Dam (Lake)",
      "addr": "Table Rock Dam",
      "lat": 36.5961,
      "lng": -93.3156,
      "height_in": null,
      "height_label": "Over dam",
      "notes": "Dam + fish hatchery crossing.",
      "source": "USACE"
    },
    {
      "id": "bra-us-65-lake-taneycomo",
      "name": "US-65 Bridges over Lake Taneycomo",
      "addr": "US-65 near Branson",
      "lat": 36.665,
      "lng": -93.21,
      "height_in": null,
      "height_label": "Over water",
      "notes": "Main N-S highway crossings.",
      "source": "MoDOT",
      "entrance_lat": 36.6641643,
      "entrance_lng": -93.2089955,
      "entrance_source": "Auto (nearest Street View pano within 300m, 2026-04-24)"
    },
    {
      "id": "nbi-29-10062",
      "name": "Low on-bridge clearance: US 160 E",
      "addr": "US 160 E",
      "lat": 36.68427,
      "lng": -93.10563,
      "height_in": 170,
      "height_label": "14'2\"",
      "notes": "FHWA NBI; on-bridge clearance; built 1951",
      "source": "FHWA National Bridge Inventory"
    },
    {
      "id": "nbi-29-6244",
      "name": "Low on-bridge clearance: US 160 E",
      "addr": "US 160 E",
      "lat": 36.67171,
      "lng": -93.02335,
      "height_in": 169,
      "height_label": "14'1\"",
      "notes": "FHWA NBI; on-bridge clearance; built 1953",
      "source": "FHWA National Bridge Inventory"
    }
  ]
}
