{
  "garages": [
    { "id": "cha-aquarium-lot", "name": "Tennessee Aquarium Garage", "addr": "201 Chestnut St", "lat": 35.0560, "lng": -85.3113, "height_in": null, "height_label": null, "oversized": false, "notes": "Aquarium complex garage.", "source": "tnaqua.org" },
    { "id": "cha-riverfront-lot", "name": "Ross's Landing / Riverfront Parkway Lots", "addr": "201 Riverfront Pkwy", "lat": 35.0580, "lng": -85.3088, "height_in": null, "height_label": "No limit (uncovered)", "oversized": true, "notes": "Waterfront surface lots.", "source": "Needs verification" },
    { "id": "cha-convention-center", "name": "Chattanooga Convention Center", "addr": "1 Carter Plaza", "lat": 35.0519, "lng": -85.3055, "height_in": null, "height_label": null, "oversized": false, "notes": "Convention center garage.", "source": "chattconvention.org" },
    { "id": "cha-unum-garage", "name": "Unum Garage (Downtown)", "addr": "1 Fountain Sq", "lat": 35.0467, "lng": -85.3096, "height_in": null, "height_label": null, "oversized": false, "notes": "Downtown office.", "source": "Needs verification" },
    { "id": "cha-miller-plaza", "name": "Miller Plaza Garage", "addr": "910 Market St", "lat": 35.0515, "lng": -85.3094, "height_in": null, "height_label": null, "oversized": false, "notes": "Downtown plaza.", "source": "Needs verification" },
    { "id": "cha-choo-choo", "name": "Chattanooga Choo Choo (Terminal Station)", "addr": "1400 Market St", "lat": 35.0405, "lng": -85.3093, "height_in": null, "height_label": "No limit (uncovered)", "oversized": true, "notes": "Historic train station hotel + events. Surface lot.", "source": "choochoo.com" },
    { "id": "cha-walnut-st-bridge", "name": "Walnut Street Bridge Lots", "addr": "Walnut St @ Riverfront", "lat": 35.0593, "lng": -85.3066, "height_in": null, "height_label": "No limit (uncovered)", "oversized": false, "notes": "Historic pedestrian bridge landings.", "source": "Needs verification" },
    { "id": "cha-bluff-view-art", "name": "Bluff View Art District", "addr": "411 E 2nd St", "lat": 35.0575, "lng": -85.3045, "height_in": null, "height_label": "No limit (uncovered)", "oversized": false, "notes": "Art district + Hunter Museum.", "source": "bluffviewartdistrict.com" },
    { "id": "cha-hunter-museum", "name": "Hunter Museum of American Art", "addr": "10 Bluff View Ave", "lat": 35.0581, "lng": -85.3033, "height_in": null, "height_label": "No limit (uncovered)", "oversized": false, "notes": "Museum on bluff overlooking river.", "source": "huntermuseum.org" },
    { "id": "cha-finley-stadium", "name": "Finley Stadium (Mocs)", "addr": "1826 Carter St", "lat": 35.0388, "lng": -85.3140, "height_in": null, "height_label": "No limit (uncovered)", "oversized": true, "notes": "UT-Chattanooga football.", "source": "Needs verification" },
    { "id": "cha-mccellan-stadium", "name": "AT&T Field (Lookouts)", "addr": "201 Power Aly", "lat": 35.0612, "lng": -85.3110, "height_in": null, "height_label": "No limit (uncovered)", "oversized": false, "notes": "AA Chattanooga Lookouts.", "source": "milb.com" },
    { "id": "cha-coolidge-park", "name": "Coolidge Park Lots (North Shore)", "addr": "150 River St", "lat": 35.0622, "lng": -85.3080, "height_in": null, "height_label": "No limit (uncovered)", "oversized": true, "notes": "Carousel + riverfront park.", "source": "chattanooga.gov" },
    { "id": "cha-creative-discovery", "name": "Creative Discovery Museum", "addr": "321 Chestnut St", "lat": 35.0563, "lng": -85.3126, "height_in": null, "height_label": null, "oversized": false, "notes": "Children's museum.", "source": "cdmfun.org" },
    { "id": "cha-utc-campus", "name": "UTC — Campus Visitor Parking", "addr": "752 Oak St", "lat": 35.0474, "lng": -85.2972, "height_in": null, "height_label": null, "oversized": false, "notes": "UT Chattanooga visitor.", "source": "utc.edu" },
    { "id": "cha-warehouse-row", "name": "Warehouse Row", "addr": "1110 Market St", "lat": 35.0480, "lng": -85.3094, "height_in": null, "height_label": null, "oversized": false, "notes": "Shopping + dining district.", "source": "warehouserow.net" },
    { "id": "cha-lookout-mountain-incline", "name": "Lookout Mountain Incline Railway — Lower Station", "addr": "3917 St Elmo Ave", "lat": 35.0000, "lng": -85.3428, "height_in": null, "height_label": "No limit (uncovered)", "oversized": true, "notes": "Steepest passenger railway in world.", "source": "ridetheincline.com" },
    { "id": "cha-rock-city", "name": "Rock City (Lookout Mountain)", "addr": "1400 Patten Rd, Lookout Mountain GA", "lat": 34.9716, "lng": -85.3464, "height_in": null, "height_label": "No limit (uncovered)", "oversized": true, "notes": "See 7 states. GA side of mountain. Surface lot.", "source": "seerockcity.com" },
    { "id": "cha-ruby-falls", "name": "Ruby Falls (Lookout Mountain)", "addr": "1720 S Scenic Hwy", "lat": 34.9906, "lng": -85.3392, "height_in": null, "height_label": "No limit (uncovered)", "oversized": true, "notes": "Underground waterfall. Surface lot.", "source": "rubyfalls.com" },
    { "id": "cha-point-park", "name": "Point Park (Civil War)", "addr": "110 Point Park Rd", "lat": 35.0103, "lng": -85.3420, "height_in": null, "height_label": "No limit (uncovered)", "oversized": false, "notes": "Lookout Mountain Battlefield NPS.", "source": "nps.gov/chch" },
    { "id": "cha-chickamauga-battlefield", "name": "Chickamauga Battlefield Visitor Center", "addr": "3370 LaFayette Rd, Fort Oglethorpe GA", "lat": 34.9388, "lng": -85.2592, "height_in": null, "height_label": "No limit (uncovered)", "oversized": true, "notes": "First national military park.", "source": "nps.gov/chch" },
    { "id": "cha-tva-lakes", "name": "TVA Lakes Recreation — Various Access", "addr": "Raccoon Mountain", "lat": 35.0665, "lng": -85.4120, "height_in": null, "height_label": "No limit (uncovered)", "oversized": true, "notes": "Multiple TVA lake lots.", "source": "tva.com" },
    { "id": "cha-hamilton-place", "name": "Hamilton Place Mall", "addr": "2100 Hamilton Place Blvd", "lat": 35.0403, "lng": -85.1570, "height_in": null, "height_label": null, "oversized": false, "notes": "Enclosed mall.", "source": "simon.com" },
    { "id": "cha-airport-main", "name": "Chattanooga Airport (CHA) Garage", "addr": "1001 Airport Rd", "lat": 35.0385, "lng": -85.2052, "height_in": null, "height_label": null, "oversized": false, "notes": "Terminal-adjacent.", "source": "chattairport.com" },
    { "id": "cha-airport-economy", "name": "CHA — Economy Lot", "addr": "1001 Airport Rd", "lat": 35.0368, "lng": -85.2078, "height_in": null, "height_label": "No limit (uncovered)", "oversized": true, "notes": "Uncovered.", "source": "chattairport.com" }
  ],
  "tunnels": [
    { "id": "cha-missionary-ridge", "name": "Missionary Ridge Tunnel (US-27)", "addr": "US-27 through ridge", "lat": 35.0395, "lng": -85.2796, "height_in": 168, "height_label": "14'0\"", "notes": "Highway tunnel through historic Civil War ridge.", "source": "TDOT" },
    { "id": "cha-signal-mountain", "name": "Signal Mountain Tunnel (various)", "addr": "Signal Mtn Blvd (SR-27)", "lat": 35.1338, "lng": -85.3427, "height_in": 156, "height_label": "13'0\"", "notes": "Mountain road tunnels.", "source": "TDOT" }
  ],
  "bridges": [
    { "id": "cha-walnut-st-bridge-ped", "name": "Walnut Street Bridge (pedestrian)", "addr": "over Tennessee River", "lat": 35.0602, "lng": -85.3070, "height_in": null, "height_label": "Pedestrian only", "notes": "One of world's longest pedestrian bridges. 1891 truss.", "source": "Wikipedia" },
    { "id": "cha-market-st-bridge", "name": "Market Street Bridge (US-27)", "addr": "US-27 over Tennessee River", "lat": 35.0600, "lng": -85.3107, "height_in": null, "height_label": "Over water", "notes": "Bascule/swing bridge.", "source": "TDOT" },
    { "id": "cha-veterans-bridge", "name": "Veterans Bridge (US-27)", "addr": "US-27 over Tennessee River", "lat": 35.0627, "lng": -85.3006, "height_in": null, "height_label": "Over water", "notes": "Main US-27 river crossing.", "source": "TDOT" }
  ]
}
