{
  "garages": [
    {
      "id": "chi-mp-garage",
      "name": "Millennium Park Garage",
      "addr": "5 S Columbus Dr",
      "lat": 41.883,
      "lng": -87.62,
      "height_in": 80,
      "height_label": "6'8\"",
      "oversized": false,
      "notes": "2,126 spaces under Millennium Park / Jay Pritzker Pavilion. No oversized.",
      "source": "millenniumgarages.com",
      "entrance_lat": 41.8830118,
      "entrance_lng": -87.6197332,
      "entrance_source": "OSM parking_entrance node 7139284211"
    },
    {
      "id": "chi-mp-lakeside",
      "name": "Millennium Lakeside Garage",
      "addr": "5 S Columbus Dr",
      "lat": 41.8819,
      "lng": -87.6184,
      "height_in": 80,
      "height_label": "6'8\"",
      "oversized": false,
      "notes": "3,850 spaces. Entrance off Columbus. No oversized.",
      "source": "millenniumgarages.com",
      "entrance_lat": 41.8817799,
      "entrance_lng": -87.6184292,
      "entrance_source": "OSM parking_entrance node 7131957916"
    },
    {
      "id": "chi-grant-n",
      "name": "Grant Park North Garage",
      "addr": "25 N Michigan Ave",
      "lat": 41.8863,
      "lng": -87.6245,
      "height_in": 80,
      "height_label": "6'8\"",
      "oversized": false,
      "notes": "Serves Loop north, Millennium Park. Under Grant Park.",
      "source": "millenniumgarages.com",
      "entrance_lat": 41.8869928,
      "entrance_lng": -87.6239725,
      "entrance_source": "OSM parking_entrance node 8250999803"
    },
    {
      "id": "chi-grant-s",
      "name": "Grant Park South Garage",
      "addr": "325 S Michigan Ave",
      "lat": 41.8778,
      "lng": -87.6245,
      "height_in": 80,
      "height_label": "6'8\"",
      "oversized": false,
      "notes": "Serves Loop south, Art Institute.",
      "source": "millenniumgarages.com",
      "entrance_lat": 41.8779154,
      "entrance_lng": -87.6243194,
      "entrance_source": "OSM parking_entrance node 2423698851"
    },
    {
      "id": "chi-cityfront-place",
      "name": "Cityfront Place Garage",
      "addr": "400 N McClurg Ct",
      "lat": 41.8903,
      "lng": -87.6175,
      "height_in": 132,
      "height_label": "11'0\"",
      "oversized": false,
      "notes": "River North, near Navy Pier. Clearance needs verification.\nVerified 2026-04-22 from sign reading \"MAX HEIGHT 11'\" (pano r4RQa7g8R8rqdaa0uwDSng, heading 0\u00b0, Claude confidence high)",
      "source": "AI-verified (Street View + Claude Vision \u2014 auto-pano) \u2014 was: Needs verification",
      "entrance_lat": 41.8894245,
      "entrance_lng": -87.6189517,
      "entrance_source": "OSM parking_entrance node 11792258803",
      "verified_on": "2026-04-22",
      "pano_id": "r4RQa7g8R8rqdaa0uwDSng",
      "pano_heading": 0
    },
    {
      "id": "chi-water-tower-pl",
      "name": "Water Tower Place Garage",
      "addr": "845 N Michigan Ave",
      "lat": 41.8987,
      "lng": -87.6244,
      "height_in": 84,
      "height_label": "7'0\"",
      "oversized": false,
      "notes": "Magnificent Mile shopping. Clearance needs verification.\nVerified 2026-04-22 from sign reading \"7'0\" (pano SWKWOKFiGmo7hs7a9QvjgA, heading 0.0\u00b0, Claude confidence medium [+1 more section(s)])",
      "source": "AI-verified (Street View + Claude Vision \u2014 auto-pano) \u2014 was: Needs verification",
      "entrance_lat": 41.8993152,
      "entrance_lng": -87.6246972,
      "entrance_source": "OSM parking_entrance node 11905449454",
      "verified_on": "2026-04-22",
      "pano_id": "SWKWOKFiGmo7hs7a9QvjgA",
      "pano_heading": 0.0,
      "sections": [
        {
          "label": "Lane 1",
          "height_in": 84,
          "height_label": "7'0\""
        },
        {
          "label": "Lane 2",
          "height_in": 90,
          "height_label": "7'6\""
        }
      ]
    },
    {
      "id": "chi-900-mich",
      "name": "900 North Michigan Shops",
      "addr": "900 N Michigan Ave",
      "lat": 41.8997,
      "lng": -87.6243,
      "height_in": 96,
      "height_label": "8'0\"",
      "oversized": false,
      "notes": "Bloomingdale's + Four Seasons tower. Clearance needs verification.\nVerified 2026-04-22 from sign reading \"8'0\" (pano SWKWOKFiGmo7hs7a9QvjgA, heading 0\u00b0, Claude confidence medium)",
      "source": "AI-verified (Street View + Claude Vision \u2014 auto-pano) \u2014 was: Needs verification",
      "entrance_lat": 41.8993152,
      "entrance_lng": -87.6246972,
      "entrance_source": "OSM parking_entrance node 11905449454",
      "verified_on": "2026-04-22",
      "pano_id": "SWKWOKFiGmo7hs7a9QvjgA",
      "pano_heading": 0
    },
    {
      "id": "chi-john-hancock",
      "name": "875 N Michigan (Hancock) Garage",
      "addr": "875 N Michigan Ave",
      "lat": 41.899,
      "lng": -87.6229,
      "height_in": 84,
      "height_label": "7'0\"",
      "oversized": false,
      "notes": "Former John Hancock Center. Clearance needs verification.\nVerified 2026-04-22 from sign reading \"7'0\" (pano emof9IkkR74jUfo5tbpjIw, heading 135.0\u00b0, Claude confidence medium)",
      "source": "AI-verified (Street View + Claude Vision \u2014 auto-pano) \u2014 was: Needs verification",
      "entrance_lat": 41.8986654,
      "entrance_lng": -87.6225945,
      "entrance_source": "OSM parking_entrance node 11899379815",
      "verified_on": "2026-04-22",
      "pano_id": "emof9IkkR74jUfo5tbpjIw",
      "pano_heading": 135.0
    },
    {
      "id": "chi-auditorium",
      "name": "Auditorium Theatre Garage",
      "addr": "525 S Wabash Ave",
      "lat": 41.8761,
      "lng": -87.6263,
      "height_in": 132,
      "height_label": "11'0\"",
      "oversized": false,
      "notes": "Serves Auditorium Theatre, Loop south. Clearance needs verification.\nVerified 2026-04-22 from sign reading \"11'0\"\" (pano 7vy2Ew_fWYlRjAc1nZdlHA, heading 0\u00b0, Claude confidence medium)",
      "source": "AI-verified (Street View + Claude Vision \u2014 auto-pano) \u2014 was: Needs verification",
      "entrance_lat": 41.8756217,
      "entrance_lng": -87.6253554,
      "entrance_source": "OSM parking_entrance node 12056312574",
      "verified_on": "2026-04-22",
      "pano_id": "7vy2Ew_fWYlRjAc1nZdlHA",
      "pano_heading": 0
    },
    {
      "id": "chi-franklin-lasalle",
      "name": "LaSalle/Franklin Garages (Loop)",
      "addr": "161 N Clark St",
      "lat": 41.8852,
      "lng": -87.6311,
      "height_in": 98,
      "height_label": "8'2\"",
      "oversized": false,
      "notes": "Loop office district. Multiple operators.\nVerified 2026-04-22 from sign reading \"8'-2\" Clearance\" (pano tIjTcgH8_cV7F-5uWu6gZw, heading 90\u00b0, Claude confidence high [+1 more section(s)])",
      "source": "AI-verified (Street View + Claude Vision \u2014 auto-pano) \u2014 was: Needs verification",
      "entrance_lat": 41.8853799,
      "entrance_lng": -87.6308317,
      "entrance_source": "OSM parking_entrance node 8013475694",
      "verified_on": "2026-04-22",
      "pano_id": "tIjTcgH8_cV7F-5uWu6gZw",
      "pano_heading": 90,
      "sections": [
        {
          "label": "Lane 1",
          "height_in": 98,
          "height_label": "8'2\""
        },
        {
          "label": "Public Parking",
          "height_in": 132,
          "height_label": "11'0\""
        }
      ]
    },
    {
      "id": "chi-union-station",
      "name": "Union Station Garage",
      "addr": "225 S Canal St",
      "lat": 41.8789,
      "lng": -87.64,
      "height_in": 84,
      "height_label": "7'0\"",
      "oversized": false,
      "notes": "Amtrak/Metra station. Clearance needs verification.\nVerified 2026-04-22 from sign reading \"7'0\"\" (pano SagSHp7IE-nGKn3-uoUelQ, heading 90\u00b0, Claude confidence medium)",
      "source": "AI-verified (Street View + Claude Vision \u2014 auto-pano) \u2014 was: Needs verification",
      "entrance_lat": 41.8774282,
      "entrance_lng": -87.6408972,
      "entrance_source": "OSM parking_entrance node 13142787922",
      "verified_on": "2026-04-22",
      "pano_id": "SagSHp7IE-nGKn3-uoUelQ",
      "pano_heading": 90
    },
    {
      "id": "chi-willis",
      "name": "Willis Tower Garage",
      "addr": "233 S Wacker Dr",
      "lat": 41.8789,
      "lng": -87.6359,
      "height_in": 132,
      "height_label": "11'0\"",
      "oversized": false,
      "notes": "Under Willis (Sears) Tower. Clearance needs verification.\nVerified 2026-04-22 from sign reading \"11' 0\"\" (pano R7RgU7HjDkpwVQjhRZDNkA, heading 135\u00b0, Claude confidence high [+1 more section(s)])",
      "source": "AI-verified (Street View + Claude Vision \u2014 auto-pano) \u2014 was: Needs verification",
      "entrance_lat": 41.8788628,
      "entrance_lng": -87.6350994,
      "entrance_source": "OSM parking_entrance node 10974049462",
      "verified_on": "2026-04-22",
      "pano_id": "R7RgU7HjDkpwVQjhRZDNkA",
      "pano_heading": 135,
      "sections": [
        {
          "label": "Tower Self Park",
          "height_in": 132,
          "height_label": "11'0\""
        },
        {
          "label": "Lane 2",
          "height_in": 216,
          "height_label": "18'0\""
        }
      ]
    },
    {
      "id": "chi-riverwalk-east",
      "name": "East Wacker Drive Garage",
      "addr": "100 E Wacker Dr",
      "lat": 41.8878,
      "lng": -87.626,
      "height_in": null,
      "height_label": null,
      "oversized": false,
      "notes": "Loop/Chicago Riverwalk area.",
      "source": "Needs verification",
      "entrance_lat": 41.8875938,
      "entrance_lng": -87.6256881,
      "entrance_source": "OSM parking_entrance node 9378228733"
    },
    {
      "id": "chi-mccormick-mrshl",
      "name": "McCormick Place Marshalling Yard",
      "addr": "31st St & Lake Shore Dr",
      "lat": 41.841,
      "lng": -87.615,
      "height_in": null,
      "height_label": "No limit (uncovered)",
      "oversized": true,
      "notes": "Surface lots used for convention overflow + oversized/RV. Open-air.",
      "source": "McCormick Place",
      "structure_type": "surface_lot"
    },
    {
      "id": "chi-mccormick-north",
      "name": "McCormick Place \u2014 Lot A",
      "addr": "2301 S Lake Shore Dr",
      "lat": 41.8525,
      "lng": -87.6154,
      "height_in": null,
      "height_label": null,
      "oversized": false,
      "notes": "Convention center garage. Clearance needs verification.",
      "source": "McCormick Place"
    },
    {
      "id": "chi-soldier-field",
      "name": "Soldier Field \u2014 Waldron Garage",
      "addr": "1410 S Museum Campus Dr",
      "lat": 41.8623,
      "lng": -87.6167,
      "height_in": 120,
      "height_label": "10'0\"",
      "oversized": false,
      "notes": "Serves Soldier Field, Field Museum, Shedd, Adler.\nVerified 2026-04-22 from sign reading \"10'0\"\" (pano U0XMzfBG331KKCAzhgRBxQ, heading 90\u00b0, Claude confidence medium)",
      "source": "AI-verified (Street View + Claude Vision \u2014 auto-pano) \u2014 was: Needs verification",
      "entrance_lat": 41.8634345,
      "entrance_lng": -87.6155955,
      "entrance_source": "OSM parking_entrance node 7161326790",
      "verified_on": "2026-04-22",
      "pano_id": "U0XMzfBG331KKCAzhgRBxQ",
      "pano_heading": 90
    },
    {
      "id": "chi-shedd",
      "name": "Shedd Aquarium/Adler Lot",
      "addr": "1200 S Lake Shore Dr",
      "lat": 41.8662,
      "lng": -87.6138,
      "height_in": null,
      "height_label": "No limit (uncovered)",
      "oversized": true,
      "notes": "Museum Campus surface lot. Can accommodate oversized.",
      "source": "Needs verification",
      "structure_type": "surface_lot"
    },
    {
      "id": "chi-wrigley",
      "name": "Wrigley Field \u2014 Red Lot 1",
      "addr": "1100 W Waveland Ave",
      "lat": 41.9489,
      "lng": -87.658,
      "height_in": null,
      "height_label": "No limit (uncovered)",
      "oversized": true,
      "notes": "Surface lot, game days.",
      "source": "Cubs",
      "structure_type": "surface_lot"
    },
    {
      "id": "chi-united-center",
      "name": "United Center Lots",
      "addr": "1901 W Madison St",
      "lat": 41.8807,
      "lng": -87.6742,
      "height_in": null,
      "height_label": "No limit (uncovered)",
      "oversized": true,
      "notes": "Surface lots + garage around arena.",
      "source": "United Center"
    },
    {
      "id": "ord-main",
      "name": "O'Hare \u2014 Main Garage",
      "addr": "10000 W O'Hare Ave",
      "lat": 41.9786,
      "lng": -87.9048,
      "height_in": 78,
      "height_label": "6'6\"",
      "oversized": false,
      "notes": "Very tight clearance. Most SUVs with racks won't fit.",
      "source": "flychicago.com",
      "entrance_lat": 41.9785067,
      "entrance_lng": -87.9035259,
      "entrance_source": "OSM parking_entrance node 6377720652"
    },
    {
      "id": "ord-b",
      "name": "O'Hare \u2014 Lot B",
      "addr": "10000 W O'Hare Ave",
      "lat": 41.977,
      "lng": -87.91,
      "height_in": 108,
      "height_label": "9'0\"",
      "oversized": true,
      "notes": "Highest clearance at ORD. Tall vehicles OK.",
      "source": "flychicago.com"
    },
    {
      "id": "ord-c",
      "name": "O'Hare \u2014 Lot C",
      "addr": "10000 W O'Hare Ave",
      "lat": 41.9763,
      "lng": -87.9087,
      "height_in": 101,
      "height_label": "8'5\"",
      "oversized": true,
      "notes": "Mid-clearance option.",
      "source": "flychicago.com",
      "entrance_lat": 41.9775939,
      "entrance_lng": -87.9061336,
      "entrance_source": "Auto (nearest Street View pano within 300m, 2026-04-24)"
    },
    {
      "id": "ord-t5",
      "name": "O'Hare \u2014 T-5 Garage",
      "addr": "10000 W O'Hare Ave",
      "lat": 41.9721,
      "lng": -87.9128,
      "height_in": 102,
      "height_label": "8'6\"",
      "oversized": true,
      "notes": "Terminal 5 garage.",
      "source": "flychicago.com"
    },
    {
      "id": "ord-econf",
      "name": "O'Hare \u2014 Economy Lot F",
      "addr": "10000 W O'Hare Ave",
      "lat": 41.9816,
      "lng": -87.887,
      "height_in": 98,
      "height_label": "8'2\"",
      "oversized": false,
      "notes": "Shuttle to terminals. 8'2\" max.",
      "source": "flychicago.com"
    },
    {
      "id": "mdw-economy",
      "name": "Midway \u2014 Economy Garage",
      "addr": "5700 S Cicero Ave",
      "lat": 41.7883,
      "lng": -87.7486,
      "height_in": null,
      "height_label": null,
      "oversized": false,
      "notes": "MDW economy. Clearance needs verification.",
      "source": "flychicago.com"
    },
    {
      "id": "mdw-main",
      "name": "Midway \u2014 Main Garage",
      "addr": "5700 S Cicero Ave",
      "lat": 41.7856,
      "lng": -87.7517,
      "height_in": null,
      "height_label": null,
      "oversized": false,
      "notes": "MDW terminal-adjacent. Clearance needs verification.",
      "source": "flychicago.com",
      "entrance_lat": 41.7929577,
      "entrance_lng": -87.7482364,
      "entrance_source": "Auto (nearest Street View pano within 300m, 2026-04-24)"
    },
    {
      "id": "chi-adler-lot",
      "name": "Adler Planetarium Lot (Museum Campus)",
      "addr": "1300 S Lake Shore Dr",
      "lat": 41.8664,
      "lng": -87.607,
      "height_in": null,
      "height_label": "No limit (uncovered)",
      "oversized": true,
      "notes": "Chicago Parks District lot. Oversized day rate $50. Surface lot \u2014 fits RVs, trucks.",
      "source": "adlerplanetarium.org",
      "structure_type": "surface_lot"
    },
    {
      "id": "chi-field-museum",
      "name": "Field Museum \u2014 South Lot",
      "addr": "1400 S Lake Shore Dr",
      "lat": 41.8663,
      "lng": -87.6162,
      "height_in": null,
      "height_label": "No limit (uncovered)",
      "oversized": true,
      "notes": "Museum Campus surface lot. Oversized OK.",
      "source": "Park Chicago",
      "structure_type": "surface_lot"
    },
    {
      "id": "chi-solidarity",
      "name": "Solidarity Drive \u2014 Street Parking",
      "addr": "Solidarity Dr",
      "lat": 41.8648,
      "lng": -87.6115,
      "height_in": null,
      "height_label": "No limit (uncovered)",
      "oversized": true,
      "notes": "Street parking along Museum Campus drive. Event closures possible.",
      "source": "Standard Parking",
      "structure_type": "surface_lot"
    },
    {
      "id": "chi-msi",
      "name": "Museum of Science & Industry Garage",
      "addr": "5700 S DuSable Lake Shore Dr",
      "lat": 41.7913,
      "lng": -87.583,
      "height_in": null,
      "height_label": null,
      "oversized": false,
      "notes": "Underground MSI garage. Clearance needs verification.",
      "source": "Needs verification",
      "entrance_lat": 41.7917025,
      "entrance_lng": -87.5841951,
      "entrance_source": "OSM parking_entrance node 12760785662"
    },
    {
      "id": "chi-lincoln-park-zoo",
      "name": "Lincoln Park Zoo \u2014 Main Lot",
      "addr": "2001 N Clark St",
      "lat": 41.9217,
      "lng": -87.6347,
      "height_in": null,
      "height_label": "No limit (uncovered)",
      "oversized": true,
      "notes": "Surface lot near zoo. Oversized accommodated.",
      "source": "Needs verification",
      "structure_type": "surface_lot"
    },
    {
      "id": "chi-block37",
      "name": "Block 37 Mall Garage",
      "addr": "108 N State St",
      "lat": 41.8838,
      "lng": -87.6278,
      "height_in": null,
      "height_label": null,
      "oversized": false,
      "notes": "Self-park + valet, entrance on Dearborn between Washington & Randolph. Standard Parking 312-658-0862.",
      "source": "blockthirtyseven.com",
      "entrance_lat": 41.8846081,
      "entrance_lng": -87.6270648,
      "entrance_source": "OSM parking_entrance node 10933386895"
    },
    {
      "id": "chi-poetry-garage",
      "name": "The Poetry Garage",
      "addr": "201 N Garland Ct",
      "lat": 41.8859,
      "lng": -87.6223,
      "height_in": 84,
      "height_label": "7'0\"",
      "oversized": false,
      "notes": "East Loop near Millennium Park. Owner-operated. Clearance needs verification.\nVerified 2026-04-22 from sign reading \"7' 0\" (pano ijJbRf3uenfTzhJQpkq0Ow, heading 270\u00b0, Claude confidence medium [+1 more section(s)])",
      "source": "AI-verified (Street View + Claude Vision \u2014 auto-pano) \u2014 was: thepoetrygarage.com",
      "entrance_lat": 41.8857765,
      "entrance_lng": -87.621917,
      "entrance_source": "OSM parking_entrance node 10731481975",
      "verified_on": "2026-04-22",
      "pano_id": "ijJbRf3uenfTzhJQpkq0Ow",
      "pano_heading": 270,
      "sections": [
        {
          "label": "Lane 1",
          "height_in": 84,
          "height_label": "7'0\""
        },
        {
          "label": "Paid Parking",
          "height_in": 192,
          "height_label": "16'0\""
        }
      ]
    },
    {
      "id": "chi-200w-monroe",
      "name": "200 W Monroe Garage",
      "addr": "200 W Monroe St",
      "lat": 41.8816,
      "lng": -87.6347,
      "height_in": 84,
      "height_label": "7'0\"",
      "oversized": false,
      "notes": "Loop office garage. Clearance needs verification.\nVerified 2026-04-22 from sign reading \"7'0\"\" (pano useGJ42fzcu2V1CIv5yc2A, heading 180\u00b0, Claude confidence medium)",
      "source": "AI-verified (Street View + Claude Vision \u2014 auto-pano) \u2014 was: Needs verification",
      "entrance_lat": 41.8818246,
      "entrance_lng": -87.6346788,
      "entrance_source": "OSM parking_entrance node 10925526169",
      "verified_on": "2026-04-22",
      "pano_id": "useGJ42fzcu2V1CIv5yc2A",
      "pano_heading": 180
    },
    {
      "id": "chi-225n-mich",
      "name": "225 N Michigan (Illinois Center)",
      "addr": "225 N Michigan Ave",
      "lat": 41.8864,
      "lng": -87.6239,
      "height_in": 84,
      "height_label": "7'0\"",
      "oversized": false,
      "notes": "Illinois Center \u2014 under office towers near Prudential Plaza.\nVerified 2026-04-22 from sign reading \"7'0\"\" (pano vAKOLfJITvlsi74g4WhMZg, heading 45\u00b0, Claude confidence medium)",
      "source": "AI-verified (Street View + Claude Vision \u2014 auto-pano) \u2014 was: Needs verification",
      "entrance_lat": 41.8869932,
      "entrance_lng": -87.6239127,
      "entrance_source": "OSM parking_entrance node 8250999805",
      "verified_on": "2026-04-22",
      "pano_id": "vAKOLfJITvlsi74g4WhMZg",
      "pano_heading": 45
    },
    {
      "id": "chi-marina-city",
      "name": "Marina City Parking Garage",
      "addr": "300 N State St",
      "lat": 41.8886,
      "lng": -87.6291,
      "height_in": null,
      "height_label": null,
      "oversized": false,
      "notes": "Iconic 'corn cob' building self-park spiral. Low clearance.",
      "source": "Needs verification",
      "entrance_lat": 41.8880628,
      "entrance_lng": -87.6289471,
      "entrance_source": "OSM parking_entrance node 2885273879"
    },
    {
      "id": "chi-hancock-deck",
      "name": "875 N Michigan Observatory Garage",
      "addr": "875 N Michigan Ave",
      "lat": 41.8988,
      "lng": -87.6229,
      "height_in": 84,
      "height_label": "7'0\"",
      "oversized": false,
      "notes": "Former John Hancock Center deck. Clearance needs verification.\nVerified 2026-04-22 from sign reading \"7'0\" (pano emof9IkkR74jUfo5tbpjIw, heading 135\u00b0, Claude confidence medium)",
      "source": "AI-verified (Street View + Claude Vision \u2014 auto-pano) \u2014 was: Needs verification",
      "entrance_lat": 41.8986654,
      "entrance_lng": -87.6225945,
      "entrance_source": "OSM parking_entrance node 11899379815",
      "verified_on": "2026-04-22",
      "pano_id": "emof9IkkR74jUfo5tbpjIw",
      "pano_heading": 135
    },
    {
      "id": "chi-chinatown",
      "name": "Chinatown Square Lot",
      "addr": "2133 S Archer Ave",
      "lat": 41.853,
      "lng": -87.6354,
      "height_in": null,
      "height_label": "No limit (uncovered)",
      "oversized": false,
      "notes": "Chinatown Square shopping lot. Surface parking.",
      "source": "Needs verification",
      "entrance_lat": 41.8523437,
      "entrance_lng": -87.6344783,
      "entrance_source": "OSM parking_entrance node 12772593639",
      "structure_type": "surface_lot"
    },
    {
      "id": "chi-lincoln-yards",
      "name": "Lincoln Yards / North Ave Garage",
      "addr": "1100 W North Ave",
      "lat": 41.91,
      "lng": -87.6549,
      "height_in": 84,
      "height_label": "7'0\"",
      "oversized": false,
      "notes": "North/Clybourn shopping corridor.\nVerified 2026-04-22 from sign reading \"7'0\"\" (pano zTvpLcYYqilR5cKwnGnpAQ, heading 180\u00b0, Claude confidence medium)",
      "source": "AI-verified (Street View + Claude Vision \u2014 auto-pano) \u2014 was: Needs verification",
      "entrance_lat": 41.9090772,
      "entrance_lng": -87.6535126,
      "entrance_source": "OSM parking_entrance node 2168537839",
      "verified_on": "2026-04-22",
      "pano_id": "zTvpLcYYqilR5cKwnGnpAQ",
      "pano_heading": 180
    },
    {
      "id": "chi-theatre-dist",
      "name": "Goodman / Theatre District Garage",
      "addr": "170 N Dearborn St",
      "lat": 41.8857,
      "lng": -87.6296,
      "height_in": 120,
      "height_label": "10'0\"",
      "oversized": false,
      "notes": "Downtown Theatre District.\nVerified 2026-04-22 from sign reading \"10'0\"\" (pano we66Htxcfai42H22y_KXNg, heading 0\u00b0, Claude confidence medium)",
      "source": "AI-verified (Street View + Claude Vision \u2014 auto-pano) \u2014 was: Needs verification",
      "entrance_lat": 41.8853119,
      "entrance_lng": -87.6293504,
      "entrance_source": "OSM parking_entrance node 9424758522",
      "verified_on": "2026-04-22",
      "pano_id": "we66Htxcfai42H22y_KXNg",
      "pano_heading": 0
    },
    {
      "id": "chi-mccormick-hyatt",
      "name": "Hyatt Regency McCormick Place",
      "addr": "2233 S Martin Luther King Dr",
      "lat": 41.8523,
      "lng": -87.619,
      "height_in": 84,
      "height_label": "7'0\"",
      "oversized": false,
      "notes": "Hotel garage adjacent to McCormick Place.\nVerified 2026-04-22 from sign reading \"7'0\" (pano 7-vlSArH8gzEZBTn579Hog, heading 135.0\u00b0, Claude confidence medium [+1 more section(s)])",
      "source": "AI-verified (Street View + Claude Vision \u2014 auto-pano) \u2014 was: Needs verification",
      "entrance_lat": 41.8523619,
      "entrance_lng": -87.6186525,
      "entrance_source": "OSM parking_entrance node 11936032953",
      "verified_on": "2026-04-22",
      "pano_id": "7-vlSArH8gzEZBTn579Hog",
      "pano_heading": 135.0,
      "sections": [
        {
          "label": "Garage",
          "height_in": 84,
          "height_label": "7'0\""
        },
        {
          "label": "Parking Garage",
          "height_in": 132,
          "height_label": "11'0\""
        }
      ]
    },
    {
      "id": "chi-guaranteed-rate",
      "name": "Guaranteed Rate Field \u2014 White Sox Lots",
      "addr": "333 W 35th St",
      "lat": 41.8299,
      "lng": -87.6338,
      "height_in": null,
      "height_label": "No limit (uncovered)",
      "oversized": true,
      "notes": "White Sox stadium surface lots + RV area on game days.",
      "source": "White Sox",
      "structure_type": "surface_lot"
    },
    {
      "id": "chi-aon-center",
      "name": "Aon Center Garage",
      "addr": "200 E Randolph St",
      "lat": 41.8855,
      "lng": -87.6216,
      "height_in": 108,
      "height_label": "9'0\"",
      "oversized": false,
      "notes": "Under Aon Center tower.\nVerified 2026-04-22 from sign reading \"9'0\" (pano ijJbRf3uenfTzhJQpkq0Ow, heading 270\u00b0, Claude confidence medium [+1 more section(s)])",
      "source": "AI-verified (Street View + Claude Vision \u2014 auto-pano) \u2014 was: Needs verification",
      "entrance_lat": 41.8857765,
      "entrance_lng": -87.621917,
      "entrance_source": "OSM parking_entrance node 10731481975",
      "verified_on": "2026-04-22",
      "pano_id": "ijJbRf3uenfTzhJQpkq0Ow",
      "pano_heading": 270,
      "sections": [
        {
          "label": "Lane 1",
          "height_in": 108,
          "height_label": "9'0\""
        },
        {
          "label": "Exit Only",
          "height_in": 192,
          "height_label": "16'0\""
        }
      ]
    },
    {
      "id": "chi-river-east",
      "name": "River East Center Garage",
      "addr": "300 E Illinois St",
      "lat": 41.8906,
      "lng": -87.6163,
      "height_in": 132,
      "height_label": "11'0\"",
      "oversized": false,
      "notes": "Near Navy Pier, AMC River East. Clearance needs verification.\nVerified 2026-04-22 from sign reading \"11'0\"\" (pano p50xT3L-DyQMKoYb4R7h2Q, heading 225\u00b0, Claude confidence high)",
      "source": "AI-verified (Street View + Claude Vision \u2014 auto-pano) \u2014 was: Needs verification",
      "entrance_lat": 41.8897753,
      "entrance_lng": -87.6146488,
      "entrance_source": "OSM parking_entrance node 12608231336",
      "verified_on": "2026-04-22",
      "pano_id": "p50xT3L-DyQMKoYb4R7h2Q",
      "pano_heading": 225
    },
    {
      "id": "chi-ohare-intl-terminal",
      "name": "O'Hare \u2014 International (Terminal 5) Remote Lot",
      "addr": "10000 W O'Hare Ave",
      "lat": 41.974,
      "lng": -87.9202,
      "height_in": null,
      "height_label": null,
      "oversized": false,
      "notes": "Surface ATS-connected lot at Terminal 5.",
      "source": "flychicago.com",
      "structure_type": "surface_lot"
    },
    {
      "id": "osm-w23609357",
      "name": "Linden Park & Ride",
      "addr": "",
      "lat": 42.0727,
      "lng": -87.69131,
      "height_in": null,
      "height_label": "No limit (uncovered)",
      "oversized": true,
      "structure_type": "surface_lot",
      "notes": "Imported 2026 from OSM as an oversized-vehicle-friendly surface lot: large capacity (328 spaces). 328 spaces. Paid parking. Operator: Village of Wilmette.",
      "source": "OpenStreetMap (surface lot)"
    },
    {
      "id": "osm-w24536942",
      "name": "Harlem Park & Ride",
      "addr": "",
      "lat": 41.98195,
      "lng": -87.80925,
      "height_in": null,
      "height_label": "No limit (uncovered)",
      "oversized": true,
      "structure_type": "surface_lot",
      "notes": "Imported 2026 from OSM as an oversized-vehicle-friendly surface lot: large capacity (53 spaces). 53 spaces. Paid parking. Operator: CPS Parking.",
      "source": "OpenStreetMap (surface lot)"
    },
    {
      "id": "osm-w33702428",
      "name": "Kimball Park & Ride",
      "addr": "",
      "lat": 41.9673,
      "lng": -87.71219,
      "height_in": null,
      "height_label": "No limit (uncovered)",
      "oversized": true,
      "structure_type": "surface_lot",
      "notes": "Imported 2026 from OSM as an oversized-vehicle-friendly surface lot: large capacity (73 spaces). 73 spaces. Paid parking. Operator: CPS Parking.",
      "source": "OpenStreetMap (surface lot)"
    },
    {
      "id": "osm-w83634243",
      "name": "Rosemont Park & Ride",
      "addr": "",
      "lat": 41.98454,
      "lng": -87.85861,
      "height_in": null,
      "height_label": "No limit (uncovered)",
      "oversized": true,
      "structure_type": "surface_lot",
      "notes": "Imported 2026 from OSM as an oversized-vehicle-friendly surface lot: large capacity (798 spaces). 798 spaces. Paid parking. Operator: CPS Parking.",
      "source": "OpenStreetMap (surface lot)"
    },
    {
      "id": "osm-w144827700",
      "name": "City of Evanston",
      "addr": "",
      "lat": 42.03311,
      "lng": -87.67709,
      "height_in": null,
      "height_label": "No limit (uncovered)",
      "oversized": true,
      "structure_type": "surface_lot",
      "notes": "Imported 2026 from OSM as an oversized-vehicle-friendly surface lot: large capacity (77 spaces). 77 spaces. Operator: City of Evanston.",
      "source": "OpenStreetMap (surface lot)"
    },
    {
      "id": "osm-w149598165",
      "name": "City of Evanston",
      "addr": "",
      "lat": 42.02692,
      "lng": -87.67682,
      "height_in": null,
      "height_label": "No limit (uncovered)",
      "oversized": true,
      "structure_type": "surface_lot",
      "notes": "Imported 2026 from OSM as an oversized-vehicle-friendly surface lot: large capacity (66 spaces). 66 spaces. Operator: City of Evanston.",
      "source": "OpenStreetMap (surface lot)"
    },
    {
      "id": "osm-w160331980",
      "name": "Midway Park & Ride",
      "addr": "",
      "lat": 41.78521,
      "lng": -87.73928,
      "height_in": null,
      "height_label": "No limit (uncovered)",
      "oversized": true,
      "structure_type": "surface_lot",
      "notes": "Imported 2026 from OSM as an oversized-vehicle-friendly surface lot: large capacity (299 spaces). 299 spaces. Paid parking. Operator: CPS Parking.",
      "source": "OpenStreetMap (surface lot)"
    },
    {
      "id": "osm-w182569333",
      "name": "Linden Park & Ride",
      "addr": "349 Linden Avenue",
      "lat": 42.07324,
      "lng": -87.69056,
      "height_in": null,
      "height_label": "No limit (uncovered)",
      "oversized": true,
      "structure_type": "surface_lot",
      "notes": "Imported 2026 from OSM as an oversized-vehicle-friendly surface lot: large capacity (328 spaces). 328 spaces. Paid parking. Operator: Village of Wilmette.",
      "source": "OpenStreetMap (surface lot)"
    },
    {
      "id": "osm-w220245085",
      "name": "Metra",
      "addr": "",
      "lat": 41.84445,
      "lng": -87.7472,
      "height_in": null,
      "height_label": "No limit (uncovered)",
      "oversized": true,
      "structure_type": "surface_lot",
      "notes": "Imported 2026 from OSM as an oversized-vehicle-friendly surface lot: large capacity (170 spaces). 170 spaces. Paid parking. Operator: Metra.",
      "source": "OpenStreetMap (surface lot)"
    },
    {
      "id": "osm-w220819324",
      "name": "Hegewisch Park & Ride",
      "addr": "",
      "lat": 41.64624,
      "lng": -87.54076,
      "height_in": null,
      "height_label": "No limit (uncovered)",
      "oversized": true,
      "structure_type": "surface_lot",
      "notes": "Imported 2026 from OSM as an oversized-vehicle-friendly surface lot: large capacity (1220 spaces). 1220 spaces. Paid parking. Operator: SP+.",
      "source": "OpenStreetMap (surface lot)"
    },
    {
      "id": "osm-w232547605",
      "name": "Western Park & Ride",
      "addr": "",
      "lat": 41.80423,
      "lng": -87.68571,
      "height_in": null,
      "height_label": "No limit (uncovered)",
      "oversized": true,
      "structure_type": "surface_lot",
      "notes": "Imported 2026 from OSM as an oversized-vehicle-friendly surface lot: large capacity (200 spaces). 200 spaces. Paid parking. Operator: CPS Parking.",
      "source": "OpenStreetMap (surface lot)"
    },
    {
      "id": "osm-w232689333",
      "name": "93rd St. (South Chicago) Station Parking Lot",
      "addr": "",
      "lat": 41.72558,
      "lng": -87.54673,
      "height_in": null,
      "height_label": "No limit (uncovered)",
      "oversized": true,
      "structure_type": "surface_lot",
      "notes": "Imported 2026 from OSM as an oversized-vehicle-friendly surface lot: large capacity (665 spaces). 665 spaces. Paid parking. Operator: SP+.",
      "source": "OpenStreetMap (surface lot)"
    },
    {
      "id": "osm-w446037954",
      "name": "Pulaski Park & Ride",
      "addr": "",
      "lat": 41.79914,
      "lng": -87.72667,
      "height_in": null,
      "height_label": "No limit (uncovered)",
      "oversized": true,
      "structure_type": "surface_lot",
      "notes": "Imported 2026 from OSM as an oversized-vehicle-friendly surface lot: large capacity (390 spaces). 390 spaces. Paid parking. Operator: CPS Parking.",
      "source": "OpenStreetMap (surface lot)"
    },
    {
      "id": "osm-w446037955",
      "name": "Kedzie Park & Ride",
      "addr": "",
      "lat": 41.80512,
      "lng": -87.70562,
      "height_in": null,
      "height_label": "No limit (uncovered)",
      "oversized": true,
      "structure_type": "surface_lot",
      "notes": "Imported 2026 from OSM as an oversized-vehicle-friendly surface lot: large capacity (157 spaces). 157 spaces. Paid parking. Operator: CPS Parking.",
      "source": "OpenStreetMap (surface lot)"
    },
    {
      "id": "osm-w446040308",
      "name": "54th/Cermak Park & Ride",
      "addr": "",
      "lat": 41.8517,
      "lng": -87.76293,
      "height_in": null,
      "height_label": "No limit (uncovered)",
      "oversized": true,
      "structure_type": "surface_lot",
      "notes": "Imported 2026 from OSM as an oversized-vehicle-friendly surface lot: large capacity (175 spaces). 175 spaces. Paid parking. Operator: CPS Parking.",
      "source": "OpenStreetMap (surface lot)"
    },
    {
      "id": "osm-w446052987",
      "name": "Skokie Park & Ride North Lot",
      "addr": "",
      "lat": 42.04251,
      "lng": -87.7529,
      "height_in": null,
      "height_label": "No limit (uncovered)",
      "oversized": true,
      "structure_type": "surface_lot",
      "notes": "Imported 2026 from OSM as an oversized-vehicle-friendly surface lot: large capacity (441 spaces). 441 spaces. Paid parking. Operator: Village of Skokie.",
      "source": "OpenStreetMap (surface lot)"
    },
    {
      "id": "osm-w449369699",
      "name": "Forest Park Park & Ride",
      "addr": "",
      "lat": 41.87261,
      "lng": -87.81603,
      "height_in": null,
      "height_label": "No limit (uncovered)",
      "oversized": true,
      "structure_type": "surface_lot",
      "notes": "Imported 2026 from OSM as an oversized-vehicle-friendly surface lot: large capacity (1051 spaces). 1051 spaces. Paid parking.",
      "source": "OpenStreetMap (surface lot)"
    },
    {
      "id": "osm-w737900652",
      "name": "Metra",
      "addr": "",
      "lat": 41.84447,
      "lng": -87.74567,
      "height_in": null,
      "height_label": "No limit (uncovered)",
      "oversized": true,
      "structure_type": "surface_lot",
      "notes": "Imported 2026 from OSM as an oversized-vehicle-friendly surface lot: large capacity (138 spaces). 138 spaces. Paid parking. Operator: Metra.",
      "source": "OpenStreetMap (surface lot)"
    },
    {
      "id": "osm-w1501510085",
      "name": "Metra Market Parking",
      "addr": "",
      "lat": 41.88509,
      "lng": -87.64056,
      "height_in": null,
      "height_label": "No limit (uncovered)",
      "oversized": true,
      "structure_type": "surface_lot",
      "notes": "Imported 2026 from OSM as an oversized-vehicle-friendly surface lot: large capacity (217 spaces). 217 spaces. Paid parking. Operator: ParkChirp.",
      "source": "OpenStreetMap (surface lot)"
    }
  ],
  "tunnels": [
    {
      "id": "chi-lower-wacker",
      "name": "Lower Wacker Drive",
      "addr": "Lower Wacker Dr (Loop)",
      "lat": 41.8867,
      "lng": -87.6257,
      "height_in": 114,
      "height_label": "9'6\"",
      "notes": "Multi-level service street under Wacker. Service/delivery vehicles primarily. Some stretches as low as 9'.",
      "source": "CDOT posted viaduct clearances"
    },
    {
      "id": "chi-randolph-east",
      "name": "Randolph Street Lower Level",
      "addr": "E Randolph St under Millennium Park",
      "lat": 41.8847,
      "lng": -87.6215,
      "height_in": 114,
      "height_label": "9'6\"",
      "notes": "Underground Millennium Garage approach. Multi-level Grant Park area.",
      "source": "CDOT"
    },
    {
      "id": "osm-w23810324",
      "name": "East Randolph Drive",
      "addr": "East Randolph Drive",
      "lat": 41.88437,
      "lng": -87.61891,
      "height_in": 150,
      "height_label": "12'6\"",
      "notes": "layer -2",
      "source": "OpenStreetMap"
    },
    {
      "id": "osm-w23810462",
      "name": "Kennedy Expressway",
      "addr": "I 90;I 94",
      "lat": 41.88774,
      "lng": -87.64684,
      "height_in": 164,
      "height_label": "13'8\"",
      "notes": "layer -1; 5 lanes",
      "source": "OpenStreetMap"
    },
    {
      "id": "osm-w23890903",
      "name": "West Randolph Street",
      "addr": "West Randolph Street",
      "lat": 41.88449,
      "lng": -87.64055,
      "height_in": 162,
      "height_label": "13'6\"",
      "notes": "layer -1; 2 lanes",
      "source": "OpenStreetMap"
    },
    {
      "id": "osm-w24070990",
      "name": "South Kingston Avenue",
      "addr": "South Kingston Avenue",
      "lat": 41.734,
      "lng": -87.5641,
      "height_in": 142,
      "height_label": "11'10\"",
      "notes": "layer -1",
      "source": "OpenStreetMap"
    },
    {
      "id": "osm-w31090745",
      "name": "South Blue Island Avenue",
      "addr": "South Blue Island Avenue",
      "lat": 41.86008,
      "lng": -87.65924,
      "height_in": 136,
      "height_label": "11'4\"",
      "notes": "layer -1",
      "source": "OpenStreetMap"
    },
    {
      "id": "osm-w31090750",
      "name": "South Blue Island Avenue",
      "addr": "South Blue Island Avenue",
      "lat": 41.86088,
      "lng": -87.65854,
      "height_in": 136,
      "height_label": "11'4\"",
      "notes": "layer -1",
      "source": "OpenStreetMap"
    },
    {
      "id": "osm-w31232221",
      "name": "South Union Avenue",
      "addr": "South Union Avenue",
      "lat": 41.86051,
      "lng": -87.64492,
      "height_in": 140,
      "height_label": "11'8\"",
      "notes": "layer -1",
      "source": "OpenStreetMap"
    },
    {
      "id": "osm-w31232230",
      "name": "South Halsted Street",
      "addr": "South Halsted Street",
      "lat": 41.86041,
      "lng": -87.64676,
      "height_in": 164,
      "height_label": "13'8\"",
      "notes": "layer -1",
      "source": "OpenStreetMap"
    },
    {
      "id": "osm-w31232235",
      "name": "South Morgan Street",
      "addr": "South Morgan Street",
      "lat": 41.86028,
      "lng": -87.65088,
      "height_in": 148,
      "height_label": "12'4\"",
      "notes": "layer -1",
      "source": "OpenStreetMap"
    },
    {
      "id": "osm-w31232274",
      "name": "South Peoria Street",
      "addr": "South Peoria Street",
      "lat": 41.86031,
      "lng": -87.64881,
      "height_in": 138,
      "height_label": "11'6\"",
      "notes": "layer -1",
      "source": "OpenStreetMap"
    },
    {
      "id": "osm-w31391762",
      "name": "Stevenson Expressway",
      "addr": "I 55",
      "lat": 41.8472,
      "lng": -87.63745,
      "height_in": 162,
      "height_label": "13'6\"",
      "notes": "layer -1; 3 lanes",
      "source": "OpenStreetMap"
    },
    {
      "id": "osm-w32828215",
      "name": "Tunnel (service)",
      "addr": "",
      "lat": 41.88258,
      "lng": -87.62045,
      "height_in": 84,
      "height_label": "7'0\"",
      "notes": "layer -1",
      "source": "OpenStreetMap"
    },
    {
      "id": "osm-w40877610",
      "name": "West 45th Street",
      "addr": "West 45th Street",
      "lat": 41.81272,
      "lng": -87.63657,
      "height_in": 142,
      "height_label": "11'10\"",
      "notes": "layer -1",
      "source": "OpenStreetMap"
    },
    {
      "id": "osm-w42946215",
      "name": "West 63rd Street",
      "addr": "West 63rd Street",
      "lat": 41.78002,
      "lng": -87.6263,
      "height_in": 164,
      "height_label": "13'8\"",
      "notes": "layer -1; 1 lanes",
      "source": "OpenStreetMap"
    },
    {
      "id": "osm-w43008893",
      "name": "West 63rd Street",
      "addr": "West 63rd Street",
      "lat": 41.77929,
      "lng": -87.67806,
      "height_in": 172,
      "height_label": "14'4\"",
      "notes": "layer -1",
      "source": "OpenStreetMap"
    },
    {
      "id": "osm-w43039115",
      "name": "South State Street",
      "addr": "South State Street",
      "lat": 41.77921,
      "lng": -87.6254,
      "height_in": 164,
      "height_label": "13'8\"",
      "notes": "layer -1",
      "source": "OpenStreetMap"
    },
    {
      "id": "osm-w43151658",
      "name": "West 59th Street",
      "addr": "West 59th Street",
      "lat": 41.78658,
      "lng": -87.67939,
      "height_in": 168,
      "height_label": "14'0\"",
      "notes": "layer -1",
      "source": "OpenStreetMap"
    },
    {
      "id": "osm-w43620378",
      "name": "South Austin Boulevard",
      "addr": "South Austin Boulevard",
      "lat": 41.83761,
      "lng": -87.77341,
      "height_in": 136,
      "height_label": "11'4\"",
      "notes": "layer -1",
      "source": "OpenStreetMap"
    },
    {
      "id": "osm-w48842496",
      "name": "East Grand Avenue",
      "addr": "East Grand Avenue",
      "lat": 41.89173,
      "lng": -87.62403,
      "height_in": 160,
      "height_label": "13'4\"",
      "notes": "layer -1",
      "source": "OpenStreetMap"
    },
    {
      "id": "osm-w56235779",
      "name": "South California Avenue",
      "addr": "South California Avenue",
      "lat": 41.8264,
      "lng": -87.69475,
      "height_in": 156,
      "height_label": "13'0\"",
      "notes": "layer -1",
      "source": "OpenStreetMap"
    },
    {
      "id": "osm-w56235781",
      "name": "South Albany Avenue",
      "addr": "South Albany Avenue",
      "lat": 41.82625,
      "lng": -87.7021,
      "height_in": 138,
      "height_label": "11'6\"",
      "notes": "layer -1",
      "source": "OpenStreetMap"
    },
    {
      "id": "osm-w56242435",
      "name": "West 31st Street",
      "addr": "West 31st Street",
      "lat": 41.83821,
      "lng": -87.63669,
      "height_in": 154,
      "height_label": "12'10\"",
      "notes": "layer -1",
      "source": "OpenStreetMap"
    },
    {
      "id": "osm-w56242444",
      "name": "West 29th Street",
      "addr": "West 29th Street",
      "lat": 41.84184,
      "lng": -87.63694,
      "height_in": 138,
      "height_label": "11'6\"",
      "notes": "layer -1",
      "source": "OpenStreetMap"
    },
    {
      "id": "osm-w56242445",
      "name": "West 28th Street",
      "addr": "West 28th Street",
      "lat": 41.84367,
      "lng": -87.63737,
      "height_in": 140,
      "height_label": "11'8\"",
      "notes": "layer -1",
      "source": "OpenStreetMap"
    },
    {
      "id": "osm-w56242447",
      "name": "West 28th Place",
      "addr": "West 28th Place",
      "lat": 41.84272,
      "lng": -87.63732,
      "height_in": 134,
      "height_label": "11'2\"",
      "notes": "layer -1",
      "source": "OpenStreetMap"
    },
    {
      "id": "osm-w56242449",
      "name": "West 26th Street",
      "addr": "West 26th Street",
      "lat": 41.84549,
      "lng": -87.63729,
      "height_in": 158,
      "height_label": "13'2\"",
      "notes": "layer -1",
      "source": "OpenStreetMap"
    },
    {
      "id": "osm-w56242456",
      "name": "West 24th Place",
      "addr": "West 24th Place",
      "lat": 41.84818,
      "lng": -87.63769,
      "height_in": 144,
      "height_label": "12'0\"",
      "notes": "layer -1",
      "source": "OpenStreetMap"
    },
    {
      "id": "osm-w56242458",
      "name": "West 23rd Place",
      "addr": "West 23rd Place",
      "lat": 41.85,
      "lng": -87.63773,
      "height_in": 144,
      "height_label": "12'0\"",
      "notes": "layer -1",
      "source": "OpenStreetMap"
    },
    {
      "id": "osm-w56242461",
      "name": "West 24th Street",
      "addr": "West 24th Street",
      "lat": 41.84912,
      "lng": -87.6375,
      "height_in": 161,
      "height_label": "13'5\"",
      "notes": "layer -1",
      "source": "OpenStreetMap"
    },
    {
      "id": "osm-w56242463",
      "name": "West 23rd Street",
      "addr": "West 23rd Street",
      "lat": 41.85094,
      "lng": -87.637,
      "height_in": 162,
      "height_label": "13'6\"",
      "notes": "Imported from OpenStreetMap.",
      "source": "OpenStreetMap"
    },
    {
      "id": "osm-w56242469",
      "name": "South Archer Avenue",
      "addr": "South Archer Avenue",
      "lat": 41.85184,
      "lng": -87.63704,
      "height_in": 170,
      "height_label": "14'2\"",
      "notes": "1 lanes",
      "source": "OpenStreetMap"
    },
    {
      "id": "osm-w56246240",
      "name": "West 43rd Street",
      "addr": "West 43rd Street",
      "lat": 41.81637,
      "lng": -87.63638,
      "height_in": 150,
      "height_label": "12'6\"",
      "notes": "layer -1; 1 lanes",
      "source": "OpenStreetMap"
    },
    {
      "id": "osm-w56246247",
      "name": "West Root Street",
      "addr": "West Root Street",
      "lat": 41.81908,
      "lng": -87.63625,
      "height_in": 154,
      "height_label": "12'10\"",
      "notes": "layer -1",
      "source": "OpenStreetMap"
    },
    {
      "id": "osm-w56246291",
      "name": "West 38th Street",
      "addr": "West 38th Street",
      "lat": 41.82544,
      "lng": -87.63643,
      "height_in": 157,
      "height_label": "13'1\"",
      "notes": "layer -1",
      "source": "OpenStreetMap"
    },
    {
      "id": "osm-w56246313",
      "name": "West 35th Street",
      "addr": "West 35th Street",
      "lat": 41.83091,
      "lng": -87.63694,
      "height_in": 154,
      "height_label": "12'10\"",
      "notes": "layer -1",
      "source": "OpenStreetMap"
    },
    {
      "id": "osm-w56246317",
      "name": "West 33rd Street",
      "addr": "West 33rd Street",
      "lat": 41.83455,
      "lng": -87.63668,
      "height_in": 136,
      "height_label": "11'4\"",
      "notes": "layer -1",
      "source": "OpenStreetMap"
    },
    {
      "id": "osm-w56246319",
      "name": "West 37th Street",
      "addr": "West 37th Street",
      "lat": 41.82726,
      "lng": -87.63652,
      "height_in": 155,
      "height_label": "12'11\"",
      "notes": "layer -1",
      "source": "OpenStreetMap"
    },
    {
      "id": "osm-w56246320",
      "name": "West 32nd Street",
      "addr": "West 32nd Street",
      "lat": 41.83639,
      "lng": -87.63649,
      "height_in": 140,
      "height_label": "11'8\"",
      "notes": "layer -1",
      "source": "OpenStreetMap"
    },
    {
      "id": "osm-w56249081",
      "name": "West 51st Street",
      "addr": "West 51st Street",
      "lat": 41.80171,
      "lng": -87.63723,
      "height_in": 162,
      "height_label": "13'6\"",
      "notes": "layer -1",
      "source": "OpenStreetMap"
    },
    {
      "id": "osm-w56249085",
      "name": "West 51st Street",
      "addr": "West 51st Street",
      "lat": 41.80174,
      "lng": -87.63593,
      "height_in": 162,
      "height_label": "13'6\"",
      "notes": "layer -1",
      "source": "OpenStreetMap"
    },
    {
      "id": "osm-w56249089",
      "name": "West 51st Street",
      "addr": "West 51st Street",
      "lat": 41.80169,
      "lng": -87.63823,
      "height_in": 162,
      "height_label": "13'6\"",
      "notes": "layer -1",
      "source": "OpenStreetMap"
    },
    {
      "id": "osm-w56249091",
      "name": "West 51st Street",
      "addr": "West 51st Street",
      "lat": 41.80166,
      "lng": -87.63944,
      "height_in": 162,
      "height_label": "13'6\"",
      "notes": "layer -1",
      "source": "OpenStreetMap"
    },
    {
      "id": "osm-w56249103",
      "name": "West 51st Street",
      "addr": "West 51st Street",
      "lat": 41.80176,
      "lng": -87.63479,
      "height_in": 162,
      "height_label": "13'6\"",
      "notes": "layer -1",
      "source": "OpenStreetMap"
    },
    {
      "id": "osm-w56250314",
      "name": "West 61st Street",
      "addr": "West 61st Street",
      "lat": 41.78319,
      "lng": -87.62795,
      "height_in": 156,
      "height_label": "13'0\"",
      "notes": "layer -1",
      "source": "OpenStreetMap"
    },
    {
      "id": "osm-w56251391",
      "name": "South Normal Avenue",
      "addr": "South Normal Avenue",
      "lat": 41.82171,
      "lng": -87.63861,
      "height_in": 166,
      "height_label": "13'10\"",
      "notes": "Imported from OpenStreetMap.",
      "source": "OpenStreetMap"
    },
    {
      "id": "osm-w56393515",
      "name": "South Loomis Street",
      "addr": "South Loomis Street",
      "lat": 41.86088,
      "lng": -87.66144,
      "height_in": 136,
      "height_label": "11'4\"",
      "notes": "layer -1",
      "source": "OpenStreetMap"
    },
    {
      "id": "osm-w56393516",
      "name": "South Racine Avenue",
      "addr": "South Racine Avenue",
      "lat": 41.86022,
      "lng": -87.65654,
      "height_in": 148,
      "height_label": "12'4\"",
      "notes": "layer -1",
      "source": "OpenStreetMap"
    },
    {
      "id": "osm-w56393521",
      "name": "South Racine Avenue",
      "addr": "South Racine Avenue",
      "lat": 41.86093,
      "lng": -87.65656,
      "height_in": 148,
      "height_label": "12'4\"",
      "notes": "layer -1",
      "source": "OpenStreetMap"
    },
    {
      "id": "osm-w56393645",
      "name": "South Laflin Street",
      "addr": "South Laflin Street",
      "lat": 41.86085,
      "lng": -87.66389,
      "height_in": 134,
      "height_label": "11'2\"",
      "notes": "layer -1",
      "source": "OpenStreetMap"
    },
    {
      "id": "osm-w56393648",
      "name": "South Laflin Street",
      "addr": "South Laflin Street",
      "lat": 41.86,
      "lng": -87.66387,
      "height_in": 134,
      "height_label": "11'2\"",
      "notes": "layer -1",
      "source": "OpenStreetMap"
    },
    {
      "id": "osm-w56393659",
      "name": "South Paulina Street",
      "addr": "South Paulina Street",
      "lat": 41.86078,
      "lng": -87.66869,
      "height_in": 122,
      "height_label": "10'2\"",
      "notes": "layer -1",
      "source": "OpenStreetMap"
    },
    {
      "id": "osm-w56394122",
      "name": "West Roosevelt Road",
      "addr": "West Roosevelt Road",
      "lat": 41.8666,
      "lng": -87.69105,
      "height_in": 168,
      "height_label": "14'0\"",
      "notes": "2 lanes",
      "source": "OpenStreetMap"
    },
    {
      "id": "osm-w56394148",
      "name": "West Ogden Avenue",
      "addr": "US 66 Hist",
      "lat": 41.86382,
      "lng": -87.68886,
      "height_in": 156,
      "height_label": "13'0\"",
      "notes": "layer -1; 2 lanes",
      "source": "OpenStreetMap"
    },
    {
      "id": "osm-w56394155",
      "name": "South Western Avenue",
      "addr": "South Western Avenue",
      "lat": 41.85754,
      "lng": -87.68578,
      "height_in": 170,
      "height_label": "14'2\"",
      "notes": "layer -1",
      "source": "OpenStreetMap"
    },
    {
      "id": "osm-w56394163",
      "name": "South Damen Avenue",
      "addr": "South Damen Avenue",
      "lat": 41.86255,
      "lng": -87.67617,
      "height_in": 154,
      "height_label": "12'10\"",
      "notes": "layer -1",
      "source": "OpenStreetMap"
    },
    {
      "id": "osm-w56394172",
      "name": "South Damen Avenue",
      "addr": "South Damen Avenue",
      "lat": 41.86041,
      "lng": -87.67611,
      "height_in": 154,
      "height_label": "12'10\"",
      "notes": "layer -1",
      "source": "OpenStreetMap"
    },
    {
      "id": "osm-w56394174",
      "name": "South Wood Street",
      "addr": "South Wood Street",
      "lat": 41.85991,
      "lng": -87.67119,
      "height_in": 136,
      "height_label": "11'4\"",
      "notes": "layer -1",
      "source": "OpenStreetMap"
    },
    {
      "id": "osm-w56394621",
      "name": "South Washtenaw Avenue",
      "addr": "South Washtenaw Avenue",
      "lat": 41.85581,
      "lng": -87.69313,
      "height_in": 156,
      "height_label": "13'0\"",
      "notes": "layer -1",
      "source": "OpenStreetMap"
    },
    {
      "id": "osm-w56473458",
      "name": "North Kimball Avenue",
      "addr": "North Kimball Avenue",
      "lat": 41.9139,
      "lng": -87.71185,
      "height_in": 142,
      "height_label": "11'10\"",
      "notes": "layer -1",
      "source": "OpenStreetMap"
    },
    {
      "id": "osm-w56629616",
      "name": "Tunnel (service)",
      "addr": "",
      "lat": 41.88983,
      "lng": -87.65052,
      "height_in": 108,
      "height_label": "9'0\"",
      "notes": "layer -1",
      "source": "OpenStreetMap"
    },
    {
      "id": "osm-w56629633",
      "name": "Tunnel (service)",
      "addr": "",
      "lat": 41.88981,
      "lng": -87.65285,
      "height_in": 108,
      "height_label": "9'0\"",
      "notes": "layer -1",
      "source": "OpenStreetMap"
    },
    {
      "id": "osm-w56630265",
      "name": "West Ancona Street",
      "addr": "West Ancona Street",
      "lat": 41.89389,
      "lng": -87.64821,
      "height_in": 156,
      "height_label": "13'0\"",
      "notes": "layer -1",
      "source": "OpenStreetMap"
    },
    {
      "id": "osm-w56641094",
      "name": "West Cermak Road",
      "addr": "West Cermak Road",
      "lat": 41.85205,
      "lng": -87.68803,
      "height_in": 170,
      "height_label": "14'2\"",
      "notes": "Imported from OpenStreetMap.",
      "source": "OpenStreetMap"
    },
    {
      "id": "osm-w56724917",
      "name": "West 69th Street",
      "addr": "West 69th Street",
      "lat": 41.76843,
      "lng": -87.67855,
      "height_in": 154,
      "height_label": "12'10\"",
      "notes": "layer -1",
      "source": "OpenStreetMap"
    },
    {
      "id": "osm-w56724921",
      "name": "West 68th Street",
      "addr": "West 68th Street",
      "lat": 41.77024,
      "lng": -87.67771,
      "height_in": 142,
      "height_label": "11'10\"",
      "notes": "layer -1",
      "source": "OpenStreetMap"
    },
    {
      "id": "osm-w56724928",
      "name": "West Marquette Road",
      "addr": "West Marquette Road",
      "lat": 41.77202,
      "lng": -87.67866,
      "height_in": 154,
      "height_label": "12'10\"",
      "notes": "layer -1",
      "source": "OpenStreetMap"
    },
    {
      "id": "osm-w56724932",
      "name": "West 65th Street",
      "addr": "West 65th Street",
      "lat": 41.77568,
      "lng": -87.67799,
      "height_in": 156,
      "height_label": "13'0\"",
      "notes": "layer -1",
      "source": "OpenStreetMap"
    },
    {
      "id": "osm-w56724971",
      "name": "West 51st Street",
      "addr": "West 51st Street",
      "lat": 41.8012,
      "lng": -87.67951,
      "height_in": 166,
      "height_label": "13'10\"",
      "notes": "layer -1",
      "source": "OpenStreetMap"
    },
    {
      "id": "osm-w56744082",
      "name": "West 79th Street",
      "addr": "West 79th Street",
      "lat": 41.75021,
      "lng": -87.6783,
      "height_in": 170,
      "height_label": "14'2\"",
      "notes": "layer -1",
      "source": "OpenStreetMap"
    },
    {
      "id": "osm-w56997688",
      "name": "South Keefe Avenue",
      "addr": "South Keefe Avenue",
      "lat": 41.77014,
      "lng": -87.61283,
      "height_in": 166,
      "height_label": "13'10\"",
      "notes": "layer -1",
      "source": "OpenStreetMap"
    },
    {
      "id": "osm-w56997701",
      "name": "East Marquette Road",
      "addr": "East Marquette Road",
      "lat": 41.77293,
      "lng": -87.61652,
      "height_in": 140,
      "height_label": "11'8\"",
      "notes": "layer -1",
      "source": "OpenStreetMap"
    },
    {
      "id": "osm-w57006929",
      "name": "South Colfax Avenue",
      "addr": "South Colfax Avenue",
      "lat": 41.73261,
      "lng": -87.56032,
      "height_in": 140,
      "height_label": "11'8\"",
      "notes": "layer -1",
      "source": "OpenStreetMap"
    },
    {
      "id": "osm-w57006937",
      "name": "South Kingston Avenue",
      "addr": "South Kingston Avenue",
      "lat": 41.73469,
      "lng": -87.56321,
      "height_in": 142,
      "height_label": "11'10\"",
      "notes": "layer -1",
      "source": "OpenStreetMap"
    },
    {
      "id": "osm-w57007520",
      "name": "South Escanaba Avenue",
      "addr": "South Escanaba Avenue",
      "lat": 41.72409,
      "lng": -87.5539,
      "height_in": 163,
      "height_label": "13'7\"",
      "notes": "layer -1",
      "source": "OpenStreetMap"
    },
    {
      "id": "osm-w57010452",
      "name": "East 100th Street",
      "addr": "East 100th Street",
      "lat": 41.71401,
      "lng": -87.53434,
      "height_in": 140,
      "height_label": "11'8\"",
      "notes": "layer -1",
      "source": "OpenStreetMap"
    },
    {
      "id": "osm-w57010454",
      "name": "South Ewing Avenue",
      "addr": "US 12;US 20;US 41",
      "lat": 41.71395,
      "lng": -87.53531,
      "height_in": 172,
      "height_label": "14'4\"",
      "notes": "layer -1; 2 lanes",
      "source": "OpenStreetMap"
    },
    {
      "id": "osm-w57010459",
      "name": "South Ewing Avenue",
      "addr": "US 12;US 20;US 41",
      "lat": 41.71472,
      "lng": -87.53532,
      "height_in": 172,
      "height_label": "14'4\"",
      "notes": "layer -1; 2 lanes",
      "source": "OpenStreetMap"
    },
    {
      "id": "osm-w57010462",
      "name": "South Avenue L",
      "addr": "South Avenue L",
      "lat": 41.71485,
      "lng": -87.53653,
      "height_in": 170,
      "height_label": "14'2\"",
      "notes": "layer -1",
      "source": "OpenStreetMap"
    },
    {
      "id": "osm-w57010467",
      "name": "South Avenue M",
      "addr": "South Avenue M",
      "lat": 41.71574,
      "lng": -87.53773,
      "height_in": 140,
      "height_label": "11'8\"",
      "notes": "layer -1",
      "source": "OpenStreetMap"
    },
    {
      "id": "osm-w57034913",
      "name": "East 95th Street",
      "addr": "US 12;US 20",
      "lat": 41.7223,
      "lng": -87.58674,
      "height_in": 164,
      "height_label": "13'8\"",
      "notes": "layer -1",
      "source": "OpenStreetMap"
    },
    {
      "id": "osm-w57035019",
      "name": "South Paxton Avenue",
      "addr": "South Paxton Avenue",
      "lat": 41.72371,
      "lng": -87.57055,
      "height_in": 142,
      "height_label": "11'10\"",
      "notes": "layer -1",
      "source": "OpenStreetMap"
    },
    {
      "id": "osm-w57035023",
      "name": "South Jeffery Boulevard",
      "addr": "South Jeffery Boulevard",
      "lat": 41.72365,
      "lng": -87.57542,
      "height_in": 138,
      "height_label": "11'6\"",
      "notes": "layer -1",
      "source": "OpenStreetMap"
    },
    {
      "id": "osm-w57035025",
      "name": "South Manistee Avenue",
      "addr": "South Manistee Avenue",
      "lat": 41.72378,
      "lng": -87.55667,
      "height_in": 144,
      "height_label": "12'0\"",
      "notes": "layer -1",
      "source": "OpenStreetMap"
    },
    {
      "id": "osm-w57035027",
      "name": "South Colfax Avenue",
      "addr": "South Colfax Avenue",
      "lat": 41.72374,
      "lng": -87.56079,
      "height_in": 142,
      "height_label": "11'10\"",
      "notes": "layer -1",
      "source": "OpenStreetMap"
    },
    {
      "id": "osm-w57254106",
      "name": "East 67th Street",
      "addr": "East 67th Street",
      "lat": 41.77328,
      "lng": -87.59202,
      "height_in": 158,
      "height_label": "13'2\"",
      "notes": "layer -1; 2 lanes",
      "source": "OpenStreetMap"
    },
    {
      "id": "osm-w57254139",
      "name": "East Marquette Road",
      "addr": "East Marquette Road",
      "lat": 41.77512,
      "lng": -87.59164,
      "height_in": 146,
      "height_label": "12'2\"",
      "notes": "layer -1",
      "source": "OpenStreetMap"
    },
    {
      "id": "osm-w57254167",
      "name": "East 65th Street",
      "addr": "East 65th Street",
      "lat": 41.7769,
      "lng": -87.59124,
      "height_in": 156,
      "height_label": "13'0\"",
      "notes": "layer -1",
      "source": "OpenStreetMap"
    },
    {
      "id": "osm-w57280915",
      "name": "East 70th Street",
      "addr": "East 70th Street",
      "lat": 41.7678,
      "lng": -87.59332,
      "height_in": 146,
      "height_label": "12'2\"",
      "notes": "layer -1",
      "source": "OpenStreetMap"
    },
    {
      "id": "osm-w57355048",
      "name": "South Halsted Street",
      "addr": "South Halsted Street",
      "lat": 41.8214,
      "lng": -87.6459,
      "height_in": 164,
      "height_label": "13'8\"",
      "notes": "Imported from OpenStreetMap.",
      "source": "OpenStreetMap"
    },
    {
      "id": "osm-w57359915",
      "name": "East 72nd Street",
      "addr": "East 72nd Street",
      "lat": 41.76416,
      "lng": -87.59413,
      "height_in": 142,
      "height_label": "11'10\"",
      "notes": "layer -1",
      "source": "OpenStreetMap"
    },
    {
      "id": "osm-w57359929",
      "name": "East 71st Street",
      "addr": "East 71st Street",
      "lat": 41.76601,
      "lng": -87.5937,
      "height_in": 132,
      "height_label": "11'0\"",
      "notes": "layer -1",
      "source": "OpenStreetMap"
    },
    {
      "id": "osm-w57677814",
      "name": "East 95th Street",
      "addr": "US 12;US 20",
      "lat": 41.72201,
      "lng": -87.60371,
      "height_in": 168,
      "height_label": "14'0\"",
      "notes": "layer -1",
      "source": "OpenStreetMap"
    },
    {
      "id": "osm-w57677819",
      "name": "South Woodlawn Avenue",
      "addr": "South Woodlawn Avenue",
      "lat": 41.72316,
      "lng": -87.59486,
      "height_in": 164,
      "height_label": "13'8\"",
      "notes": "layer -1",
      "source": "OpenStreetMap"
    },
    {
      "id": "osm-w57680209",
      "name": "South Cottage Grove Avenue",
      "addr": "South Cottage Grove Avenue",
      "lat": 41.72345,
      "lng": -87.60451,
      "height_in": 163,
      "height_label": "13'7\"",
      "notes": "layer -1",
      "source": "OpenStreetMap"
    },
    {
      "id": "osm-w57684520",
      "name": "South Saint Lawrence Avenue",
      "addr": "South Saint Lawrence Avenue",
      "lat": 41.72553,
      "lng": -87.60942,
      "height_in": 150,
      "height_label": "12'6\"",
      "notes": "layer -1",
      "source": "OpenStreetMap"
    },
    {
      "id": "osm-w57684522",
      "name": "South Doctor Martin Luther King Junior Drive",
      "addr": "South Doctor Martin Luther King Junior Drive",
      "lat": 41.72797,
      "lng": -87.61435,
      "height_in": 156,
      "height_label": "13'0\"",
      "notes": "layer -1; 2 lanes",
      "source": "OpenStreetMap"
    },
    {
      "id": "osm-w57700814",
      "name": "West 78th Street",
      "addr": "West 78th Street",
      "lat": 41.75257,
      "lng": -87.63873,
      "height_in": 138,
      "height_label": "11'6\"",
      "notes": "layer -1",
      "source": "OpenStreetMap"
    },
    {
      "id": "osm-w57700821",
      "name": "West 79th Street",
      "addr": "West 79th Street",
      "lat": 41.75075,
      "lng": -87.63925,
      "height_in": 166,
      "height_label": "13'10\"",
      "notes": "layer -1",
      "source": "OpenStreetMap"
    },
    {
      "id": "osm-w57700822",
      "name": "West 81st Street",
      "addr": "West 81st Street",
      "lat": 41.7471,
      "lng": -87.63818,
      "height_in": 166,
      "height_label": "13'10\"",
      "notes": "layer -1",
      "source": "OpenStreetMap"
    },
    {
      "id": "osm-w57700826",
      "name": "West 80th Street",
      "addr": "West 80th Street",
      "lat": 41.74886,
      "lng": -87.63888,
      "height_in": 140,
      "height_label": "11'8\"",
      "notes": "layer -1",
      "source": "OpenStreetMap"
    },
    {
      "id": "osm-w57700828",
      "name": "South Vincennes Avenue",
      "addr": "South Vincennes Avenue",
      "lat": 41.7437,
      "lng": -87.6364,
      "height_in": 168,
      "height_label": "14'0\"",
      "notes": "layer -1",
      "source": "OpenStreetMap"
    },
    {
      "id": "osm-w57700829",
      "name": "South Vincennes Avenue",
      "addr": "South Vincennes Avenue",
      "lat": 41.74271,
      "lng": -87.63723,
      "height_in": 168,
      "height_label": "14'0\"",
      "notes": "layer -1",
      "source": "OpenStreetMap"
    },
    {
      "id": "osm-w57707984",
      "name": "South Racine Avenue",
      "addr": "South Racine Avenue",
      "lat": 41.75791,
      "lng": -87.65397,
      "height_in": 150,
      "height_label": "12'6\"",
      "notes": "layer -1",
      "source": "OpenStreetMap"
    },
    {
      "id": "osm-w57708005",
      "name": "South Aberdeen Street",
      "addr": "South Aberdeen Street",
      "lat": 41.75794,
      "lng": -87.65147,
      "height_in": 164,
      "height_label": "13'8\"",
      "notes": "layer -1",
      "source": "OpenStreetMap"
    },
    {
      "id": "osm-w57708021",
      "name": "South Peoria Street",
      "addr": "South Peoria Street",
      "lat": 41.75801,
      "lng": -87.64662,
      "height_in": 144,
      "height_label": "12'0\"",
      "notes": "layer -1",
      "source": "OpenStreetMap"
    },
    {
      "id": "osm-w57708024",
      "name": "South Morgan Street",
      "addr": "South Morgan Street",
      "lat": 41.75798,
      "lng": -87.64914,
      "height_in": 166,
      "height_label": "13'10\"",
      "notes": "layer -1",
      "source": "OpenStreetMap"
    },
    {
      "id": "osm-w57708066",
      "name": "South Halsted Street",
      "addr": "South Halsted Street",
      "lat": 41.75805,
      "lng": -87.64428,
      "height_in": 166,
      "height_label": "13'10\"",
      "notes": "layer -1",
      "source": "OpenStreetMap"
    },
    {
      "id": "osm-w57708068",
      "name": "South Union Avenue",
      "addr": "South Union Avenue",
      "lat": 41.758,
      "lng": -87.64175,
      "height_in": 142,
      "height_label": "11'10\"",
      "notes": "layer -1",
      "source": "OpenStreetMap"
    },
    {
      "id": "osm-w57708079",
      "name": "West 74th Street",
      "addr": "West 74th Street",
      "lat": 41.75985,
      "lng": -87.63929,
      "height_in": 154,
      "height_label": "12'10\"",
      "notes": "layer -1",
      "source": "OpenStreetMap"
    },
    {
      "id": "osm-w57708114",
      "name": "West 76th Street",
      "addr": "West 76th Street",
      "lat": 41.75619,
      "lng": -87.63945,
      "height_in": 138,
      "height_label": "11'6\"",
      "notes": "layer -1",
      "source": "OpenStreetMap"
    },
    {
      "id": "osm-w57716877",
      "name": "South Damen Avenue",
      "addr": "South Damen Avenue",
      "lat": 41.75764,
      "lng": -87.67334,
      "height_in": 156,
      "height_label": "13'0\"",
      "notes": "layer -1",
      "source": "OpenStreetMap"
    },
    {
      "id": "osm-w57716990",
      "name": "West 72nd Street",
      "addr": "West 72nd Street",
      "lat": 41.76349,
      "lng": -87.63938,
      "height_in": 136,
      "height_label": "11'4\"",
      "notes": "layer -1",
      "source": "OpenStreetMap"
    },
    {
      "id": "osm-w57717007",
      "name": "South Loomis Boulevard",
      "addr": "South Loomis Boulevard",
      "lat": 41.75781,
      "lng": -87.65883,
      "height_in": 138,
      "height_label": "11'6\"",
      "notes": "layer -1",
      "source": "OpenStreetMap"
    },
    {
      "id": "osm-w57769783",
      "name": "East 79th Street",
      "addr": "East 79th Street",
      "lat": 41.75134,
      "lng": -87.59699,
      "height_in": 156,
      "height_label": "13'0\"",
      "notes": "layer -1",
      "source": "OpenStreetMap"
    },
    {
      "id": "osm-w57770361",
      "name": "East 83rd Street",
      "addr": "East 83rd Street",
      "lat": 41.74405,
      "lng": -87.59857,
      "height_in": 158,
      "height_label": "13'2\"",
      "notes": "layer -1",
      "source": "OpenStreetMap"
    },
    {
      "id": "osm-w57770369",
      "name": "East 82nd Street",
      "addr": "East 82nd Street",
      "lat": 41.74585,
      "lng": -87.59821,
      "height_in": 132,
      "height_label": "11'0\"",
      "notes": "layer -1",
      "source": "OpenStreetMap"
    },
    {
      "id": "osm-w57774943",
      "name": "East 93rd Street",
      "addr": "East 93rd Street",
      "lat": 41.7257,
      "lng": -87.60286,
      "height_in": 161,
      "height_label": "13'5\"",
      "notes": "layer -1",
      "source": "OpenStreetMap"
    },
    {
      "id": "osm-w57774944",
      "name": "East 91st Street",
      "addr": "East 91st Street",
      "lat": 41.72938,
      "lng": -87.60199,
      "height_in": 156,
      "height_label": "13'0\"",
      "notes": "layer -1",
      "source": "OpenStreetMap"
    },
    {
      "id": "osm-w57774957",
      "name": "East 87th Street",
      "addr": "East 87th Street",
      "lat": 41.73669,
      "lng": -87.60026,
      "height_in": 168,
      "height_label": "14'0\"",
      "notes": "layer -1",
      "source": "OpenStreetMap"
    },
    {
      "id": "osm-w57774961",
      "name": "South South Chicago Avenue",
      "addr": "South South Chicago Avenue",
      "lat": 41.75848,
      "lng": -87.59532,
      "height_in": 160,
      "height_label": "13'4\"",
      "notes": "layer -1",
      "source": "OpenStreetMap"
    },
    {
      "id": "osm-w57774964",
      "name": "East 73rd Street",
      "addr": "East 73rd Street",
      "lat": 41.76232,
      "lng": -87.59453,
      "height_in": 140,
      "height_label": "11'8\"",
      "notes": "layer -1",
      "source": "OpenStreetMap"
    },
    {
      "id": "osm-w57782048",
      "name": "West 88th Street",
      "addr": "West 88th Street",
      "lat": 41.73434,
      "lng": -87.6455,
      "height_in": 146,
      "height_label": "12'2\"",
      "notes": "layer -1",
      "source": "OpenStreetMap"
    },
    {
      "id": "osm-w57782050",
      "name": "West 87th Street",
      "addr": "West 87th Street",
      "lat": 41.7361,
      "lng": -87.64484,
      "height_in": 150,
      "height_label": "12'6\"",
      "notes": "layer -1",
      "source": "OpenStreetMap"
    },
    {
      "id": "osm-w57782075",
      "name": "South Halsted Street",
      "addr": "South Halsted Street",
      "lat": 41.73904,
      "lng": -87.64375,
      "height_in": 156,
      "height_label": "13'0\"",
      "notes": "layer -1",
      "source": "OpenStreetMap"
    },
    {
      "id": "osm-w57782081",
      "name": "South Vincennes Avenue",
      "addr": "South Vincennes Avenue",
      "lat": 41.73686,
      "lng": -87.64456,
      "height_in": 152,
      "height_label": "12'8\"",
      "notes": "layer -1",
      "source": "OpenStreetMap"
    },
    {
      "id": "osm-w57782128",
      "name": "West 83rd Street",
      "addr": "West 83rd Street",
      "lat": 41.74341,
      "lng": -87.64215,
      "height_in": 140,
      "height_label": "11'8\"",
      "notes": "layer -1",
      "source": "OpenStreetMap"
    },
    {
      "id": "osm-w57782135",
      "name": "West 81st Street",
      "addr": "West 81st Street",
      "lat": 41.74707,
      "lng": -87.64076,
      "height_in": 166,
      "height_label": "13'10\"",
      "notes": "layer -1",
      "source": "OpenStreetMap"
    },
    {
      "id": "osm-w57782137",
      "name": "West 80th Street",
      "addr": "West 80th Street",
      "lat": 41.74885,
      "lng": -87.64011,
      "height_in": 140,
      "height_label": "11'8\"",
      "notes": "layer -1",
      "source": "OpenStreetMap"
    },
    {
      "id": "osm-w57782145",
      "name": "West 76th Street",
      "addr": "West 76th Street",
      "lat": 41.75623,
      "lng": -87.63732,
      "height_in": 138,
      "height_label": "11'6\"",
      "notes": "layer -1",
      "source": "OpenStreetMap"
    },
    {
      "id": "osm-w57782206",
      "name": "West 74th Street",
      "addr": "West 74th Street",
      "lat": 41.75991,
      "lng": -87.63604,
      "height_in": 152,
      "height_label": "12'8\"",
      "notes": "layer -1",
      "source": "OpenStreetMap"
    },
    {
      "id": "osm-w57890230",
      "name": "West 138th Street",
      "addr": "West 138th Street",
      "lat": 41.64454,
      "lng": -87.62431,
      "height_in": 167,
      "height_label": "13'11\"",
      "notes": "layer -1",
      "source": "OpenStreetMap"
    },
    {
      "id": "osm-w57890265",
      "name": "East 130th Street",
      "addr": "East 130th Street",
      "lat": 41.65908,
      "lng": -87.61815,
      "height_in": 174,
      "height_label": "14'6\"",
      "notes": "layer -1",
      "source": "OpenStreetMap"
    },
    {
      "id": "osm-w57890276",
      "name": "East Kensington Avenue",
      "addr": "East Kensington Avenue",
      "lat": 41.68398,
      "lng": -87.61234,
      "height_in": 140,
      "height_label": "11'8\"",
      "notes": "layer -1",
      "source": "OpenStreetMap"
    },
    {
      "id": "osm-w57890280",
      "name": "East 115th Street",
      "addr": "East 115th Street",
      "lat": 41.6854,
      "lng": -87.61204,
      "height_in": 156,
      "height_label": "13'0\"",
      "notes": "layer -1",
      "source": "OpenStreetMap"
    },
    {
      "id": "osm-w57890293",
      "name": "East 113th Street",
      "addr": "East 113th Street",
      "lat": 41.68911,
      "lng": -87.61128,
      "height_in": 142,
      "height_label": "11'10\"",
      "notes": "layer -1",
      "source": "OpenStreetMap"
    },
    {
      "id": "osm-w57890301",
      "name": "East 109th Street",
      "addr": "East 109th Street",
      "lat": 41.69641,
      "lng": -87.60957,
      "height_in": 140,
      "height_label": "11'8\"",
      "notes": "layer -1",
      "source": "OpenStreetMap"
    },
    {
      "id": "osm-w57890305",
      "name": "East 107th Street",
      "addr": "East 107th Street",
      "lat": 41.70005,
      "lng": -87.60874,
      "height_in": 161,
      "height_label": "13'5\"",
      "notes": "layer -1",
      "source": "OpenStreetMap"
    },
    {
      "id": "osm-w57890327",
      "name": "East 105th Street",
      "addr": "East 105th Street",
      "lat": 41.70373,
      "lng": -87.60791,
      "height_in": 140,
      "height_label": "11'8\"",
      "notes": "layer -1",
      "source": "OpenStreetMap"
    },
    {
      "id": "osm-w57890330",
      "name": "East 103rd Street",
      "addr": "East 103rd Street",
      "lat": 41.70736,
      "lng": -87.60707,
      "height_in": 164,
      "height_label": "13'8\"",
      "notes": "layer -1",
      "source": "OpenStreetMap"
    },
    {
      "id": "osm-w57890755",
      "name": "East 111th Street",
      "addr": "East 111th Street",
      "lat": 41.69274,
      "lng": -87.61041,
      "height_in": 156,
      "height_label": "13'0\"",
      "notes": "layer -1",
      "source": "OpenStreetMap"
    },
    {
      "id": "osm-w58828075",
      "name": "South Kostner Avenue",
      "addr": "South Kostner Avenue",
      "lat": 41.84654,
      "lng": -87.73434,
      "height_in": 146,
      "height_label": "12'2\"",
      "notes": "layer -1",
      "source": "OpenStreetMap"
    },
    {
      "id": "osm-w59097291",
      "name": "West Roosevelt Road",
      "addr": "West Roosevelt Road",
      "lat": 41.86594,
      "lng": -87.73986,
      "height_in": 162,
      "height_label": "13'6\"",
      "notes": "2 lanes",
      "source": "OpenStreetMap"
    },
    {
      "id": "osm-w59097420",
      "name": "West Cermak Road",
      "addr": "West Cermak Road",
      "lat": 41.85139,
      "lng": -87.7394,
      "height_in": 161,
      "height_label": "13'5\"",
      "notes": "2 lanes",
      "source": "OpenStreetMap"
    },
    {
      "id": "osm-w59440140",
      "name": "South Central Park Avenue",
      "addr": "South Central Park Avenue",
      "lat": 41.86873,
      "lng": -87.71553,
      "height_in": 144,
      "height_label": "12'0\"",
      "notes": "layer -1",
      "source": "OpenStreetMap"
    },
    {
      "id": "osm-w59440142",
      "name": "South Homan Avenue",
      "addr": "South Homan Avenue",
      "lat": 41.86881,
      "lng": -87.71059,
      "height_in": 148,
      "height_label": "12'4\"",
      "notes": "layer -1",
      "source": "OpenStreetMap"
    },
    {
      "id": "osm-w59440145",
      "name": "South Albany Avenue",
      "addr": "South Albany Avenue",
      "lat": 41.86886,
      "lng": -87.70334,
      "height_in": 156,
      "height_label": "13'0\"",
      "notes": "layer -1",
      "source": "OpenStreetMap"
    },
    {
      "id": "osm-w59440147",
      "name": "South Kedzie Avenue",
      "addr": "South Kedzie Avenue",
      "lat": 41.86881,
      "lng": -87.70572,
      "height_in": 174,
      "height_label": "14'6\"",
      "notes": "layer -1",
      "source": "OpenStreetMap"
    },
    {
      "id": "osm-w59475983",
      "name": "South Central Avenue",
      "addr": "South Central Avenue",
      "lat": 41.86978,
      "lng": -87.76441,
      "height_in": 168,
      "height_label": "14'0\"",
      "notes": "layer -1; 2 lanes",
      "source": "OpenStreetMap"
    },
    {
      "id": "osm-w59497837",
      "name": "South Central Avenue",
      "addr": "South Central Avenue",
      "lat": 41.83249,
      "lng": -87.76345,
      "height_in": 144,
      "height_label": "12'0\"",
      "notes": "layer -1",
      "source": "OpenStreetMap"
    },
    {
      "id": "osm-w59497931",
      "name": "South Laramie Avenue",
      "addr": "South Laramie Avenue",
      "lat": 41.83257,
      "lng": -87.75358,
      "height_in": 161,
      "height_label": "13'5\"",
      "notes": "layer -1",
      "source": "OpenStreetMap"
    },
    {
      "id": "osm-w59582079",
      "name": "North Austin Avenue",
      "addr": "North Austin Avenue",
      "lat": 41.91575,
      "lng": -87.7754,
      "height_in": 158,
      "height_label": "13'2\"",
      "notes": "layer -1",
      "source": "OpenStreetMap"
    },
    {
      "id": "osm-w59586265",
      "name": "North Ogden Avenue",
      "addr": "North Ogden Avenue",
      "lat": 41.89815,
      "lng": -87.65277,
      "height_in": 162,
      "height_label": "13'6\"",
      "notes": "Imported from OpenStreetMap.",
      "source": "OpenStreetMap"
    },
    {
      "id": "osm-w117752661",
      "name": "West 144th Street",
      "addr": "West 144th Street",
      "lat": 41.63353,
      "lng": -87.63018,
      "height_in": 144,
      "height_label": "12'0\"",
      "notes": "layer -1",
      "source": "OpenStreetMap"
    },
    {
      "id": "osm-w137363992",
      "name": "Lawrence Avenue",
      "addr": "Lawrence Avenue",
      "lat": 41.9657,
      "lng": -87.87011,
      "height_in": 171,
      "height_label": "14'3\"",
      "notes": "layer -1",
      "source": "OpenStreetMap"
    },
    {
      "id": "osm-w140260531",
      "name": "Tunnel (service)",
      "addr": "",
      "lat": 41.95247,
      "lng": -87.68418,
      "height_in": 136,
      "height_label": "11'4\"",
      "notes": "Imported from OpenStreetMap.",
      "source": "OpenStreetMap"
    },
    {
      "id": "osm-w160139318",
      "name": "Irving Park Road",
      "addr": "IL 19",
      "lat": 41.95484,
      "lng": -87.86614,
      "height_in": 167,
      "height_label": "13'11\"",
      "notes": "layer -1; 4 lanes",
      "source": "OpenStreetMap"
    },
    {
      "id": "osm-w178082897",
      "name": "South Wood Street",
      "addr": "South Wood Street",
      "lat": 41.86093,
      "lng": -87.67113,
      "height_in": 136,
      "height_label": "11'4\"",
      "notes": "layer -1",
      "source": "OpenStreetMap"
    },
    {
      "id": "osm-w230775771",
      "name": "North Columbus Drive",
      "addr": "North Columbus Drive",
      "lat": 41.88799,
      "lng": -87.62062,
      "height_in": 168,
      "height_label": "14'0\"",
      "notes": "layer -1",
      "source": "OpenStreetMap"
    },
    {
      "id": "osm-w231139081",
      "name": "East Lower Illinois Street",
      "addr": "East Lower Illinois Street",
      "lat": 41.89098,
      "lng": -87.62165,
      "height_in": 150,
      "height_label": "12'6\"",
      "notes": "layer -1",
      "source": "OpenStreetMap"
    },
    {
      "id": "osm-w234062754",
      "name": "Grant Park South Garage (Entrance)",
      "addr": "Grant Park South Garage (Entrance)",
      "lat": 41.87834,
      "lng": -87.62433,
      "height_in": 80,
      "height_label": "6'8\"",
      "notes": "layer -1",
      "source": "OpenStreetMap"
    },
    {
      "id": "osm-w294712586",
      "name": "West Harrison Street",
      "addr": "West Harrison Street",
      "lat": 41.87449,
      "lng": -87.63216,
      "height_in": 156,
      "height_label": "13'0\"",
      "notes": "2 lanes",
      "source": "OpenStreetMap"
    },
    {
      "id": "osm-w373849351",
      "name": "East Lower Illinois Street",
      "addr": "East Lower Illinois Street",
      "lat": 41.89093,
      "lng": -87.62427,
      "height_in": 163,
      "height_label": "13'7\"",
      "notes": "layer -1; 2 lanes",
      "source": "OpenStreetMap"
    },
    {
      "id": "osm-w435322330",
      "name": "North Cicero Avenue",
      "addr": "IL 50",
      "lat": 41.91439,
      "lng": -87.74594,
      "height_in": 170,
      "height_label": "14'2\"",
      "notes": "layer -1; 2 lanes",
      "source": "OpenStreetMap"
    },
    {
      "id": "osm-w571951250",
      "name": "Tunnel (service)",
      "addr": "",
      "lat": 41.95797,
      "lng": -87.68091,
      "height_in": 120,
      "height_label": "10'0\"",
      "notes": "Imported from OpenStreetMap.",
      "source": "OpenStreetMap"
    },
    {
      "id": "osm-w571969525",
      "name": "Tunnel (service)",
      "addr": "",
      "lat": 41.99018,
      "lng": -87.70637,
      "height_in": 132,
      "height_label": "11'0\"",
      "notes": "Imported from OpenStreetMap.",
      "source": "OpenStreetMap"
    },
    {
      "id": "osm-w571983192",
      "name": "Tunnel (service)",
      "addr": "",
      "lat": 41.75979,
      "lng": -87.74233,
      "height_in": 162,
      "height_label": "13'6\"",
      "notes": "Imported from OpenStreetMap.",
      "source": "OpenStreetMap"
    },
    {
      "id": "osm-w572312275",
      "name": "Tunnel (service)",
      "addr": "",
      "lat": 41.96896,
      "lng": -87.72854,
      "height_in": 122,
      "height_label": "10'2\"",
      "notes": "Imported from OpenStreetMap.",
      "source": "OpenStreetMap"
    },
    {
      "id": "osm-w605085793",
      "name": "South Loomis Street",
      "addr": "South Loomis Street",
      "lat": 41.8601,
      "lng": -87.66142,
      "height_in": 136,
      "height_label": "11'4\"",
      "notes": "layer -1",
      "source": "OpenStreetMap"
    },
    {
      "id": "osm-w620870536",
      "name": "East 95th Street",
      "addr": "US 12;US 20",
      "lat": 41.72222,
      "lng": -87.59167,
      "height_in": 170,
      "height_label": "14'2\"",
      "notes": "Imported from OpenStreetMap.",
      "source": "OpenStreetMap"
    },
    {
      "id": "osm-w623036508",
      "name": "South Halsted Street",
      "addr": "South Halsted Street",
      "lat": 41.78802,
      "lng": -87.645,
      "height_in": 158,
      "height_label": "13'2\"",
      "notes": "layer -1",
      "source": "OpenStreetMap"
    },
    {
      "id": "osm-w623891460",
      "name": "North Ashland Avenue",
      "addr": "North Ashland Avenue",
      "lat": 41.91664,
      "lng": -87.66785,
      "height_in": 154,
      "height_label": "12'10\"",
      "notes": "layer -1; 2 lanes",
      "source": "OpenStreetMap"
    },
    {
      "id": "osm-w624087923",
      "name": "South Ashland Avenue",
      "addr": "South Ashland Avenue",
      "lat": 41.85998,
      "lng": -87.66617,
      "height_in": 164,
      "height_label": "13'8\"",
      "notes": "layer -1; 2 lanes",
      "source": "OpenStreetMap"
    },
    {
      "id": "osm-w624087927",
      "name": "South Ashland Avenue",
      "addr": "South Ashland Avenue",
      "lat": 41.86082,
      "lng": -87.66619,
      "height_in": 164,
      "height_label": "13'8\"",
      "notes": "layer -1; 2 lanes",
      "source": "OpenStreetMap"
    },
    {
      "id": "osm-w624139260",
      "name": "South Ashland Avenue",
      "addr": "South Ashland Avenue",
      "lat": 41.75778,
      "lng": -87.66357,
      "height_in": 166,
      "height_label": "13'10\"",
      "notes": "layer -1; 2 lanes",
      "source": "OpenStreetMap"
    },
    {
      "id": "osm-w624681668",
      "name": "West 25th Street",
      "addr": "West 25th Street",
      "lat": 41.84637,
      "lng": -87.63764,
      "height_in": 144,
      "height_label": "12'0\"",
      "notes": "layer -1",
      "source": "OpenStreetMap"
    },
    {
      "id": "osm-w633425426",
      "name": "West Madison Street",
      "addr": "West Madison Street",
      "lat": 41.88051,
      "lng": -87.74036,
      "height_in": 174,
      "height_label": "14'6\"",
      "notes": "2 lanes",
      "source": "OpenStreetMap"
    },
    {
      "id": "osm-w641622581",
      "name": "West Cermak Road",
      "addr": "West Cermak Road",
      "lat": 41.85281,
      "lng": -87.63704,
      "height_in": 168,
      "height_label": "14'0\"",
      "notes": "Imported from OpenStreetMap.",
      "source": "OpenStreetMap"
    },
    {
      "id": "osm-w642332190",
      "name": "South Trumbull Avenue",
      "addr": "South Trumbull Avenue",
      "lat": 41.85181,
      "lng": -87.71105,
      "height_in": 154,
      "height_label": "12'10\"",
      "notes": "Imported from OpenStreetMap.",
      "source": "OpenStreetMap"
    },
    {
      "id": "osm-w654357434",
      "name": "West Maxwell Street",
      "addr": "West Maxwell Street",
      "lat": 41.86479,
      "lng": -87.64538,
      "height_in": 150,
      "height_label": "12'6\"",
      "notes": "Imported from OpenStreetMap.",
      "source": "OpenStreetMap"
    },
    {
      "id": "osm-w746065263",
      "name": "West Barry Avenue",
      "addr": "West Barry Avenue",
      "lat": 41.93781,
      "lng": -87.6736,
      "height_in": 136,
      "height_label": "11'4\"",
      "notes": "Imported from OpenStreetMap.",
      "source": "OpenStreetMap"
    },
    {
      "id": "osm-w753752388",
      "name": "East Garage Entrance",
      "addr": "East Garage Entrance",
      "lat": 41.8921,
      "lng": -87.60461,
      "height_in": 93,
      "height_label": "7'9\"",
      "notes": "layer -1",
      "source": "OpenStreetMap"
    },
    {
      "id": "osm-w755665483",
      "name": "South Wentworth Avenue",
      "addr": "South Wentworth Avenue",
      "lat": 41.77588,
      "lng": -87.63006,
      "height_in": 160,
      "height_label": "13'4\"",
      "notes": "layer -1",
      "source": "OpenStreetMap"
    },
    {
      "id": "osm-w931237140",
      "name": "South Lower Wacker Drive",
      "addr": "South Lower Wacker Drive",
      "lat": 41.87684,
      "lng": -87.63668,
      "height_in": 162,
      "height_label": "13'6\"",
      "notes": "layer -1; 2 lanes",
      "source": "OpenStreetMap"
    },
    {
      "id": "osm-w974074129",
      "name": "South Paulina Street",
      "addr": "South Paulina Street",
      "lat": 41.85993,
      "lng": -87.66867,
      "height_in": 122,
      "height_label": "10'2\"",
      "notes": "layer -1",
      "source": "OpenStreetMap"
    },
    {
      "id": "osm-w996233881",
      "name": "North Saint Louis Avenue",
      "addr": "North Saint Louis Avenue",
      "lat": 41.91381,
      "lng": -87.71346,
      "height_in": 142,
      "height_label": "11'10\"",
      "notes": "layer -1",
      "source": "OpenStreetMap"
    },
    {
      "id": "osm-w1003359940",
      "name": "East 76th Street",
      "addr": "East 76th Street",
      "lat": 41.75683,
      "lng": -87.59574,
      "height_in": 136,
      "height_label": "11'4\"",
      "notes": "layer -1",
      "source": "OpenStreetMap"
    },
    {
      "id": "osm-w1031314671",
      "name": "Tunnel (service)",
      "addr": "",
      "lat": 41.79012,
      "lng": -87.74094,
      "height_in": 150,
      "height_label": "12'6\"",
      "notes": "1 lanes",
      "source": "OpenStreetMap"
    },
    {
      "id": "osm-w1087242073",
      "name": "Tunnel (service)",
      "addr": "",
      "lat": 41.98857,
      "lng": -87.861,
      "height_in": 156,
      "height_label": "13'0\"",
      "notes": "Imported from OpenStreetMap.",
      "source": "OpenStreetMap"
    },
    {
      "id": "osm-w1121151772",
      "name": "Tunnel (service)",
      "addr": "",
      "lat": 41.99313,
      "lng": -87.7287,
      "height_in": 108,
      "height_label": "9'0\"",
      "notes": "Imported from OpenStreetMap.",
      "source": "OpenStreetMap"
    },
    {
      "id": "osm-w1127902690",
      "name": "West Marquette Road",
      "addr": "West Marquette Road",
      "lat": 41.77156,
      "lng": -87.71279,
      "height_in": 156,
      "height_label": "13'0\"",
      "notes": "Imported from OpenStreetMap.",
      "source": "OpenStreetMap"
    },
    {
      "id": "osm-w1164301189",
      "name": "Tunnel (service)",
      "addr": "",
      "lat": 41.95706,
      "lng": -87.80673,
      "height_in": 135,
      "height_label": "11'3\"",
      "notes": "Imported from OpenStreetMap.",
      "source": "OpenStreetMap"
    },
    {
      "id": "osm-w1211696313",
      "name": "West Bryn Mawr Avenue",
      "addr": "West Bryn Mawr Avenue",
      "lat": 41.98336,
      "lng": -87.67485,
      "height_in": 138,
      "height_label": "11'6\"",
      "notes": "Imported from OpenStreetMap.",
      "source": "OpenStreetMap"
    },
    {
      "id": "osm-w1211696916",
      "name": "North Ridge Avenue",
      "addr": "North Ridge Avenue",
      "lat": 41.99216,
      "lng": -87.6751,
      "height_in": 142,
      "height_label": "11'10\"",
      "notes": "Imported from OpenStreetMap.",
      "source": "OpenStreetMap"
    },
    {
      "id": "osm-w1211697096",
      "name": "West Granville Avenue",
      "addr": "West Granville Avenue",
      "lat": 41.99436,
      "lng": -87.67515,
      "height_in": 140,
      "height_label": "11'8\"",
      "notes": "1 lanes",
      "source": "OpenStreetMap"
    },
    {
      "id": "osm-w1272418590",
      "name": "North Lower Michigan Avenue",
      "addr": "North Lower Michigan Avenue",
      "lat": 41.88971,
      "lng": -87.62424,
      "height_in": 154,
      "height_label": "12'10\"",
      "notes": "layer -1",
      "source": "OpenStreetMap"
    },
    {
      "id": "osm-w1287942690",
      "name": "East Illinois Street",
      "addr": "East Illinois Street",
      "lat": 41.89089,
      "lng": -87.62676,
      "height_in": 150,
      "height_label": "12'6\"",
      "notes": "2 lanes",
      "source": "OpenStreetMap"
    },
    {
      "id": "osm-w1289409140",
      "name": "East Hubbard Street",
      "addr": "East Hubbard Street",
      "lat": 41.89009,
      "lng": -87.62668,
      "height_in": 148,
      "height_label": "12'4\"",
      "notes": "Imported from OpenStreetMap.",
      "source": "OpenStreetMap"
    },
    {
      "id": "osm-w1358778872",
      "name": "North Cicero Avenue",
      "addr": "IL 50",
      "lat": 41.96887,
      "lng": -87.74772,
      "height_in": 158,
      "height_label": "13'2\"",
      "notes": "Imported from OpenStreetMap.",
      "source": "OpenStreetMap"
    },
    {
      "id": "osm-w1458793886",
      "name": "West Montrose Avenue",
      "addr": "West Montrose Avenue",
      "lat": 41.96175,
      "lng": -87.65704,
      "height_in": 160,
      "height_label": "13'4\"",
      "notes": "layer -1",
      "source": "OpenStreetMap"
    },
    {
      "id": "osm-w1472004525",
      "name": "West 83rd Street",
      "addr": "West 83rd Street",
      "lat": 41.74288,
      "lng": -87.67797,
      "height_in": 156,
      "height_label": "13'0\"",
      "notes": "layer -1",
      "source": "OpenStreetMap"
    }
  ],
  "bridges": [
    {
      "id": "chi-dlsd-oak",
      "name": "DuSable Lake Shore Dr \u2014 Oak St Viaduct",
      "addr": "DLSD @ Oak St",
      "lat": 41.902,
      "lng": -87.6261,
      "height_in": 152,
      "height_label": "12'8\"",
      "notes": "Pedestrian overpass to Oak Street Beach. Low for box trucks.",
      "source": "CDOT"
    },
    {
      "id": "chi-dlsd-north-ave",
      "name": "DuSable Lake Shore Dr \u2014 North Ave Viaduct",
      "addr": "DLSD @ North Ave",
      "lat": 41.9117,
      "lng": -87.627,
      "height_in": 156,
      "height_label": "13'0\"",
      "notes": "Pedestrian bridge. Catches taller moving trucks.",
      "source": "CDOT"
    },
    {
      "id": "chi-bascule-michigan",
      "name": "Michigan Ave Bridge (DuSable)",
      "addr": "N Michigan Ave over Chicago River",
      "lat": 41.8889,
      "lng": -87.6244,
      "height_in": null,
      "height_label": "Drawbridge (varies)",
      "notes": "Bascule bridge \u2014 opens for boats. Roadway clearance irrelevant when closed.",
      "source": "CDOT"
    },
    {
      "id": "nbi-17-016009800000000",
      "name": "Low on-bridge clearance: PAULINA ST",
      "addr": "PAULINA ST",
      "lat": 41.87547,
      "lng": -87.66914,
      "height_in": 175,
      "height_label": "14'7\"",
      "notes": "FHWA NBI; on-bridge clearance; built 1954",
      "source": "FHWA National Bridge Inventory"
    },
    {
      "id": "nbi-17-016019300000000",
      "name": "Low on-bridge clearance: IL   1 (HALSTED ST",
      "addr": "IL   1 (HALSTED ST",
      "lat": 41.65821,
      "lng": -87.64125,
      "height_in": 179,
      "height_label": "14'11\"",
      "notes": "FHWA NBI; on-bridge clearance; built 1931",
      "source": "FHWA National Bridge Inventory"
    },
    {
      "id": "nbi-17-016029400000000",
      "name": "Low on-bridge clearance: ASHLAND AVE",
      "addr": "ASHLAND AVE",
      "lat": 41.6554,
      "lng": -87.66062,
      "height_in": 177,
      "height_label": "14'9\"",
      "notes": "FHWA NBI; on-bridge clearance; built 1933",
      "source": "FHWA National Bridge Inventory"
    },
    {
      "id": "nbi-17-016059000000000",
      "name": "Low on-bridge clearance: US 20 WB (LAKE ST)",
      "addr": "US 20 WB (LAKE ST)",
      "lat": 41.90674,
      "lng": -87.91961,
      "height_in": 159,
      "height_label": "13'3\"",
      "notes": "FHWA NBI; on-bridge clearance; built 1931",
      "source": "FHWA National Bridge Inventory"
    },
    {
      "id": "nbi-17-016078300000000",
      "name": "Low on-bridge clearance: ASHLAND AVE",
      "addr": "ASHLAND AVE",
      "lat": 41.87604,
      "lng": -87.66672,
      "height_in": 166,
      "height_label": "13'10\"",
      "notes": "FHWA NBI; on-bridge clearance; built 1954",
      "source": "FHWA National Bridge Inventory"
    },
    {
      "id": "nbi-17-016105900000000",
      "name": "Low on-bridge clearance: I- 55 EB TO RYAN N",
      "addr": "I- 55 EB TO RYAN N",
      "lat": 41.84786,
      "lng": -87.64233,
      "height_in": 174,
      "height_label": "14'6\"",
      "notes": "FHWA NBI; on-bridge clearance; built 1964",
      "source": "FHWA National Bridge Inventory"
    },
    {
      "id": "nbi-17-016170300000000",
      "name": "Low on-bridge clearance: I-290 WB IKE (CONG",
      "addr": "I-290 WB IKE (CONG",
      "lat": 41.87546,
      "lng": -87.64475,
      "height_in": 180,
      "height_label": "15'0\"",
      "notes": "FHWA NBI; on-bridge clearance; built 2017",
      "source": "FHWA National Bridge Inventory"
    },
    {
      "id": "nbi-17-016171200000000",
      "name": "Low on-bridge clearance: I-290 EB to I90 94",
      "addr": "I-290 EB to I90 94",
      "lat": 41.87464,
      "lng": -87.64606,
      "height_in": 180,
      "height_label": "15'0\"",
      "notes": "FHWA NBI; on-bridge clearance; built 2019",
      "source": "FHWA National Bridge Inventory"
    },
    {
      "id": "nbi-17-016600700000000",
      "name": "Low on-bridge clearance: CERMAK RD",
      "addr": "CERMAK RD",
      "lat": 41.85271,
      "lng": -87.64131,
      "height_in": 168,
      "height_label": "14'0\"",
      "notes": "FHWA NBI; on-bridge clearance; built 1906",
      "source": "FHWA National Bridge Inventory"
    },
    {
      "id": "nbi-17-016605400000000",
      "name": "Low on-bridge clearance: N WELLS ST",
      "addr": "N WELLS ST",
      "lat": 41.88777,
      "lng": -87.63397,
      "height_in": 150,
      "height_label": "12'6\"",
      "notes": "FHWA NBI; on-bridge clearance; built 1922",
      "source": "FHWA National Bridge Inventory"
    },
    {
      "id": "nbi-17-016621100000000",
      "name": "Low on-bridge clearance: SOUTH WATER ST",
      "addr": "SOUTH WATER ST",
      "lat": 41.88673,
      "lng": -87.62108,
      "height_in": 174,
      "height_label": "14'6\"",
      "notes": "FHWA NBI; on-bridge clearance; built 2022",
      "source": "FHWA National Bridge Inventory"
    },
    {
      "id": "nbi-17-016628300000000",
      "name": "Low on-bridge clearance: S CANAL ST",
      "addr": "S CANAL ST",
      "lat": 41.86179,
      "lng": -87.63908,
      "height_in": 158,
      "height_label": "13'2\"",
      "notes": "FHWA NBI; on-bridge clearance; built 1930",
      "source": "FHWA National Bridge Inventory"
    },
    {
      "id": "nbi-17-016633300000000",
      "name": "Low on-bridge clearance: COLUMBUS DRIVE",
      "addr": "COLUMBUS DRIVE",
      "lat": 41.88763,
      "lng": -87.62069,
      "height_in": 168,
      "height_label": "14'0\"",
      "notes": "FHWA NBI; on-bridge clearance; built 1980",
      "source": "FHWA National Bridge Inventory"
    },
    {
      "id": "nbi-17-016633400000000",
      "name": "Low on-bridge clearance: COLUMBUS DR",
      "addr": "COLUMBUS DR",
      "lat": 41.8836,
      "lng": -87.62062,
      "height_in": 174,
      "height_label": "14'6\"",
      "notes": "FHWA NBI; on-bridge clearance; built 1980",
      "source": "FHWA National Bridge Inventory"
    },
    {
      "id": "nbi-17-016649700000000",
      "name": "Low on-bridge clearance: Ramp to NB LL LSD",
      "addr": "Ramp to NB LL LSD",
      "lat": 41.88601,
      "lng": -87.61345,
      "height_in": 174,
      "height_label": "14'6\"",
      "notes": "FHWA NBI; on-bridge clearance; built 1986",
      "source": "FHWA National Bridge Inventory"
    },