{
  "garages": [
    {
      "id": "det-premier-garage",
      "name": "Premier Garage (GM Ren Cen)",
      "addr": "400 Renaissance Ctr",
      "lat": 42.3289,
      "lng": -83.04,
      "height_in": null,
      "height_label": null,
      "oversized": false,
      "notes": "Under GM Renaissance Center. 6'8\" typical.",
      "source": "gmrencen.com",
      "entrance_lat": 42.3282847,
      "entrance_lng": -83.0407845,
      "entrance_source": "OSM parking_entrance node 12925825650"
    },
    {
      "id": "det-ford-field",
      "name": "Ford Field Parking Deck",
      "addr": "2000 Brush St",
      "lat": 42.3399,
      "lng": -83.0457,
      "height_in": null,
      "height_label": null,
      "oversized": false,
      "notes": "Lions stadium garage.",
      "source": "fordfield.com",
      "entrance_lat": 42.3399749,
      "entrance_lng": -83.0432854,
      "entrance_source": "OSM parking_entrance node 1262302882"
    },
    {
      "id": "det-comerica",
      "name": "Comerica Park (Tigers) Lots",
      "addr": "2100 Woodward Ave",
      "lat": 42.339,
      "lng": -83.0486,
      "height_in": null,
      "height_label": "No limit (uncovered)",
      "oversized": true,
      "notes": "Surface lots. Oversized OK game days.",
      "source": "mlb.com/tigers"
    },
    {
      "id": "det-little-caesars",
      "name": "Little Caesars Arena Garage",
      "addr": "2645 Woodward Ave",
      "lat": 42.3411,
      "lng": -83.0551,
      "height_in": null,
      "height_label": null,
      "oversized": false,
      "notes": "Red Wings/Pistons arena.",
      "source": "313presents.com",
      "entrance_lat": 42.3395793,
      "entrance_lng": -83.0551977,
      "entrance_source": "OSM parking_entrance node 6148476713"
    },
    {
      "id": "det-cobo-tcf",
      "name": "Huntington Place (Cobo/TCF) Garage",
      "addr": "1 Washington Blvd",
      "lat": 42.3279,
      "lng": -83.0479,
      "height_in": null,
      "height_label": null,
      "oversized": false,
      "notes": "Detroit Auto Show venue.",
      "source": "huntingtonplacedetroit.com"
    },
    {
      "id": "det-greektown",
      "name": "Greektown Casino / Hollywood Garage",
      "addr": "1200 St Antoine St",
      "lat": 42.335,
      "lng": -83.0425,
      "height_in": null,
      "height_label": null,
      "oversized": false,
      "notes": "Greektown casino district.",
      "source": "Needs verification"
    },
    {
      "id": "det-mgm-grand",
      "name": "MGM Grand Detroit Garage",
      "addr": "1777 3rd Ave",
      "lat": 42.3325,
      "lng": -83.0601,
      "height_in": null,
      "height_label": null,
      "oversized": false,
      "notes": "Casino garage.",
      "source": "mgmgranddetroit.com",
      "entrance_lat": 42.3325568,
      "entrance_lng": -83.0611786,
      "entrance_source": "OSM parking_entrance node 1213955074"
    },
    {
      "id": "det-motor-city-casino",
      "name": "MotorCity Casino Garage",
      "addr": "2901 Grand River Ave",
      "lat": 42.3379,
      "lng": -83.066,
      "height_in": null,
      "height_label": null,
      "oversized": false,
      "notes": "Casino garage.",
      "source": "motorcitycasino.com",
      "entrance_lat": 42.3382745,
      "entrance_lng": -83.0677207,
      "entrance_source": "OSM parking_entrance node 8361287111"
    },
    {
      "id": "det-eastern-market",
      "name": "Eastern Market Lots",
      "addr": "2934 Russell St",
      "lat": 42.3483,
      "lng": -83.0409,
      "height_in": null,
      "height_label": "No limit (uncovered)",
      "oversized": true,
      "notes": "Saturday market. Large surface lots.",
      "source": "easternmarket.org",
      "entrance_lat": 42.3481102,
      "entrance_lng": -83.0398897,
      "entrance_source": "OSM parking_entrance node 9753156031"
    },
    {
      "id": "det-campus-martius",
      "name": "Campus Martius Park Lot",
      "addr": "800 Woodward Ave",
      "lat": 42.3315,
      "lng": -83.0465,
      "height_in": null,
      "height_label": null,
      "oversized": false,
      "notes": "Downtown core park.",
      "source": "Needs verification",
      "entrance_lat": 42.330879,
      "entrance_lng": -83.0446958,
      "entrance_source": "OSM parking_entrance node 7102018516"
    },
    {
      "id": "det-dia",
      "name": "Detroit Institute of Arts Lot",
      "addr": "5200 Woodward Ave",
      "lat": 42.3593,
      "lng": -83.0645,
      "height_in": null,
      "height_label": null,
      "oversized": false,
      "notes": "DIA + Midtown cultural area.",
      "source": "dia.org"
    },
    {
      "id": "det-belle-isle",
      "name": "Belle Isle Park Lots",
      "addr": "Belle Isle",
      "lat": 42.3414,
      "lng": -82.9988,
      "height_in": null,
      "height_label": "No limit (uncovered)",
      "oversized": true,
      "notes": "State park surface lots. Handles RVs.",
      "source": "belleisleconservancy.org"
    },
    {
      "id": "det-hart-plaza",
      "name": "Hart Plaza / Riverfront Lots",
      "addr": "1 Hart Plaza",
      "lat": 42.3267,
      "lng": -83.0454,
      "height_in": null,
      "height_label": "No limit (uncovered)",
      "oversized": false,
      "notes": "Riverfront surface.",
      "source": "Needs verification"
    },
    {
      "id": "det-mexicantown",
      "name": "Mexicantown Lots",
      "addr": "2835 Bagley St",
      "lat": 42.3301,
      "lng": -83.0834,
      "height_in": null,
      "height_label": "No limit (uncovered)",
      "oversized": false,
      "notes": "Restaurant district street + lots.",
      "source": "Needs verification"
    },
    {
      "id": "det-henry-ford-hosp",
      "name": "Henry Ford Hospital \u2014 Visitor Garage",
      "addr": "2799 W Grand Blvd",
      "lat": 42.3651,
      "lng": -83.0831,
      "height_in": null,
      "height_label": null,
      "oversized": false,
      "notes": "Hospital visitor garage.",
      "source": "henryford.com",
      "entrance_lat": 42.3664093,
      "entrance_lng": -83.084451,
      "entrance_source": "OSM parking_entrance node 6903869850"
    },
    {
      "id": "det-somerset",
      "name": "Somerset Collection (Troy)",
      "addr": "2800 W Big Beaver Rd, Troy",
      "lat": 42.5606,
      "lng": -83.1707,
      "height_in": null,
      "height_label": null,
      "oversized": false,
      "notes": "Suburban upscale mall.",
      "source": "thesomersetcollection.com"
    },
    {
      "id": "det-fairlane",
      "name": "Fairlane Town Center (Dearborn)",
      "addr": "18900 Michigan Ave, Dearborn",
      "lat": 42.3237,
      "lng": -83.2271,
      "height_in": null,
      "height_label": "No limit (uncovered)",
      "oversized": false,
      "notes": "Major suburban mall.",
      "source": "Needs verification"
    },
    {
      "id": "dtw-big-blue",
      "name": "DTW \u2014 Big Blue Deck (McNamara Terminal)",
      "addr": "2601 Worldgateway Pl, Romulus",
      "lat": 42.2147,
      "lng": -83.3548,
      "height_in": null,
      "height_label": null,
      "oversized": false,
      "notes": "DTW terminal garage.",
      "source": "metroairport.com"
    },
    {
      "id": "dtw-evans-deck",
      "name": "DTW \u2014 Evans Terminal Deck (North)",
      "addr": "Middlebelt Rd, Romulus",
      "lat": 42.2083,
      "lng": -83.354,
      "height_in": null,
      "height_label": null,
      "oversized": false,
      "notes": "North Terminal garage.",
      "source": "metroairport.com"
    },
    {
      "id": "dtw-economy",
      "name": "DTW \u2014 Economy Lot",
      "addr": "Middlebelt Rd",
      "lat": 42.205,
      "lng": -83.36,
      "height_in": null,
      "height_label": "No limit (uncovered)",
      "oversized": true,
      "notes": "Uncovered. Oversized OK.",
      "source": "metroairport.com"
    },
    {
      "id": "osm-w59264060",
      "name": "GM Lot",
      "addr": "900 Atwater Street",
      "lat": 42.32968,
      "lng": -83.03448,
      "height_in": null,
      "height_label": "No limit (uncovered)",
      "oversized": true,
      "structure_type": "surface_lot",
      "notes": "Imported 2026 from OSM as an oversized-vehicle-friendly surface lot: large capacity (671 spaces). 671 spaces. Paid parking. Operator: General Motors.",
      "source": "OpenStreetMap (surface lot)"
    },
    {
      "id": "osm-w68995395",
      "name": "2955 Cass Lot",
      "addr": "",
      "lat": 42.34251,
      "lng": -83.0597,
      "height_in": null,
      "height_label": "No limit (uncovered)",
      "oversized": true,
      "structure_type": "surface_lot",
      "notes": "Imported 2026 from OSM as an oversized-vehicle-friendly surface lot: large capacity (112 spaces). 112 spaces. Paid parking. Operator: Olympia Development Management.",
      "source": "OpenStreetMap (surface lot)"
    },
    {
      "id": "osm-w68995409",
      "name": "2721 Cass Lot",
      "addr": "",
      "lat": 42.34101,
      "lng": -83.05904,
      "height_in": null,
      "height_label": "No limit (uncovered)",
      "oversized": true,
      "structure_type": "surface_lot",
      "notes": "Imported 2026 from OSM as an oversized-vehicle-friendly surface lot: large capacity (369 spaces). 369 spaces. Paid parking. Operator: Olympia Development Management.",
      "source": "OpenStreetMap (surface lot)"
    },
    {
      "id": "osm-w68995438",
      "name": "64 Peterboro",
      "addr": "",
      "lat": 42.345,
      "lng": -83.05834,
      "height_in": null,
      "height_label": "No limit (uncovered)",
      "oversized": true,
      "structure_type": "surface_lot",
      "notes": "Imported 2026 from OSM as an oversized-vehicle-friendly surface lot: large capacity (80 spaces). 80 spaces. Paid parking. Operator: J&L Parking.",
      "source": "OpenStreetMap (surface lot)"
    },
    {
      "id": "osm-w69000346",
      "name": "700 Randolph Street Lot",
      "addr": "700 Randolph Street",
      "lat": 42.33294,
      "lng": -83.04328,
      "height_in": null,
      "height_label": "No limit (uncovered)",
      "oversized": true,
      "structure_type": "surface_lot",
      "notes": "Imported 2026 from OSM as an oversized-vehicle-friendly surface lot: large capacity (227 spaces). 227 spaces. Paid parking.",
      "source": "OpenStreetMap (surface lot)"
    },
    {
      "id": "osm-w69117990",
      "name": "Ford Field Lot 5",
      "addr": "2354 Brush Street",
      "lat": 42.34131,
      "lng": -83.04769,
      "height_in": null,
      "height_label": "No limit (uncovered)",
      "oversized": true,
      "structure_type": "surface_lot",
      "notes": "Imported 2026 from OSM as an oversized-vehicle-friendly surface lot: large capacity (125 spaces). 125 spaces. Paid parking.",
      "source": "OpenStreetMap (surface lot)"
    },
    {
      "id": "osm-w69117995",
      "name": "Ford Field Lot 4",
      "addr": "2003 Saint Antoine Street",
      "lat": 42.34121,
      "lng": -83.0465,
      "height_in": null,
      "height_label": "No limit (uncovered)",
      "oversized": true,
      "structure_type": "surface_lot",
      "notes": "Imported 2026 from OSM as an oversized-vehicle-friendly surface lot: large capacity (250 spaces). 250 spaces. Paid parking.",
      "source": "OpenStreetMap (surface lot)"
    },
    {
      "id": "osm-w69309257",
      "name": "Majestic Theatre",
      "addr": "",
      "lat": 42.35173,
      "lng": -83.05974,
      "height_in": null,
      "height_label": "No limit (uncovered)",
      "oversized": true,
      "structure_type": "surface_lot",
      "notes": "Imported 2026 from OSM as an oversized-vehicle-friendly surface lot: large capacity (67 spaces). 67 spaces. Paid parking. Operator: Majestic Theatre.",
      "source": "OpenStreetMap (surface lot)"
    },
    {
      "id": "osm-w69411236",
      "name": "Miller Parking Randolph Lot",
      "addr": "158 Randolph Street",
      "lat": 42.33689,
      "lng": -83.04617,
      "height_in": null,
      "height_label": "No limit (uncovered)",
      "oversized": true,
      "structure_type": "surface_lot",
      "notes": "Imported 2026 from OSM as an oversized-vehicle-friendly surface lot: large capacity (105 spaces). 105 spaces. Paid parking.",
      "source": "OpenStreetMap (surface lot)"
    },
    {
      "id": "osm-w69411248",
      "name": "Brush & Congress Lot",
      "addr": "414 East Congress Street",
      "lat": 42.33177,
      "lng": -83.04147,
      "height_in": null,
      "height_label": "No limit (uncovered)",
      "oversized": true,
      "structure_type": "surface_lot",
      "notes": "Imported 2026 from OSM as an oversized-vehicle-friendly surface lot: large capacity (52 spaces). 52 spaces. Paid parking.",
      "source": "OpenStreetMap (surface lot)"
    },
    {
      "id": "osm-w69411280",
      "name": "686 Brush Street Lot",
      "addr": "686 Brush Street",
      "lat": 42.33267,
      "lng": -83.04193,
      "height_in": null,
      "height_label": "No limit (uncovered)",
      "oversized": true,
      "structure_type": "surface_lot",
      "notes": "Imported 2026 from OSM as an oversized-vehicle-friendly surface lot: large capacity (96 spaces). 96 spaces. Paid parking.",
      "source": "OpenStreetMap (surface lot)"
    },
    {
      "id": "osm-w69412614",
      "name": "205 W Adams Lot",
      "addr": "205 Adams Street West",
      "lat": 42.33528,
      "lng": -83.05397,
      "height_in": null,
      "height_label": "No limit (uncovered)",
      "oversized": true,
      "structure_type": "surface_lot",
      "notes": "Imported 2026 from OSM as an oversized-vehicle-friendly surface lot: large capacity (93 spaces). 93 spaces. Operator: Olympia Development Management.",
      "source": "OpenStreetMap (surface lot)"
    },
    {
      "id": "osm-w69412619",
      "name": "151 W Adams Lot",
      "addr": "151 Adams Street West",
      "lat": 42.33584,
      "lng": -83.05285,
      "height_in": null,
      "height_label": "No limit (uncovered)",
      "oversized": true,
      "structure_type": "surface_lot",
      "notes": "Imported 2026 from OSM as an oversized-vehicle-friendly surface lot: large capacity (175 spaces). 175 spaces. Paid parking. Operator: Olympia Development Management.",
      "source": "OpenStreetMap (surface lot)"
    },
    {
      "id": "osm-w69412622",
      "name": "511 Grand River Lot",
      "addr": "511 Grand River Avenue",
      "lat": 42.33447,
      "lng": -83.05372,
      "height_in": null,
      "height_label": "No limit (uncovered)",
      "oversized": true,
      "structure_type": "surface_lot",
      "notes": "Imported 2026 from OSM as an oversized-vehicle-friendly surface lot: large capacity (69 spaces). 69 spaces. Paid parking. Operator: Prime Parking.",
      "source": "OpenStreetMap (surface lot)"
    },
    {
      "id": "osm-w69412628",
      "name": "421 Bagley Avenue Lot",
      "addr": "455 Bagley Avenue",
      "lat": 42.33298,
      "lng": -83.05427,
      "height_in": null,
      "height_label": "No limit (uncovered)",
      "oversized": true,
      "structure_type": "surface_lot",
      "notes": "Imported 2026 from OSM as an oversized-vehicle-friendly surface lot: large capacity (159 spaces). 159 spaces. Free parking. Operator: HDC Partners.",
      "source": "OpenStreetMap (surface lot)"
    },
    {
      "id": "osm-w69412631",
      "name": "Leland Hotel Lot",
      "addr": "",
      "lat": 42.33378,
      "lng": -83.05501,
      "height_in": null,
      "height_label": "No limit (uncovered)",
      "oversized": true,
      "structure_type": "surface_lot",
      "notes": "Imported 2026 from OSM as an oversized-vehicle-friendly surface lot: large capacity (165 spaces). 165 spaces. Paid parking. Operator: Leland Hotel.",
      "source": "OpenStreetMap (surface lot)"
    },
    {
      "id": "osm-w105764810",
      "name": "Truck Parking",
      "addr": "",
      "lat": 42.32176,
      "lng": -83.07932,
      "height_in": null,
      "height_label": "No limit (uncovered)",
      "oversized": true,
      "structure_type": "surface_lot",
      "notes": "Imported 2026 from OSM as an oversized-vehicle-friendly surface lot: name signals oversized use ('truck').",
      "source": "OpenStreetMap (surface lot)"
    },
    {
      "id": "osm-w110558980",
      "name": "Ford Field Lot 6",
      "addr": "",
      "lat": 42.34121,
      "lng": -83.04427,
      "height_in": null,
      "height_label": "No limit (uncovered)",
      "oversized": true,
      "structure_type": "surface_lot",
      "notes": "Imported 2026 from OSM as an oversized-vehicle-friendly surface lot: large capacity (72 spaces). 72 spaces. Paid parking. Operator: Detroit Lions.",
      "source": "OpenStreetMap (surface lot)"
    },
    {
      "id": "osm-w110678754",
      "name": "Sterling Group",
      "addr": "154 Larned Street West",
      "lat": 42.32886,
      "lng": -83.04723,
      "height_in": null,
      "height_label": "No limit (uncovered)",
      "oversized": true,
      "structure_type": "surface_lot",
      "notes": "Imported 2026 from OSM as an oversized-vehicle-friendly surface lot: large capacity (61 spaces). 61 spaces. Paid parking. Operator: Sterling Group.",
      "source": "OpenStreetMap (surface lot)"
    },
    {
      "id": "osm-w110679485",
      "name": "441 W Fort",
      "addr": "441 Fort Street West",
      "lat": 42.32882,
      "lng": -83.05091,
      "height_in": null,
      "height_label": "No limit (uncovered)",
      "oversized": true,
      "structure_type": "surface_lot",
      "notes": "Imported 2026 from OSM as an oversized-vehicle-friendly surface lot: large capacity (100 spaces). 100 spaces. Operator: Sterling Group.",
      "source": "OpenStreetMap (surface lot)"
    },
    {
      "id": "osm-w110681123",
      "name": "Michael Aubrey",
      "addr": "458 West Lafayette Boulevard",
      "lat": 42.32999,
      "lng": -83.05255,
      "height_in": null,
      "height_label": "No limit (uncovered)",
      "oversized": true,
      "structure_type": "surface_lot",
      "notes": "Imported 2026 from OSM as an oversized-vehicle-friendly surface lot: large capacity (180 spaces). 180 spaces. Paid parking. Operator: Michael Aubrey.",
      "source": "OpenStreetMap (surface lot)"
    },
    {
      "id": "osm-w110681509",
      "name": "Joseph Shehan",
      "addr": "599 West Lafayette Boulevard",
      "lat": 42.32898,
      "lng": -83.05336,
      "height_in": null,
      "height_label": "No limit (uncovered)",
      "oversized": true,
      "structure_type": "surface_lot",
      "notes": "Imported 2026 from OSM as an oversized-vehicle-friendly surface lot: large capacity (65 spaces). 65 spaces. Paid parking. Operator: Joseph Shehan.",
      "source": "OpenStreetMap (surface lot)"
    },
    {
      "id": "osm-w289004408",
      "name": "Motor City Casino",
      "addr": "",
      "lat": 42.33685,
      "lng": -83.0664,
      "height_in": null,
      "height_label": "No limit (uncovered)",
      "oversized": true,
      "structure_type": "surface_lot",
      "notes": "Imported 2026 from OSM as an oversized-vehicle-friendly surface lot: large capacity (185 spaces). 185 spaces. Operator: Motor City Casino.",
      "source": "OpenStreetMap (surface lot)"
    },
    {
      "id": "osm-w389314718",
      "name": "Complete Parking Services",
      "addr": "558 Chatham Street East",
      "lat": 42.32066,
      "lng": -83.03163,
      "height_in": null,
      "height_label": "No limit (uncovered)",
      "oversized": true,
      "structure_type": "surface_lot",
      "notes": "Imported 2026 from OSM as an oversized-vehicle-friendly surface lot: large capacity (57 spaces). 57 spaces. Paid parking. Operator: Complete Parking Services.",
      "source": "OpenStreetMap (surface lot)"
    },
    {
      "id": "osm-w503391541",
      "name": "2055 Cass Lot",
      "addr": "",
      "lat": 42.33549,
      "lng": -83.0556,
      "height_in": null,
      "height_label": "No limit (uncovered)",
      "oversized": true,
      "structure_type": "surface_lot",
      "notes": "Imported 2026 from OSM as an oversized-vehicle-friendly surface lot: large capacity (105 spaces). 105 spaces. Operator: Olympia Development Management.",
      "source": "OpenStreetMap (surface lot)"
    },
    {
      "id": "osm-w512327536",
      "name": "Woodward Parking",
      "addr": "541 Fort Street West",
      "lat": 42.32808,
      "lng": -83.05263,
      "height_in": null,
      "height_label": "No limit (uncovered)",
      "oversized": true,
      "structure_type": "surface_lot",
      "notes": "Imported 2026 from OSM as an oversized-vehicle-friendly surface lot: large capacity (75 spaces). 75 spaces. Paid parking. Operator: Woodward Parking.",
      "source": "OpenStreetMap (surface lot)"
    },
    {
      "id": "osm-w512393043",
      "name": "Whitney Lot",
      "addr": "4400 Woodward Avenue",
      "lat": 42.35329,
      "lng": -83.06129,
      "height_in": null,
      "height_label": "No limit (uncovered)",
      "oversized": true,
      "structure_type": "surface_lot",
      "notes": "Imported 2026 from OSM as an oversized-vehicle-friendly surface lot: large capacity (110 spaces). 110 spaces. Free parking. Operator: The Whitney.",
      "source": "OpenStreetMap (surface lot)"
    },
    {
      "id": "osm-w512605652",
      "name": "2501 Cass Lot",
      "addr": "",
      "lat": 42.33904,
      "lng": -83.05835,
      "height_in": null,
      "height_label": "No limit (uncovered)",
      "oversized": true,
      "structure_type": "surface_lot",
      "notes": "Imported 2026 from OSM as an oversized-vehicle-friendly surface lot: large capacity (266 spaces). 266 spaces. Paid parking. Operator: Olympia Development Management.",
      "source": "OpenStreetMap (surface lot)"
    },
    {
      "id": "osm-w512605654",
      "name": "2756 Cass Lot",
      "addr": "2756 Cass Avenue",
      "lat": 42.34157,
      "lng": -83.05793,
      "height_in": null,
      "height_label": "No limit (uncovered)",
      "oversized": true,
      "structure_type": "surface_lot",
      "notes": "Imported 2026 from OSM as an oversized-vehicle-friendly surface lot: large capacity (70 spaces). 70 spaces. Paid parking. Operator: Olympia Development Management.",
      "source": "OpenStreetMap (surface lot)"
    },
    {
      "id": "osm-w512904687",
      "name": "AGP Parking Inc",
      "addr": "2816 Rivard Street",
      "lat": 42.34743,
      "lng": -83.04241,
      "height_in": null,
      "height_label": "No limit (uncovered)",
      "oversized": true,
      "structure_type": "surface_lot",
      "notes": "Imported 2026 from OSM as an oversized-vehicle-friendly surface lot: large capacity (56 spaces). 56 spaces. Paid parking. Operator: AGP Parking Inc.",
      "source": "OpenStreetMap (surface lot)"
    },
    {
      "id": "osm-w516644791",
      "name": "Xia Parking",
      "addr": "506 Charlotte Street",
      "lat": 42.34283,
      "lng": -83.06132,
      "height_in": null,
      "height_label": "No limit (uncovered)",
      "oversized": true,
      "structure_type": "surface_lot",
      "notes": "Imported 2026 from OSM as an oversized-vehicle-friendly surface lot: large capacity (55 spaces). 55 spaces. Paid parking.",
      "source": "OpenStreetMap (surface lot)"
    },
    {
      "id": "osm-w554909900",
      "name": "Michigan Bell",
      "addr": "",
      "lat": 42.41692,
      "lng": -83.14243,
      "height_in": null,
      "height_label": "No limit (uncovered)",
      "oversized": true,
      "structure_type": "surface_lot",
      "notes": "Imported 2026 from OSM as an oversized-vehicle-friendly surface lot: large capacity (50 spaces). 50 spaces. Operator: Michigan Bell.",
      "source": "OpenStreetMap (surface lot)"
    },
    {
      "id": "osm-w653282253",
      "name": "City of Dearborn",
      "addr": "",
      "lat": 42.32343,
      "lng": -83.17696,
      "height_in": null,
      "height_label": "No limit (uncovered)",
      "oversized": true,
      "structure_type": "surface_lot",
      "notes": "Imported 2026 from OSM as an oversized-vehicle-friendly surface lot: large capacity (610 spaces). 610 spaces. Operator: City of Dearborn.",
      "source": "OpenStreetMap (surface lot)"
    },
    {
      "id": "osm-w803869472",
      "name": "2966 Cass",
      "addr": "2966 Cass Avenue",
      "lat": 42.34289,
      "lng": -83.05858,
      "height_in": null,
      "height_label": "No limit (uncovered)",
      "oversized": true,
      "structure_type": "surface_lot",
      "notes": "Imported 2026 from OSM as an oversized-vehicle-friendly surface lot: large capacity (50 spaces). 50 spaces. Paid parking. Operator: E-Z Parking.",
      "source": "OpenStreetMap (surface lot)"
    },
    {
      "id": "osm-w960851053",
      "name": "Prime Parking",
      "addr": "1209 Times Square",
      "lat": 42.33321,
      "lng": -83.05294,
      "height_in": null,
      "height_label": "No limit (uncovered)",
      "oversized": true,
      "structure_type": "surface_lot",
      "notes": "Imported 2026 from OSM as an oversized-vehicle-friendly surface lot: large capacity (126 spaces). 126 spaces. Paid parking. Operator: Prime Parking.",
      "source": "OpenStreetMap (surface lot)"
    }
  ],
  "tunnels": [
    {
      "id": "det-detroit-windsor",
      "name": "Detroit-Windsor Tunnel",
      "addr": "Under Detroit River to Canada",
      "lat": 42.3251,
      "lng": -83.0417,
      "height_in": 156,
      "height_label": "13'0\"",
      "notes": "International crossing to Windsor, ON. Toll. Passenger vehicles only \u2014 NO trucks/commercial/hazmat.",
      "source": "dwtunnel.com"
    },
    {
      "id": "det-truck-ferry",
      "name": "Detroit-Windsor Truck Ferry (alternative)",
      "addr": "Harbor Light Transport",
      "lat": 42.3258,
      "lng": -83.0368,
      "height_in": null,
      "height_label": "Ferry (no limit)",
      "notes": "Commercial truck ferry alternative to tunnel/Ambassador Bridge.",
      "source": "dwtf.com"
    },
    {
      "id": "osm-w8728058",
      "name": "Tunnel (motorway link)",
      "addr": "",
      "lat": 42.32635,
      "lng": -83.05117,
      "height_in": 166,
      "height_label": "13'10\"",
      "notes": "layer -1; 1 lanes",
      "source": "OpenStreetMap"
    },
    {
      "id": "osm-w8751724",
      "name": "Eagle Pass",
      "addr": "Eagle Pass",
      "lat": 42.31055,
      "lng": -83.15556,
      "height_in": 172,
      "height_label": "14'4\"",
      "notes": "layer -1",
      "source": "OpenStreetMap"
    },
    {
      "id": "osm-w30258679",
      "name": "John C Lodge Freeway",
      "addr": "M 10",
      "lat": 42.327,
      "lng": -83.05534,
      "height_in": 168,
      "height_label": "14'0\"",
      "notes": "layer -1; 3 lanes",
      "source": "OpenStreetMap"
    },
    {
      "id": "osm-w30258869",
      "name": "West Jefferson Avenue",
      "addr": "M 10",
      "lat": 42.32685,
      "lng": -83.04938,
      "height_in": 166,
      "height_label": "13'10\"",
      "notes": "layer -1; 3 lanes",
      "source": "OpenStreetMap"
    },
    {
      "id": "osm-w529043264",
      "name": "Tunnel (service)",
      "addr": "",
      "lat": 42.46772,
      "lng": -83.11758,
      "height_in": 160,
      "height_label": "13'4\"",
      "notes": "Imported from OpenStreetMap.",
      "source": "OpenStreetMap"
    },
    {
      "id": "osm-w690605776",
      "name": "Schaefer Road",
      "addr": "Schaefer Road",
      "lat": 42.31525,
      "lng": -83.17566,
      "height_in": 167,
      "height_label": "13'11\"",
      "notes": "layer -1; 4 lanes",
      "source": "OpenStreetMap"
    },
    {
      "id": "osm-w779008852",
      "name": "Tunnel (service)",
      "addr": "",
      "lat": 42.36503,
      "lng": -83.07611,
      "height_in": 84,
      "height_label": "7'0\"",
      "notes": "Imported from OpenStreetMap.",
      "source": "OpenStreetMap"
    },
    {
      "id": "osm-w1468496651",
      "name": "Tunnel (service)",
      "addr": "",
      "lat": 42.31709,
      "lng": -83.04205,
      "height_in": 150,
      "height_label": "12'6\"",
      "notes": "1 lanes",
      "source": "OpenStreetMap"
    }
  ],
  "bridges": [
    {
      "id": "det-ambassador",
      "name": "Ambassador Bridge",
      "addr": "US-Canadian border",
      "lat": 42.312,
      "lng": -83.0733,
      "height_in": null,
      "height_label": "Over water",
      "notes": "Major commercial truck crossing to Canada. Toll.",
      "source": "ambassadorbridge.com"
    },
    {
      "id": "det-gordie-howe",
      "name": "Gordie Howe International Bridge",
      "addr": "Delray / Windsor (under construction)",
      "lat": 42.2991,
      "lng": -83.1021,
      "height_in": null,
      "height_label": "Over water",
      "notes": "New cable-stayed bridge. Commercial truck focus.",
      "source": "gordiehoweinternationalbridge.com"
    },
    {
      "id": "det-mackinac",
      "name": "Mackinac Bridge (statewide \u2014 not Detroit)",
      "addr": "I-75 over Straits of Mackinac",
      "lat": 45.8172,
      "lng": -84.727,
      "height_in": null,
      "height_label": "Over water",
      "notes": "Far from Detroit but Michigan's iconic bridge. 5-mile suspension.",
      "source": "mackinacbridge.org"
    },
    {
      "id": "nbi-26-000000000007879",
      "name": "Low on-bridge clearance: 9 MI RD",
      "addr": "9 MI RD",
      "lat": 42.45883,
      "lng": -83.22122,
      "height_in": 174,
      "height_label": "14'6\"",
      "notes": "FHWA NBI; on-bridge clearance; built 1964",
      "source": "FHWA National Bridge Inventory"
    },
    {
      "id": "nbi-26-000000000011506",
      "name": "Low on-bridge clearance: NB SERV RD",
      "addr": "NB SERV RD",
      "lat": 42.38526,
      "lng": -83.27576,
      "height_in": 174,
      "height_label": "14'6\"",
      "notes": "FHWA NBI; on-bridge clearance; built 1970",
      "source": "FHWA National Bridge Inventory"
    },
    {
      "id": "nbi-26-000000000011541",
      "name": "Low on-bridge clearance: TURN RDWY 3RD LEVL",
      "addr": "TURN RDWY 3RD LEVL",
      "lat": 42.3784,
      "lng": -83.21631,
      "height_in": 170,
      "height_label": "14'2\"",
      "notes": "FHWA NBI; on-bridge clearance; built 1973",
      "source": "FHWA National Bridge Inventory"
    },
    {
      "id": "nbi-26-000000000011553",
      "name": "Low on-bridge clearance: I-96 WB COLLECTOR",
      "addr": "I-96 WB COLLECTOR",
      "lat": 42.37905,
      "lng": -83.21677,
      "height_in": 174,
      "height_label": "14'6\"",
      "notes": "FHWA NBI; on-bridge clearance; built 1970",
      "source": "FHWA National Bridge Inventory"
    },
    {
      "id": "nbi-26-000000000011800",
      "name": "Low on-bridge clearance: MADISON AVE RAMPS",
      "addr": "MADISON AVE RAMPS",
      "lat": 42.34005,
      "lng": -83.04198,
      "height_in": 174,
      "height_label": "14'6\"",
      "notes": "FHWA NBI; on-bridge clearance; built 1964",
      "source": "FHWA National Bridge Inventory"
    },
    {
      "id": "nbi-26-000000000011867",
      "name": "Low on-bridge clearance: I-75 & RAMPS C&D",
      "addr": "I-75 & RAMPS C&D",
      "lat": 42.40864,
      "lng": -83.07908,
      "height_in": 168,
      "height_label": "14'0\"",
      "notes": "FHWA NBI; on-bridge clearance; built 1969",
      "source": "FHWA National Bridge Inventory"
    }
  ]
}
