{
  "garages": [
    {
      "id": "det-premier-garage",
      "name": "Premier Garage (GM Ren Cen)",
      "addr": "400 Renaissance Ctr",
      "lat": 42.3289,
      "lng": -83.04,
      "height_in": null,
      "height_label": null,
      "oversized": false,
      "notes": "Under GM Renaissance Center. 6'8\" typical.",
      "source": "gmrencen.com"
    },
    {
      "id": "det-ford-field",
      "name": "Ford Field Parking Deck",
      "addr": "2000 Brush St",
      "lat": 42.3399,
      "lng": -83.0457,
      "height_in": null,
      "height_label": null,
      "oversized": false,
      "notes": "Lions stadium garage.",
      "source": "fordfield.com"
    },
    {
      "id": "det-comerica",
      "name": "Comerica Park (Tigers) Lots",
      "addr": "2100 Woodward Ave",
      "lat": 42.339,
      "lng": -83.0486,
      "height_in": null,
      "height_label": "No limit (uncovered)",
      "oversized": true,
      "notes": "Surface lots. Oversized OK game days.",
      "source": "mlb.com/tigers"
    },
    {
      "id": "det-little-caesars",
      "name": "Little Caesars Arena Garage",
      "addr": "2645 Woodward Ave",
      "lat": 42.3411,
      "lng": -83.0551,
      "height_in": null,
      "height_label": null,
      "oversized": false,
      "notes": "Red Wings/Pistons arena.",
      "source": "313presents.com"
    },
    {
      "id": "det-cobo-tcf",
      "name": "Huntington Place (Cobo/TCF) Garage",
      "addr": "1 Washington Blvd",
      "lat": 42.3279,
      "lng": -83.0479,
      "height_in": null,
      "height_label": null,
      "oversized": false,
      "notes": "Detroit Auto Show venue.",
      "source": "huntingtonplacedetroit.com"
    },
    {
      "id": "det-greektown",
      "name": "Greektown Casino / Hollywood Garage",
      "addr": "1200 St Antoine St",
      "lat": 42.335,
      "lng": -83.0425,
      "height_in": null,
      "height_label": null,
      "oversized": false,
      "notes": "Greektown casino district.",
      "source": "Needs verification"
    },
    {
      "id": "det-mgm-grand",
      "name": "MGM Grand Detroit Garage",
      "addr": "1777 3rd Ave",
      "lat": 42.3325,
      "lng": -83.0601,
      "height_in": null,
      "height_label": null,
      "oversized": false,
      "notes": "Casino garage.",
      "source": "mgmgranddetroit.com"
    },
    {
      "id": "det-motor-city-casino",
      "name": "MotorCity Casino Garage",
      "addr": "2901 Grand River Ave",
      "lat": 42.3379,
      "lng": -83.066,
      "height_in": null,
      "height_label": null,
      "oversized": false,
      "notes": "Casino garage.",
      "source": "motorcitycasino.com"
    },
    {
      "id": "det-west-campus",
      "name": "Wayne State \u2014 West Campus Structure",
      "addr": "4141 Anthony Wayne Dr",
      "lat": 42.3547,
      "lng": -83.0686,
      "height_in": null,
      "height_label": null,
      "oversized": false,
      "notes": "WSU visitor parking.",
      "source": "wayne.edu"
    },
    {
      "id": "det-eastern-market",
      "name": "Eastern Market Lots",
      "addr": "2934 Russell St",
      "lat": 42.3483,
      "lng": -83.0409,
      "height_in": null,
      "height_label": "No limit (uncovered)",
      "oversized": true,
      "notes": "Saturday market. Large surface lots.",
      "source": "easternmarket.org"
    },
    {
      "id": "det-campus-martius",
      "name": "Campus Martius Park Lot",
      "addr": "800 Woodward Ave",
      "lat": 42.3315,
      "lng": -83.0465,
      "height_in": null,
      "height_label": null,
      "oversized": false,
      "notes": "Downtown core park.",
      "source": "Needs verification"
    },
    {
      "id": "det-dia",
      "name": "Detroit Institute of Arts Lot",
      "addr": "5200 Woodward Ave",
      "lat": 42.3593,
      "lng": -83.0645,
      "height_in": null,
      "height_label": null,
      "oversized": false,
      "notes": "DIA + Midtown cultural area.",
      "source": "dia.org"
    },
    {
      "id": "det-belle-isle",
      "name": "Belle Isle Park Lots",
      "addr": "Belle Isle",
      "lat": 42.3414,
      "lng": -82.9988,
      "height_in": null,
      "height_label": "No limit (uncovered)",
      "oversized": true,
      "notes": "State park surface lots. Handles RVs.",
      "source": "belleisleconservancy.org"
    },
    {
      "id": "det-hart-plaza",
      "name": "Hart Plaza / Riverfront Lots",
      "addr": "1 Hart Plaza",
      "lat": 42.3267,
      "lng": -83.0454,
      "height_in": null,
      "height_label": "No limit (uncovered)",
      "oversized": false,
      "notes": "Riverfront surface.",
      "source": "Needs verification"
    },
    {
      "id": "det-mexicantown",
      "name": "Mexicantown Lots",
      "addr": "2835 Bagley St",
      "lat": 42.3301,
      "lng": -83.0834,
      "height_in": null,
      "height_label": "No limit (uncovered)",
      "oversized": false,
      "notes": "Restaurant district street + lots.",
      "source": "Needs verification"
    },
    {
      "id": "det-henry-ford-hosp",
      "name": "Henry Ford Hospital \u2014 Visitor Garage",
      "addr": "2799 W Grand Blvd",
      "lat": 42.3651,
      "lng": -83.0831,
      "height_in": null,
      "height_label": null,
      "oversized": false,
      "notes": "Hospital visitor garage.",
      "source": "henryford.com"
    },
    {
      "id": "det-somerset",
      "name": "Somerset Collection (Troy)",
      "addr": "2800 W Big Beaver Rd, Troy",
      "lat": 42.5606,
      "lng": -83.1707,
      "height_in": null,
      "height_label": null,
      "oversized": false,
      "notes": "Suburban upscale mall.",
      "source": "thesomersetcollection.com"
    },
    {
      "id": "det-fairlane",
      "name": "Fairlane Town Center (Dearborn)",
      "addr": "18900 Michigan Ave, Dearborn",
      "lat": 42.3237,
      "lng": -83.2271,
      "height_in": null,
      "height_label": "No limit (uncovered)",
      "oversized": false,
      "notes": "Major suburban mall.",
      "source": "Needs verification"
    },
    {
      "id": "dtw-big-blue",
      "name": "DTW \u2014 Big Blue Deck (McNamara Terminal)",
      "addr": "2601 Worldgateway Pl, Romulus",
      "lat": 42.2147,
      "lng": -83.3548,
      "height_in": null,
      "height_label": null,
      "oversized": false,
      "notes": "DTW terminal garage.",
      "source": "metroairport.com"
    },
    {
      "id": "dtw-evans-deck",
      "name": "DTW \u2014 Evans Terminal Deck (North)",
      "addr": "Middlebelt Rd, Romulus",
      "lat": 42.2083,
      "lng": -83.354,
      "height_in": null,
      "height_label": null,
      "oversized": false,
      "notes": "North Terminal garage.",
      "source": "metroairport.com"
    },
    {
      "id": "dtw-economy",
      "name": "DTW \u2014 Economy Lot",
      "addr": "Middlebelt Rd",
      "lat": 42.205,
      "lng": -83.36,
      "height_in": null,
      "height_label": "No limit (uncovered)",
      "oversized": true,
      "notes": "Uncovered. Oversized OK.",
      "source": "metroairport.com"
    }
  ],
  "tunnels": [
    {
      "id": "det-detroit-windsor",
      "name": "Detroit-Windsor Tunnel",
      "addr": "Under Detroit River to Canada",
      "lat": 42.3251,
      "lng": -83.0417,
      "height_in": 156,
      "height_label": "13'0\"",
      "notes": "International crossing to Windsor, ON. Toll. Passenger vehicles only \u2014 NO trucks/commercial/hazmat.",
      "source": "dwtunnel.com"
    },
    {
      "id": "det-truck-ferry",
      "name": "Detroit-Windsor Truck Ferry (alternative)",
      "addr": "Harbor Light Transport",
      "lat": 42.3258,
      "lng": -83.0368,
      "height_in": null,
      "height_label": "Ferry (no limit)",
      "notes": "Commercial truck ferry alternative to tunnel/Ambassador Bridge.",
      "source": "dwtf.com"
    },
    {
      "id": "osm-w8728058",
      "name": "Tunnel (motorway link)",
      "addr": "",
      "lat": 42.32635,
      "lng": -83.05117,
      "height_in": 166,
      "height_label": "13'10\"",
      "notes": "layer -1; 1 lanes",
      "source": "OpenStreetMap"
    },
    {
      "id": "osm-w8751724",
      "name": "Eagle Pass",
      "addr": "Eagle Pass",
      "lat": 42.31055,
      "lng": -83.15556,
      "height_in": 172,
      "height_label": "14'4\"",
      "notes": "layer -1",
      "source": "OpenStreetMap"
    },
    {
      "id": "osm-w30258679",
      "name": "John C Lodge Freeway",
      "addr": "M 10",
      "lat": 42.327,
      "lng": -83.05534,
      "height_in": 168,
      "height_label": "14'0\"",
      "notes": "layer -1; 3 lanes",
      "source": "OpenStreetMap"
    },
    {
      "id": "osm-w30258869",
      "name": "West Jefferson Avenue",
      "addr": "M 10",
      "lat": 42.32685,
      "lng": -83.04938,
      "height_in": 166,
      "height_label": "13'10\"",
      "notes": "layer -1; 3 lanes",
      "source": "OpenStreetMap"
    },
    {
      "id": "osm-w529043264",
      "name": "Tunnel (service)",
      "addr": "",
      "lat": 42.46772,
      "lng": -83.11758,
      "height_in": 160,
      "height_label": "13'4\"",
      "notes": "Imported from OpenStreetMap.",
      "source": "OpenStreetMap"
    },
    {
      "id": "osm-w690605776",
      "name": "Schaefer Road",
      "addr": "Schaefer Road",
      "lat": 42.31525,
      "lng": -83.17566,
      "height_in": 167,
      "height_label": "13'11\"",
      "notes": "layer -1; 4 lanes",
      "source": "OpenStreetMap"
    },
    {
      "id": "osm-w779008852",
      "name": "Tunnel (service)",
      "addr": "",
      "lat": 42.36503,
      "lng": -83.07611,
      "height_in": 84,
      "height_label": "7'0\"",
      "notes": "Imported from OpenStreetMap.",
      "source": "OpenStreetMap"
    },
    {
      "id": "osm-w1468496651",
      "name": "Tunnel (service)",
      "addr": "",
      "lat": 42.31709,
      "lng": -83.04205,
      "height_in": 150,
      "height_label": "12'6\"",
      "notes": "1 lanes",
      "source": "OpenStreetMap"
    }
  ],
  "bridges": [
    {
      "id": "det-ambassador",
      "name": "Ambassador Bridge",
      "addr": "US-Canadian border",
      "lat": 42.312,
      "lng": -83.0733,
      "height_in": null,
      "height_label": "Over water",
      "notes": "Major commercial truck crossing to Canada. Toll.",
      "source": "ambassadorbridge.com"
    },
    {
      "id": "det-gordie-howe",
      "name": "Gordie Howe International Bridge",
      "addr": "Delray / Windsor (under construction)",
      "lat": 42.2991,
      "lng": -83.1021,
      "height_in": null,
      "height_label": "Over water",
      "notes": "New cable-stayed bridge. Commercial truck focus.",
      "source": "gordiehoweinternationalbridge.com"
    },
    {
      "id": "det-mackinac",
      "name": "Mackinac Bridge (statewide \u2014 not Detroit)",
      "addr": "I-75 over Straits of Mackinac",
      "lat": 45.8172,
      "lng": -84.727,
      "height_in": null,
      "height_label": "Over water",
      "notes": "Far from Detroit but Michigan's iconic bridge. 5-mile suspension.",
      "source": "mackinacbridge.org"
    },
    {
      "id": "nbi-26-000000000007879",
      "name": "Low on-bridge clearance: 9 MI RD",
      "addr": "9 MI RD",
      "lat": 42.45883,
      "lng": -83.22122,
      "height_in": 174,
      "height_label": "14'6\"",
      "notes": "FHWA NBI; on-bridge clearance; built 1964",
      "source": "FHWA National Bridge Inventory"
    },
    {
      "id": "nbi-26-000000000011506",
      "name": "Low on-bridge clearance: NB SERV RD",
      "addr": "NB SERV RD",
      "lat": 42.38526,
      "lng": -83.27576,
      "height_in": 174,
      "height_label": "14'6\"",
      "notes": "FHWA NBI; on-bridge clearance; built 1970",
      "source": "FHWA National Bridge Inventory"
    },
    {
      "id": "nbi-26-000000000011541",
      "name": "Low on-bridge clearance: TURN RDWY 3RD LEVL",
      "addr": "TURN RDWY 3RD LEVL",
      "lat": 42.3784,
      "lng": -83.21631,
      "height_in": 170,
      "height_label": "14'2\"",
      "notes": "FHWA NBI; on-bridge clearance; built 1973",
      "source": "FHWA National Bridge Inventory"
    },
    {
      "id": "nbi-26-000000000011553",
      "name": "Low on-bridge clearance: I-96 WB COLLECTOR",
      "addr": "I-96 WB COLLECTOR",
      "lat": 42.37905,
      "lng": -83.21677,
      "height_in": 174,
      "height_label": "14'6\"",
      "notes": "FHWA NBI; on-bridge clearance; built 1970",
      "source": "FHWA National Bridge Inventory"
    },
    {
      "id": "nbi-26-000000000011800",
      "name": "Low on-bridge clearance: MADISON AVE RAMPS",
      "addr": "MADISON AVE RAMPS",
      "lat": 42.34005,
      "lng": -83.04198,
      "height_in": 174,
      "height_label": "14'6\"",
      "notes": "FHWA NBI; on-bridge clearance; built 1964",
      "source": "FHWA National Bridge Inventory"
    },
    {
      "id": "nbi-26-000000000011867",
      "name": "Low on-bridge clearance: I-75 & RAMPS C&D",
      "addr": "I-75 & RAMPS C&D",
      "lat": 42.40864,
      "lng": -83.07908,
      "height_in": 168,
      "height_label": "14'0\"",
      "notes": "FHWA NBI; on-bridge clearance; built 1969",
      "source": "FHWA National Bridge Inventory"
    }
  ]
}
