{
  "garages": [
    {
      "id": "elp-convention-ctr",
      "name": "El Paso Convention Center Garage",
      "addr": "One Civic Center Plaza",
      "lat": 31.7619,
      "lng": -106.4906,
      "height_in": null,
      "height_label": null,
      "oversized": false,
      "notes": "Convention Center + Abraham Chavez Theatre.",
      "source": "destinationelpaso.com",
      "entrance_lat": 31.7611966,
      "entrance_lng": -106.4916325,
      "entrance_source": "OSM parking_entrance node 10718827774"
    },
    {
      "id": "elp-san-jacinto",
      "name": "San Jacinto Plaza Garage",
      "addr": "114 W Mills Ave",
      "lat": 31.7597,
      "lng": -106.4881,
      "height_in": null,
      "height_label": null,
      "oversized": false,
      "notes": "Downtown plaza garage.",
      "source": "Needs verification",
      "entrance_lat": 31.7609162,
      "entrance_lng": -106.4888419,
      "entrance_source": "OSM parking_entrance node 13703026436"
    },
    {
      "id": "elp-plaza-theatre",
      "name": "Plaza Theatre / Hotel Paso del Norte Lot",
      "addr": "125 Pioneer Plaza",
      "lat": 31.7585,
      "lng": -106.487,
      "height_in": null,
      "height_label": null,
      "oversized": false,
      "notes": "Historic theater + hotel.",
      "source": "Needs verification"
    },
    {
      "id": "elp-union-plaza",
      "name": "Union Plaza / Southwest University Park Lot",
      "addr": "1 Ballpark Plaza",
      "lat": 31.7591,
      "lng": -106.4916,
      "height_in": null,
      "height_label": "No limit (uncovered)",
      "oversized": false,
      "notes": "Chihuahuas AAA ballpark.",
      "source": "elpasochihuahuas.com",
      "entrance_lat": 31.7580335,
      "entrance_lng": -106.4906962,
      "entrance_source": "OSM parking_entrance node 10282577907"
    },
    {
      "id": "elp-mills-plaza",
      "name": "Mills Plaza / Blue Flame Building",
      "addr": "115 N Mesa St",
      "lat": 31.7605,
      "lng": -106.4875,
      "height_in": null,
      "height_label": null,
      "oversized": false,
      "notes": "Historic downtown tower.",
      "source": "Needs verification",
      "entrance_lat": 31.7610748,
      "entrance_lng": -106.4869476,
      "entrance_source": "OSM parking_entrance node 11786626809"
    },
    {
      "id": "elp-outlet-shoppes",
      "name": "The Outlet Shoppes at El Paso",
      "addr": "7051 S Desert Blvd, Canutillo",
      "lat": 31.8997,
      "lng": -106.5728,
      "height_in": null,
      "height_label": "No limit (uncovered)",
      "oversized": false,
      "notes": "Open-air outlet mall surface lots.",
      "source": "Needs verification"
    },
    {
      "id": "elp-cielo-vista",
      "name": "Cielo Vista Mall",
      "addr": "8401 Gateway Blvd W",
      "lat": 31.7787,
      "lng": -106.37,
      "height_in": null,
      "height_label": "No limit (uncovered)",
      "oversized": false,
      "notes": "Mall surface lots.",
      "source": "simon.com"
    },
    {
      "id": "elp-fountains",
      "name": "The Fountains at Farah",
      "addr": "8889 Gateway Blvd W",
      "lat": 31.7819,
      "lng": -106.3704,
      "height_in": null,
      "height_label": "No limit (uncovered)",
      "oversized": false,
      "notes": "Open-air shopping.",
      "source": "Needs verification"
    },
    {
      "id": "elp-utep-garage",
      "name": "UTEP \u2014 Union Parking Garage",
      "addr": "351 W University Ave",
      "lat": 31.7718,
      "lng": -106.5059,
      "height_in": null,
      "height_label": null,
      "oversized": false,
      "notes": "UTEP visitor parking.",
      "source": "utep.edu"
    },
    {
      "id": "elp-sun-bowl",
      "name": "Sun Bowl Stadium Lots",
      "addr": "2201 Sun Bowl Dr",
      "lat": 31.772,
      "lng": -106.5035,
      "height_in": null,
      "height_label": "No limit (uncovered)",
      "oversized": true,
      "notes": "UTEP football. Surface lots.",
      "source": "utepminers.com"
    },
    {
      "id": "elp-don-haskins",
      "name": "Don Haskins Center Lots",
      "addr": "151 Glory Rd",
      "lat": 31.776,
      "lng": -106.5088,
      "height_in": null,
      "height_label": "No limit (uncovered)",
      "oversized": false,
      "notes": "UTEP basketball arena.",
      "source": "utepminers.com"
    },
    {
      "id": "elp-magoffin",
      "name": "Magoffin Home State Historic Site",
      "addr": "1120 Magoffin Ave",
      "lat": 31.7588,
      "lng": -106.4765,
      "height_in": null,
      "height_label": "No limit (uncovered)",
      "oversized": false,
      "notes": "Surface lot for historic site.",
      "source": "Needs verification"
    },
    {
      "id": "elp-zoo",
      "name": "El Paso Zoo Parking",
      "addr": "4001 E Paisano Dr",
      "lat": 31.7696,
      "lng": -106.4357,
      "height_in": null,
      "height_label": "No limit (uncovered)",
      "oversized": true,
      "notes": "Free surface lot. RV-capable.",
      "source": "elpasozoo.org",
      "entrance_lat": 31.7706015,
      "entrance_lng": -106.4360737,
      "entrance_source": "Auto (nearest Street View pano within 300m, 2026-04-24)"
    },
    {
      "id": "elp-wyler-tram",
      "name": "Wyler Aerial Tramway (Franklin Mts)",
      "addr": "1700 McKinley Ave",
      "lat": 31.794,
      "lng": -106.4835,
      "height_in": null,
      "height_label": "No limit (uncovered)",
      "oversized": true,
      "notes": "Surface lot at tram base.",
      "source": "tpwd.texas.gov",
      "entrance_lat": 31.7953714,
      "entrance_lng": -106.4809756,
      "entrance_source": "Auto (nearest Street View pano within 300m, 2026-04-24)"
    },
    {
      "id": "elp-franklin-mtns",
      "name": "Franklin Mountains State Park Lots",
      "addr": "1331 McKelligon Canyon Rd",
      "lat": 31.8224,
      "lng": -106.502,
      "height_in": null,
      "height_label": "No limit (uncovered)",
      "oversized": true,
      "notes": "State park lots. Oversized + RV OK.",
      "source": "tpwd.texas.gov",
      "entrance_lat": 31.8214819,
      "entrance_lng": -106.5056328,
      "entrance_source": "Auto (nearest Street View pano within 300m, 2026-04-24)"
    },
    {
      "id": "elp-fort-bliss",
      "name": "Fort Bliss \u2014 Freedom Crossing Lot",
      "addr": "1611 Pleasonton Rd",
      "lat": 31.8131,
      "lng": -106.4213,
      "height_in": null,
      "height_label": "No limit (uncovered)",
      "oversized": false,
      "notes": "Base shopping center. Access-restricted.",
      "source": "Needs verification"
    },
    {
      "id": "elp-airport-garage",
      "name": "El Paso Airport \u2014 Parking Garage",
      "addr": "6701 Convair Rd",
      "lat": 31.8072,
      "lng": -106.3759,
      "height_in": null,
      "height_label": null,
      "oversized": false,
      "notes": "ELP terminal garage.",
      "source": "elpasointernationalairport.com"
    },
    {
      "id": "elp-airport-economy",
      "name": "ELP Airport \u2014 Economy Lot",
      "addr": "6701 Convair Rd",
      "lat": 31.81,
      "lng": -106.3775,
      "height_in": null,
      "height_label": "No limit (uncovered)",
      "oversized": true,
      "notes": "Uncovered. Oversized OK.",
      "source": "elpasointernationalairport.com"
    }
  ],
  "tunnels": [],
  "bridges": [
    {
      "id": "elp-bota",
      "name": "Bridge of the Americas (Free)",
      "addr": "Patriot Fwy / US-62 over Rio Grande",
      "lat": 31.7686,
      "lng": -106.4451,
      "height_in": null,
      "height_label": "Border bridge",
      "notes": "Free international bridge to Ciudad Ju\u00e1rez. Truck lanes separate.",
      "source": "US CBP"
    },
    {
      "id": "elp-ysleta-zaragoza",
      "name": "Ysleta-Zaragoza International Bridge",
      "addr": "SH-375 to Zaragoza",
      "lat": 31.6714,
      "lng": -106.3319,
      "height_in": null,
      "height_label": "Toll bridge",
      "notes": "Commercial vehicle crossing.",
      "source": "elpasotexas.gov"
    },
    {
      "id": "nbi-48-240720255202112",
      "name": "Low on-bridge clearance: LP 375",
      "addr": "LP 375",
      "lat": 31.89908,
      "lng": -106.39941,
      "height_in": 177,
      "height_label": "14'9\"",
      "notes": "FHWA NBI; on-bridge clearance; built 2000",
      "source": "FHWA National Bridge Inventory"
    }
  ]
}
