{
  "garages": [
    {
      "id": "osm-w837225169",
      "name": "Lampe Campground",
      "addr": "130 North 1st Street",
      "lat": 42.15007,
      "lng": -80.07749,
      "height_in": null,
      "height_label": "No limit (uncovered)",
      "oversized": true,
      "structure_type": "surface_lot",
      "notes": "Imported 2026 from OSM as an oversized-vehicle-friendly surface lot: RV park (OSM tourism=caravan_site).",
      "source": "OpenStreetMap (surface lot)"
    },
    {
      "id": "osm-w1221429362",
      "name": "Erie KOA Holiday",
      "addr": "6645 West Road",
      "lat": 42.00147,
      "lng": -80.19199,
      "height_in": null,
      "height_label": "No limit (uncovered)",
      "oversized": true,
      "structure_type": "surface_lot",
      "notes": "Imported 2026 from OSM as an oversized-vehicle-friendly surface lot: RV park (OSM tourism=caravan_site). Paid parking. Operator: KOA.",
      "source": "OpenStreetMap (surface lot)",
      "entrance_lat": 42.003185,
      "entrance_lng": -80.1919484,
      "entrance_source": "Auto (nearest Street View pano within 300m, 2026-04-24)"
    }
  ],
  "tunnels": [],
  "bridges": [
    {
      "id": "nbi-42-000000000016449",
      "name": "Low on-bridge clearance: T-636 DEWEY ROAD",
      "addr": "T-636 DEWEY ROAD",
      "lat": 41.89424,
      "lng": -79.92138,
      "height_in": 125,
      "height_label": "10'5\"",
      "notes": "FHWA NBI; on-bridge clearance; built 1889",
      "source": "FHWA National Bridge Inventory"
    },
    {
      "id": "nbi-42-000000000016497",
      "name": "Low on-bridge clearance: T-463 NIEMEYER RD",
      "addr": "T-463 NIEMEYER RD",
      "lat": 41.9411,
      "lng": -79.96336,
      "height_in": 107,
      "height_label": "8'11\"",
      "notes": "FHWA NBI; on-bridge clearance; built 1875",
      "source": "FHWA National Bridge Inventory"
    }
  ]
}
