{
  "garages": [
    {
      "id": "osm-w1133880633",
      "name": "US:AR:Springdale",
      "addr": "",
      "lat": 36.21281,
      "lng": -94.21075,
      "height_in": null,
      "height_label": "No limit (uncovered)",
      "oversized": true,
      "structure_type": "surface_lot",
      "notes": "Imported 2026 from OSM as an oversized-vehicle-friendly surface lot: large capacity (76 spaces). 76 spaces. Operator: US:AR:Springdale.",
      "source": "OpenStreetMap (surface lot)"
    },
    {
      "id": "osm-w1133880672",
      "name": "US:AR:Springdale",
      "addr": "",
      "lat": 36.21488,
      "lng": -94.21334,
      "height_in": null,
      "height_label": "No limit (uncovered)",
      "oversized": true,
      "structure_type": "surface_lot",
      "notes": "Imported 2026 from OSM as an oversized-vehicle-friendly surface lot: large capacity (60 spaces). 60 spaces. Operator: US:AR:Springdale.",
      "source": "OpenStreetMap (surface lot)"
    },
    {
      "id": "osm-w1286438276",
      "name": "Road Hog RV Park",
      "addr": "",
      "lat": 36.04686,
      "lng": -94.17746,
      "height_in": null,
      "height_label": "No limit (uncovered)",
      "oversized": true,
      "structure_type": "surface_lot",
      "notes": "Imported 2026 from OSM as an oversized-vehicle-friendly surface lot: RV park (OSM tourism=caravan_site).",
      "source": "OpenStreetMap (surface lot)",
      "entrance_lat": 36.0462029,
      "entrance_lng": -94.1760814,
      "entrance_source": "Auto (nearest Street View pano within 300m, 2026-04-24 surface-lot pass)"
    },
    {
      "id": "osm-w1320513197",
      "name": "Southgate RV Park",
      "addr": "2331 South School Avenue",
      "lat": 36.03787,
      "lng": -94.16869,
      "height_in": null,
      "height_label": "No limit (uncovered)",
      "oversized": true,
      "structure_type": "surface_lot",
      "notes": "Imported 2026 from OSM as an oversized-vehicle-friendly surface lot: RV park (OSM tourism=caravan_site). 50 spaces. Paid parking.",
      "source": "OpenStreetMap (surface lot)",
      "entrance_lat": 36.0375294,
      "entrance_lng": -94.1679388,
      "entrance_source": "Auto (nearest Street View pano within 300m, 2026-04-24 surface-lot pass)"
    }
  ],
  "tunnels": [],
  "bridges": [
    {
      "id": "nbi-05-000000000017349",
      "name": "Low on-bridge clearance: Orr Road",
      "addr": "Orr Road",
      "lat": 35.9525,
      "lng": -94.25014,
      "height_in": 96,
      "height_label": "8'0\"",
      "notes": "FHWA NBI; on-bridge clearance; built 1924",
      "source": "FHWA National Bridge Inventory"
    },
    {
      "id": "nbi-05-000000000017807",
      "name": "Low on-bridge clearance: CR 98 Benton Co.",
      "addr": "CR 98 Benton Co.",
      "lat": 36.26777,
      "lng": -93.94382,
      "height_in": 168,
      "height_label": "14'0\"",
      "notes": "FHWA NBI; on-bridge clearance; built 1907",
      "source": "FHWA National Bridge Inventory"
    }
  ]
}
