{
  "garages": [
    {
      "id": "ftw-sundance-3",
      "name": "Sundance Square \u2014 Garage 3",
      "addr": "345 W 3rd St",
      "lat": 32.7551,
      "lng": -97.3312,
      "height_in": null,
      "height_label": null,
      "oversized": false,
      "notes": "2.5 hrs free with Sundance Sq business validation. Paid evenings.",
      "source": "sundancesquare.com"
    },
    {
      "id": "ftw-sundance-4",
      "name": "Sundance Square \u2014 Garage 4",
      "addr": "225 W 4th St",
      "lat": 32.755,
      "lng": -97.3316,
      "height_in": null,
      "height_label": null,
      "oversized": false,
      "notes": "2.5 hrs free with validation.",
      "source": "fortworthparking.com"
    },
    {
      "id": "ftw-sundance-2",
      "name": "Sundance Square \u2014 Garage 2 (City Center)",
      "addr": "301 Commerce St",
      "lat": 32.7546,
      "lng": -97.3293,
      "height_in": null,
      "height_label": null,
      "oversized": false,
      "notes": "Sundance Sq garage under City Center.",
      "source": "sundancesquare.com",
      "entrance_lat": 32.7540117,
      "entrance_lng": -97.329016,
      "entrance_source": "OSM parking_entrance node 9545836810"
    },
    {
      "id": "ftw-fw-center-garage",
      "name": "Fort Worth Convention Center Garage",
      "addr": "1201 Houston St",
      "lat": 32.7506,
      "lng": -97.3288,
      "height_in": null,
      "height_label": null,
      "oversized": false,
      "notes": "Convention Center + Will Rogers events.",
      "source": "fortworth.com",
      "entrance_lat": 32.751398,
      "entrance_lng": -97.3302692,
      "entrance_source": "OSM parking_entrance node 9901661117"
    },
    {
      "id": "ftw-water-gardens",
      "name": "Water Gardens Place Garage",
      "addr": "1500 Commerce St",
      "lat": 32.7489,
      "lng": -97.3281,
      "height_in": null,
      "height_label": null,
      "oversized": false,
      "notes": "Adjacent to Fort Worth Water Gardens.",
      "source": "Needs verification",
      "entrance_lat": 32.7488643,
      "entrance_lng": -97.3260562,
      "entrance_source": "OSM parking_entrance node 6138269368"
    },
    {
      "id": "ftw-intermodal",
      "name": "Fort Worth Central Station Parking",
      "addr": "1001 Jones St",
      "lat": 32.7528,
      "lng": -97.3265,
      "height_in": null,
      "height_label": null,
      "oversized": false,
      "notes": "TEXRail / Trinity Metro / Amtrak hub.",
      "source": "trinitymetro.org"
    },
    {
      "id": "ftw-kimbell",
      "name": "Kimbell Art Museum Garage",
      "addr": "3333 Camp Bowie Blvd",
      "lat": 32.7484,
      "lng": -97.365,
      "height_in": null,
      "height_label": null,
      "oversized": false,
      "notes": "Museum district underground garage.",
      "source": "kimbellart.org",
      "entrance_lat": 32.7477569,
      "entrance_lng": -97.3649841,
      "entrance_source": "OSM parking_entrance node 6563721595"
    },
    {
      "id": "ftw-modern",
      "name": "The Modern Art Museum Lot",
      "addr": "3200 Darnell St",
      "lat": 32.7497,
      "lng": -97.3622,
      "height_in": null,
      "height_label": "No limit (uncovered)",
      "oversized": false,
      "notes": "Surface lot.",
      "source": "themodern.org",
      "entrance_lat": 32.7498118,
      "entrance_lng": -97.3603557,
      "entrance_source": "OSM parking_entrance node 13057549083"
    },
    {
      "id": "ftw-amon-carter",
      "name": "Amon Carter Museum Lot",
      "addr": "3501 Camp Bowie Blvd",
      "lat": 32.7499,
      "lng": -97.3661,
      "height_in": null,
      "height_label": "No limit (uncovered)",
      "oversized": false,
      "notes": "Free surface lot.",
      "source": "cartermuseum.org"
    },
    {
      "id": "ftw-botanic-garden",
      "name": "Fort Worth Botanic Garden Lot",
      "addr": "3220 Botanic Garden Blvd",
      "lat": 32.7407,
      "lng": -97.3649,
      "height_in": null,
      "height_label": "No limit (uncovered)",
      "oversized": true,
      "notes": "Oldest botanic garden in TX. Free after paid entry.",
      "source": "fwbg.org",
      "entrance_lat": 32.7412476,
      "entrance_lng": -97.3640427,
      "entrance_source": "Auto (nearest Street View pano within 300m, 2026-04-24)"
    },
    {
      "id": "ftw-zoo",
      "name": "Fort Worth Zoo Parking",
      "addr": "1989 Colonial Pkwy",
      "lat": 32.7306,
      "lng": -97.3571,
      "height_in": null,
      "height_label": "No limit (uncovered)",
      "oversized": true,
      "notes": "Surface lot. Handles RVs.",
      "source": "fortworthzoo.org"
    },
    {
      "id": "ftw-stockyards-east",
      "name": "Stockyards \u2014 East Exchange Lot",
      "addr": "131 E Exchange Ave",
      "lat": 32.7893,
      "lng": -97.3464,
      "height_in": null,
      "height_label": "No limit (uncovered)",
      "oversized": true,
      "notes": "Historic Stockyards. Free street + paid lots. RV-friendly.",
      "source": "fortworthstockyards.org"
    },
    {
      "id": "ftw-stockyards-coliseum",
      "name": "Cowtown Coliseum Lot",
      "addr": "121 E Exchange Ave",
      "lat": 32.7888,
      "lng": -97.3466,
      "height_in": null,
      "height_label": "No limit (uncovered)",
      "oversized": true,
      "notes": "Stockyards venue surface lot.\nReclassified 2026-04-30 as surface lot per web research: Fort Worth Stockyards surface lot",
      "source": "Web-verified surface lot \u2014 was: Needs verification",
      "structure_type": "surface_lot"
    },
    {
      "id": "ftw-will-rogers",
      "name": "Will Rogers Memorial Center Lots",
      "addr": "3401 W Lancaster Ave",
      "lat": 32.7463,
      "lng": -97.3633,
      "height_in": null,
      "height_label": "No limit (uncovered)",
      "oversized": true,
      "notes": "Rodeo + event center. Surface lots.\nReclassified 2026-04-30 as surface lot per web research: Will Rogers Memorial Center surface lots",
      "source": "Web-verified surface lot \u2014 was: willrogersmemorialcenter.com",
      "structure_type": "surface_lot"
    },
    {
      "id": "ftw-texas-motor-speedway",
      "name": "Texas Motor Speedway \u2014 Event Lots",
      "addr": "3545 Lone Star Cir",
      "lat": 33.0374,
      "lng": -97.283,
      "height_in": null,
      "height_label": "No limit (uncovered)",
      "oversized": true,
      "notes": "NASCAR venue. Massive RV camping lots.",
      "source": "texasmotorspeedway.com"
    },
    {
      "id": "ftw-dickies-arena",
      "name": "Dickies Arena \u2014 Main Lots",
      "addr": "1911 Montgomery St",
      "lat": 32.7454,
      "lng": -97.363,
      "height_in": null,
      "height_label": "No limit (uncovered)",
      "oversized": true,
      "notes": "2019 arena. Event parking.\nReclassified 2026-04-30 as surface lot per web research: Dickies Arena predominantly surface lots",
      "source": "Web-verified surface lot \u2014 was: dickiesarena.com",
      "structure_type": "surface_lot"
    },
    {
      "id": "ftw-bass-hall",
      "name": "Bass Performance Hall Garage",
      "addr": "525 Commerce St",
      "lat": 32.7545,
      "lng": -97.3285,
      "height_in": null,
      "height_label": null,
      "oversized": false,
      "notes": "Sundance Sq adjacent.",
      "source": "basshall.com",
      "entrance_lat": 32.7540117,
      "entrance_lng": -97.329016,
      "entrance_source": "OSM parking_entrance node 9545836810"
    },
    {
      "id": "ftw-tcu-airport",
      "name": "Alliance Airport Lot (cargo focus)",
      "addr": "2150 Alliance Blvd",
      "lat": 32.987,
      "lng": -97.3186,
      "height_in": null,
      "height_label": "No limit (uncovered)",
      "oversized": true,
      "notes": "Cargo airport. Limited passenger.",
      "source": "allianceairport.com"
    },
    {
      "id": "ftw-trinity-terrace",
      "name": "Hulen Mall",
      "addr": "4800 S Hulen St",
      "lat": 32.6805,
      "lng": -97.3946,
      "height_in": null,
      "height_label": "No limit (uncovered)",
      "oversized": false,
      "notes": "Mall surface lots.",
      "source": "simon.com"
    },
    {
      "id": "osm-n1756137089",
      "name": "RV Park (unnamed)",
      "addr": "",
      "lat": 32.76235,
      "lng": -97.44994,
      "height_in": null,
      "height_label": "No limit (uncovered)",
      "oversized": true,
      "structure_type": "surface_lot",
      "notes": "Imported 2026 from OSM as an oversized-vehicle-friendly surface lot: RV park (OSM tourism=caravan_site).",
      "source": "OpenStreetMap (surface lot)"
    },
    {
      "id": "osm-w25664330",
      "name": "Trinity Metro",
      "addr": "",
      "lat": 32.79902,
      "lng": -97.22289,
      "height_in": null,
      "height_label": "No limit (uncovered)",
      "oversized": true,
      "structure_type": "surface_lot",
      "notes": "Imported 2026 from OSM as an oversized-vehicle-friendly surface lot: large capacity (364 spaces). 364 spaces. Operator: Trinity Metro.",
      "source": "OpenStreetMap (surface lot)"
    },
    {
      "id": "osm-w655676842",
      "name": "Ridgmar Mall - Park and ride",
      "addr": "",
      "lat": 32.74,
      "lng": -97.43464,
      "height_in": null,
      "height_label": "No limit (uncovered)",
      "oversized": true,
      "structure_type": "surface_lot",
      "notes": "Imported 2026 from OSM as an oversized-vehicle-friendly surface lot: large capacity (100 spaces). 100 spaces. Operator: Trinity Metro.",
      "source": "OpenStreetMap (surface lot)"
    },
    {
      "id": "osm-w670759615",
      "name": "Foster Village Park",
      "addr": "",
      "lat": 32.87959,
      "lng": -97.24135,
      "height_in": null,
      "height_label": "No limit (uncovered)",
      "oversized": true,
      "structure_type": "surface_lot",
      "notes": "Imported 2026 from OSM as an oversized-vehicle-friendly surface lot: large capacity (57 spaces). 57 spaces. Operator: Foster Village Park.",
      "source": "OpenStreetMap (surface lot)"
    },
    {
      "id": "osm-w864755027",
      "name": "T & P Station",
      "addr": "",
      "lat": 32.74412,
      "lng": -97.32692,
      "height_in": null,
      "height_label": "No limit (uncovered)",
      "oversized": true,
      "structure_type": "surface_lot",
      "notes": "Imported 2026 from OSM as an oversized-vehicle-friendly surface lot: large capacity (369 spaces). 369 spaces. Operator: Trinity Metro.",
      "source": "OpenStreetMap (surface lot)"
    },
    {
      "id": "osm-w864763343",
      "name": "North Side Station - Park and Ride",
      "addr": "",
      "lat": 32.79573,
      "lng": -97.33744,
      "height_in": null,
      "height_label": "No limit (uncovered)",
      "oversized": true,
      "structure_type": "surface_lot",
      "notes": "Imported 2026 from OSM as an oversized-vehicle-friendly surface lot: large capacity (163 spaces). 163 spaces. Operator: Trinity Metro.",
      "source": "OpenStreetMap (surface lot)"
    },
    {
      "id": "osm-w864768089",
      "name": "Smithfield Station - Park and Ride",
      "addr": "",
      "lat": 32.86395,
      "lng": -97.21129,
      "height_in": null,
      "height_label": "No limit (uncovered)",
      "oversized": true,
      "structure_type": "surface_lot",
      "notes": "Imported 2026 from OSM as an oversized-vehicle-friendly surface lot: large capacity (548 spaces). 548 spaces. Operator: Trinity Metro.",
      "source": "OpenStreetMap (surface lot)"
    },
    {
      "id": "osm-w869714149",
      "name": "Mercantile Center Station - Park and Ride",
      "addr": "",
      "lat": 32.81982,
      "lng": -97.29428,
      "height_in": null,
      "height_label": "No limit (uncovered)",
      "oversized": true,
      "structure_type": "surface_lot",
      "notes": "Imported 2026 from OSM as an oversized-vehicle-friendly surface lot: large capacity (279 spaces). 279 spaces. Operator: Trinity Metro.",
      "source": "OpenStreetMap (surface lot)"
    },
    {
      "id": "osm-w892767873",
      "name": "Paul Mansir Memorial Post 297",
      "addr": "",
      "lat": 32.68691,
      "lng": -97.45642,
      "height_in": null,
      "height_label": "No limit (uncovered)",
      "oversized": true,
      "structure_type": "surface_lot",
      "notes": "Imported 2026 from OSM as an oversized-vehicle-friendly surface lot: large capacity (50 spaces). 50 spaces. Free parking. Operator: Paul Mansir Memorial Post 297.",
      "source": "OpenStreetMap (surface lot)"
    }
  ],
  "tunnels": [],
  "bridges": [
    {
      "id": "ftw-seventh-st-bridge",
      "name": "Seventh Street Bridge (Trinity River)",
      "addr": "W 7th St over Trinity River",
      "lat": 32.7549,
      "lng": -97.3517,
      "height_in": null,
      "height_label": "Over water",
      "notes": "Signature concrete arch bridge.",
      "source": "Wikipedia"
    },
    {
      "id": "ftw-lancaster-rail",
      "name": "Lancaster Ave Rail Underpass",
      "addr": "Lancaster Ave @ UPRR",
      "lat": 32.7495,
      "lng": -97.328,
      "height_in": 168,
      "height_label": "14'0\"",
      "notes": "Standard rail underpass south of downtown.",
      "source": "TxDOT"
    },
    {
      "id": "nbi-48-022200017206062",
      "name": "Low on-bridge clearance: 5TH ST RAMP",
      "addr": "5TH ST RAMP",
      "lat": 32.75537,
      "lng": -97.32693,
      "height_in": 180,
      "height_label": "15'0\"",
      "notes": "FHWA NBI; on-bridge clearance; built 1964",
      "source": "FHWA National Bridge Inventory"
    },
    {
      "id": "nbi-48-022200D00095002",
      "name": "Low on-bridge clearance: Carson Street",
      "addr": "Carson Street",
      "lat": 32.78921,
      "lng": -97.25636,
      "height_in": 178,
      "height_label": "14'10\"",
      "notes": "FHWA NBI; on-bridge clearance; built 2017",
      "source": "FHWA National Bridge Inventory"
    }
  ]
}
