{
  "garages": [
    {
      "id": "fre-convention-ctr",
      "name": "Fresno Convention Center / Saroyan Theatre",
      "addr": "700 M St",
      "lat": 36.7337,
      "lng": -119.7909,
      "height_in": null,
      "height_label": null,
      "oversized": false,
      "notes": "Convention center garage.",
      "source": "fresnoconventioncenter.com",
      "entrance_lat": 36.7333937,
      "entrance_lng": -119.7910881,
      "entrance_source": "OSM parking_entrance node 12042045682"
    },
    {
      "id": "fre-chukchansi-park",
      "name": "Chukchansi Park (Grizzlies)",
      "addr": "1800 Tulare St",
      "lat": 36.7373,
      "lng": -119.7863,
      "height_in": null,
      "height_label": null,
      "oversized": false,
      "notes": "AAA ballpark.",
      "source": "milb.com",
      "entrance_lat": 36.7367145,
      "entrance_lng": -119.7881232,
      "entrance_source": "OSM parking_entrance node 11914344161"
    },
    {
      "id": "fre-save-mart-center",
      "name": "Save Mart Center (Fresno State)",
      "addr": "2650 E Shaw Ave",
      "lat": 36.8129,
      "lng": -119.7455,
      "height_in": null,
      "height_label": "No limit (uncovered)",
      "oversized": true,
      "notes": "Arena surface lots.",
      "source": "savemartcenter.com"
    },
    {
      "id": "fre-bulldog-stadium",
      "name": "Valley Children's Stadium (Bulldog)",
      "addr": "1620 E Bulldog Ln",
      "lat": 36.8127,
      "lng": -119.7502,
      "height_in": null,
      "height_label": "No limit (uncovered)",
      "oversized": true,
      "notes": "Fresno State football.",
      "source": "gobulldogs.com"
    },
    {
      "id": "fre-fashion-fair",
      "name": "Fashion Fair Mall",
      "addr": "645 E Shaw Ave",
      "lat": 36.8116,
      "lng": -119.7849,
      "height_in": null,
      "height_label": null,
      "oversized": false,
      "notes": "Macerich mall.",
      "source": "macerich.com"
    },
    {
      "id": "fre-river-park",
      "name": "River Park Shopping Center",
      "addr": "71 E Via La Plata",
      "lat": 36.8533,
      "lng": -119.7916,
      "height_in": null,
      "height_label": "No limit (uncovered)",
      "oversized": false,
      "notes": "Open-air retail.",
      "source": "Needs verification"
    },
    {
      "id": "fre-tower-district",
      "name": "Tower District Lots",
      "addr": "821 E Olive Ave",
      "lat": 36.7625,
      "lng": -119.7932,
      "height_in": null,
      "height_label": "No limit (uncovered)",
      "oversized": false,
      "notes": "Entertainment district.",
      "source": "Needs verification"
    },
    {
      "id": "fre-city-hall",
      "name": "Fresno City Hall Garage",
      "addr": "2600 Fresno St",
      "lat": 36.7374,
      "lng": -119.7884,
      "height_in": null,
      "height_label": null,
      "oversized": false,
      "notes": "Downtown civic garage.",
      "source": "fresno.gov",
      "entrance_lat": 36.7371516,
      "entrance_lng": -119.7886012,
      "entrance_source": "OSM parking_entrance node 9873878053"
    },
    {
      "id": "fre-fulton-mall",
      "name": "Fulton Street Mall Lots",
      "addr": "1101 Fulton St",
      "lat": 36.7399,
      "lng": -119.7887,
      "height_in": null,
      "height_label": "No limit (uncovered)",
      "oversized": false,
      "notes": "Pedestrian mall adjacent.",
      "source": "Needs verification"
    },
    {
      "id": "fre-airport-garage",
      "name": "Fresno Yosemite Airport (FAT) Garage",
      "addr": "5175 E Clinton Way",
      "lat": 36.7771,
      "lng": -119.7168,
      "height_in": null,
      "height_label": null,
      "oversized": false,
      "notes": "Terminal-adjacent.",
      "source": "flyfresno.com"
    },
    {
      "id": "fre-airport-economy",
      "name": "FAT \u2014 Economy Lot",
      "addr": "5175 E Clinton Way",
      "lat": 36.775,
      "lng": -119.721,
      "height_in": null,
      "height_label": "No limit (uncovered)",
      "oversized": true,
      "notes": "Uncovered.",
      "source": "flyfresno.com"
    },
    {
      "id": "fre-fresno-chaffee-zoo",
      "name": "Fresno Chaffee Zoo",
      "addr": "894 W Belmont Ave",
      "lat": 36.7489,
      "lng": -119.8035,
      "height_in": null,
      "height_label": "No limit (uncovered)",
      "oversized": true,
      "notes": "Zoo surface lot.",
      "source": "fresnochaffeezoo.org"
    },
    {
      "id": "fre-tower-theatre",
      "name": "Tower Theatre District Lots",
      "addr": "815 E Olive Ave",
      "lat": 36.7624,
      "lng": -119.7935,
      "height_in": null,
      "height_label": "No limit (uncovered)",
      "oversized": false,
      "notes": "Historic theater + surrounding restaurant district street + surface lots.",
      "source": "Needs verification"
    },
    {
      "id": "fre-woodward-park",
      "name": "Woodward Park + Shinzen Japanese Garden",
      "addr": "7775 N Friant Rd",
      "lat": 36.8643,
      "lng": -119.7672,
      "height_in": null,
      "height_label": "No limit (uncovered)",
      "oversized": true,
      "notes": "Large park with multiple surface lots. $5 parking fee.",
      "source": "fresno.gov"
    },
    {
      "id": "fre-roeding-park",
      "name": "Roeding Park / Rotary Storyland & Playland",
      "addr": "890 W Belmont Ave",
      "lat": 36.7493,
      "lng": -119.8049,
      "height_in": null,
      "height_label": "No limit (uncovered)",
      "oversized": true,
      "notes": "Park + small amusement area. Surface lots.",
      "source": "fresno.gov"
    },
    {
      "id": "fre-forestiere-underground",
      "name": "Forestiere Underground Gardens",
      "addr": "5021 W Shaw Ave",
      "lat": 36.8077,
      "lng": -119.8599,
      "height_in": null,
      "height_label": "No limit (uncovered)",
      "oversized": false,
      "notes": "Unique subterranean gardens attraction.",
      "source": "undergroundgardens.com"
    },
    {
      "id": "fre-manchester-center",
      "name": "Manchester Center",
      "addr": "1901 E Shields Ave",
      "lat": 36.7972,
      "lng": -119.7711,
      "height_in": null,
      "height_label": "No limit (uncovered)",
      "oversized": false,
      "notes": "Older mall surface lot.",
      "source": "Needs verification"
    },
    {
      "id": "fre-sierra-vista-mall",
      "name": "Sierra Vista Mall (Clovis)",
      "addr": "1050 Shaw Ave, Clovis",
      "lat": 36.8074,
      "lng": -119.7058,
      "height_in": null,
      "height_label": "No limit (uncovered)",
      "oversized": false,
      "notes": "Enclosed mall. Clovis (neighboring city).",
      "source": "Needs verification"
    },
    {
      "id": "fre-old-town-clovis",
      "name": "Old Town Clovis District",
      "addr": "400 Pollasky Ave, Clovis",
      "lat": 36.8258,
      "lng": -119.7036,
      "height_in": null,
      "height_label": "No limit (uncovered)",
      "oversized": false,
      "notes": "Historic Clovis shopping/dining.",
      "source": "oldtownclovis.com"
    },
    {
      "id": "fre-campus-pointe",
      "name": "Campus Pointe (Fresno State)",
      "addr": "550 E Shaw Ave",
      "lat": 36.8116,
      "lng": -119.7812,
      "height_in": null,
      "height_label": "No limit (uncovered)",
      "oversized": false,
      "notes": "Mixed-use retail adjacent to Fresno State.",
      "source": "campuspointecenter.com"
    },
    {
      "id": "fre-fresno-state-structure-2",
      "name": "Fresno State \u2014 Structure 2",
      "addr": "5200 N Barton Ave",
      "lat": 36.8153,
      "lng": -119.7489,
      "height_in": null,
      "height_label": null,
      "oversized": false,
      "notes": "Campus visitor parking structure.",
      "source": "fresnostate.edu"
    },
    {
      "id": "fre-crmc-hospital",
      "name": "Community Regional Medical Center",
      "addr": "2823 Fresno St",
      "lat": 36.7485,
      "lng": -119.7867,
      "height_in": null,
      "height_label": null,
      "oversized": false,
      "notes": "Main trauma hospital visitor garage.",
      "source": "communitymedical.org"
    },
    {
      "id": "fre-shields-blackstone",
      "name": "Shields & Blackstone Plaza",
      "addr": "Shields Ave & Blackstone Ave",
      "lat": 36.7972,
      "lng": -119.7911,
      "height_in": null,
      "height_label": "No limit (uncovered)",
      "oversized": false,
      "notes": "Large commercial corridor surface.",
      "source": "Needs verification"
    },
    {
      "id": "fre-kearney-mansion",
      "name": "Kearney Park / Mansion Lot",
      "addr": "7160 W Kearney Blvd",
      "lat": 36.7433,
      "lng": -119.8902,
      "height_in": null,
      "height_label": "No limit (uncovered)",
      "oversized": true,
      "notes": "Historic ranch park with campground.",
      "source": "valleyhistory.org"
    },
    {
      "id": "fre-selland-arena",
      "name": "Selland Arena Lot",
      "addr": "700 M St",
      "lat": 36.733,
      "lng": -119.7908,
      "height_in": null,
      "height_label": null,
      "oversized": false,
      "notes": "Part of convention center complex.",
      "source": "fresnoconventioncenter.com",
      "entrance_lat": 36.733368,
      "entrance_lng": -119.7911202,
      "entrance_source": "OSM parking_entrance node 12042045680"
    },
    {
      "id": "fre-st-agnes-hospital",
      "name": "Saint Agnes Medical Center",
      "addr": "1303 E Herndon Ave",
      "lat": 36.8347,
      "lng": -119.7747,
      "height_in": null,
      "height_label": null,
      "oversized": false,
      "notes": "Hospital visitor garage.",
      "source": "samc.com"
    }
  ],
  "tunnels": [
    {
      "id": "osm-w226069123",
      "name": "North Van Ness Boulevard",
      "addr": "North Van Ness Boulevard",
      "lat": 36.78167,
      "lng": -119.80413,
      "height_in": 162,
      "height_label": "13'6\"",
      "notes": "layer -1",
      "source": "OpenStreetMap"
    },
    {
      "id": "osm-w1218280427",
      "name": "Tunnel (service)",
      "addr": "",
      "lat": 36.80098,
      "lng": -119.72688,
      "height_in": 156,
      "height_label": "13'0\"",
      "notes": "Imported from OpenStreetMap.",
      "source": "OpenStreetMap"
    }
  ],
  "bridges": [
    {
      "id": "fre-99-101-interchange",
      "name": "SR-99 \u2014 Downtown Underpasses",
      "addr": "SR-99 near downtown",
      "lat": 36.7378,
      "lng": -119.7932,
      "height_in": 168,
      "height_label": "14'0\"",
      "notes": "Standard freeway underpasses.",
      "source": "Caltrans"
    },
    {
      "id": "osm-w24322593",
      "name": "Low clearance \u2014 CA 99",
      "addr": "CA 99",
      "lat": 36.73128,
      "lng": -119.79931,
      "height_in": 182,
      "height_label": "15'2\"",
      "notes": "Underpass / low clearance",
      "source": "OpenStreetMap"
    },
    {
      "id": "osm-w37784174",
      "name": "Low clearance \u2014 CA 99",
      "addr": "CA 99",
      "lat": 36.63294,
      "lng": -119.69155,
      "height_in": 185,
      "height_label": "15'5\"",
      "notes": "Underpass / low clearance",
      "source": "OpenStreetMap"
    },
    {
      "id": "osm-w258244097",
      "name": "Low clearance \u2014 CA 99",
      "addr": "CA 99",
      "lat": 36.69038,
      "lng": -119.75661,
      "height_in": 186,
      "height_label": "15'6\"",
      "notes": "Underpass / low clearance",
      "source": "OpenStreetMap"
    },
    {
      "id": "osm-w1083756002",
      "name": "Low clearance \u2014 CA 99",
      "addr": "CA 99",
      "lat": 36.73534,
      "lng": -119.80406,
      "height_in": 184,
      "height_label": "15'4\"",
      "notes": "Underpass / low clearance",
      "source": "OpenStreetMap"
    }
  ]
}
