{
  "garages": [
    {
      "id": "lou-kfc-yum-garage",
      "name": "KFC Yum! Center Garage",
      "addr": "1 Arena Plaza",
      "lat": 38.2568,
      "lng": -85.7555,
      "height_in": null,
      "height_label": null,
      "oversized": false,
      "notes": "Louisville basketball arena.",
      "source": "kfcyumcenter.com",
      "entrance_lat": 38.256935,
      "entrance_lng": -85.7547264,
      "entrance_source": "OSM parking_entrance node 9075086469"
    },
    {
      "id": "lou-4th-st-live",
      "name": "4th Street Live! Garage",
      "addr": "400 S 4th St",
      "lat": 38.2553,
      "lng": -85.7572,
      "height_in": null,
      "height_label": null,
      "oversized": false,
      "notes": "Downtown entertainment block.",
      "source": "4thstlive.com",
      "entrance_lat": 38.255755,
      "entrance_lng": -85.7569098,
      "entrance_source": "OSM parking_entrance node 3516268515"
    },
    {
      "id": "lou-convention",
      "name": "Kentucky International Convention Center",
      "addr": "221 S 4th St",
      "lat": 38.2572,
      "lng": -85.7571,
      "height_in": null,
      "height_label": null,
      "oversized": false,
      "notes": "KICC garage.",
      "source": "kyconvention.com",
      "entrance_lat": 38.2574168,
      "entrance_lng": -85.7568341,
      "entrance_source": "OSM parking_entrance node 3516420148"
    },
    {
      "id": "lou-slugger-garage",
      "name": "Louisville Slugger Field Lots",
      "addr": "401 E Main St",
      "lat": 38.2562,
      "lng": -85.7451,
      "height_in": null,
      "height_label": null,
      "oversized": false,
      "notes": "Bats AAA ballpark.",
      "source": "milb.com",
      "entrance_lat": 38.2545411,
      "entrance_lng": -85.7453127,
      "entrance_source": "OSM parking_entrance node 3560960843"
    },
    {
      "id": "lou-preston-main",
      "name": "Preston & Main Garage",
      "addr": "300 E Main St",
      "lat": 38.2566,
      "lng": -85.7481,
      "height_in": null,
      "height_label": null,
      "oversized": false,
      "notes": "Downtown.",
      "source": "Needs verification",
      "entrance_lat": 38.2568937,
      "entrance_lng": -85.7481188,
      "entrance_source": "OSM parking_entrance node 3560961424"
    },
    {
      "id": "lou-galt-house",
      "name": "Galt House Hotel Garage",
      "addr": "140 N 4th St",
      "lat": 38.2592,
      "lng": -85.7592,
      "height_in": null,
      "height_label": null,
      "oversized": false,
      "notes": "Hotel + conference garage.",
      "source": "galthouse.com",
      "entrance_lat": 38.2583792,
      "entrance_lng": -85.7594307,
      "entrance_source": "OSM parking_entrance node 2316985096"
    },
    {
      "id": "lou-palace-theatre",
      "name": "Palace Theatre / Kentucky Center",
      "addr": "625 S 4th St",
      "lat": 38.2522,
      "lng": -85.7576,
      "height_in": null,
      "height_label": null,
      "oversized": false,
      "notes": "Performing arts district.",
      "source": "Needs verification",
      "entrance_lat": 38.2511703,
      "entrance_lng": -85.7584288,
      "entrance_source": "OSM parking_entrance node 12072889177"
    },
    {
      "id": "lou-slugger-museum",
      "name": "Louisville Slugger Museum Lot",
      "addr": "800 W Main St",
      "lat": 38.2574,
      "lng": -85.768,
      "height_in": null,
      "height_label": "No limit (uncovered)",
      "oversized": false,
      "notes": "Museum Row. Surface lot.",
      "source": "sluggermuseum.com"
    },
    {
      "id": "lou-muhammad-ali",
      "name": "Muhammad Ali Center Lot",
      "addr": "144 N 6th St",
      "lat": 38.2604,
      "lng": -85.7608,
      "height_in": null,
      "height_label": null,
      "oversized": false,
      "notes": "Museum adjacent to Belvedere.",
      "source": "alicenter.org",
      "entrance_lat": 38.2588752,
      "entrance_lng": -85.7604096,
      "entrance_source": "Auto (nearest Street View pano within 300m, 2026-04-24)"
    },
    {
      "id": "lou-waterfront-park",
      "name": "Waterfront Park Lots",
      "addr": "129 River Rd",
      "lat": 38.2574,
      "lng": -85.747,
      "height_in": null,
      "height_label": "No limit (uncovered)",
      "oversized": true,
      "notes": "Ohio riverfront surface lots.",
      "source": "ourwaterfront.org",
      "entrance_lat": 38.2569875,
      "entrance_lng": -85.7480097,
      "entrance_source": "OSM parking_entrance node 3560961437"
    },
    {
      "id": "lou-churchill-downs",
      "name": "Churchill Downs (Derby)",
      "addr": "700 Central Ave",
      "lat": 38.204,
      "lng": -85.77,
      "height_in": null,
      "height_label": "No limit (uncovered)",
      "oversized": true,
      "notes": "Historic racetrack. Surface lots + RV for Derby.",
      "source": "churchilldowns.com"
    },
    {
      "id": "lou-kentucky-expo",
      "name": "Kentucky Expo Center (State Fair)",
      "addr": "937 Phillips Ln",
      "lat": 38.2,
      "lng": -85.7403,
      "height_in": null,
      "height_label": "No limit (uncovered)",
      "oversized": true,
      "notes": "State Fair + Freedom Hall. Massive surface lots.",
      "source": "kyexpo.org"
    },
    {
      "id": "lou-fairdale",
      "name": "Paddock Shops",
      "addr": "4300 Summit Plaza Dr",
      "lat": 38.27,
      "lng": -85.579,
      "height_in": null,
      "height_label": "No limit (uncovered)",
      "oversized": false,
      "notes": "Open-air shopping.",
      "source": "Needs verification"
    },
    {
      "id": "lou-mall-st-matthews",
      "name": "Mall St. Matthews",
      "addr": "5000 Shelbyville Rd",
      "lat": 38.2481,
      "lng": -85.6419,
      "height_in": null,
      "height_label": null,
      "oversized": false,
      "notes": "Enclosed mall.",
      "source": "simon.com"
    },
    {
      "id": "lou-oxmoor",
      "name": "Oxmoor Center",
      "addr": "7900 Shelbyville Rd",
      "lat": 38.2546,
      "lng": -85.5985,
      "height_in": null,
      "height_label": "No limit (uncovered)",
      "oversized": false,
      "notes": "Mall.",
      "source": "simon.com"
    },
    {
      "id": "lou-bardstown-rd",
      "name": "Bardstown Road District Lots",
      "addr": "1400 Bardstown Rd",
      "lat": 38.2364,
      "lng": -85.7203,
      "height_in": null,
      "height_label": "No limit (uncovered)",
      "oversized": false,
      "notes": "Highlands entertainment district.",
      "source": "Needs verification"
    },
    {
      "id": "lou-nulu",
      "name": "NuLu District Lots",
      "addr": "622 E Market St",
      "lat": 38.256,
      "lng": -85.7378,
      "height_in": null,
      "height_label": "No limit (uncovered)",
      "oversized": false,
      "notes": "New Louisville restaurant district.",
      "source": "Needs verification"
    },
    {
      "id": "lou-uofl-garage",
      "name": "UofL \u2014 Floyd Street Garage",
      "addr": "2301 S Floyd St",
      "lat": 38.2102,
      "lng": -85.757,
      "height_in": null,
      "height_label": null,
      "oversized": false,
      "notes": "University of Louisville visitor parking.",
      "source": "louisville.edu",
      "entrance_lat": 38.2100916,
      "entrance_lng": -85.7559451,
      "entrance_source": "Auto (nearest Street View pano within 300m, 2026-04-24)"
    },
    {
      "id": "sdf-short-term",
      "name": "SDF Airport \u2014 Short Term Garage",
      "addr": "Crittenden Dr",
      "lat": 38.1745,
      "lng": -85.74,
      "height_in": null,
      "height_label": null,
      "oversized": false,
      "notes": "SDF terminal garage.",
      "source": "flylouisville.com"
    },
    {
      "id": "sdf-economy",
      "name": "SDF \u2014 Economy Lot",
      "addr": "Crittenden Dr",
      "lat": 38.171,
      "lng": -85.7421,
      "height_in": null,
      "height_label": "No limit (uncovered)",
      "oversized": true,
      "notes": "Uncovered. Oversized OK.",
      "source": "flylouisville.com"
    },
    {
      "id": "osm-n164667181",
      "name": "Le petit Parking",
      "addr": "",
      "lat": 38.23628,
      "lng": -85.73231,
      "height_in": 118,
      "height_label": "9'10\"",
      "oversized": true,
      "notes": "500 spaces; free",
      "source": "OpenStreetMap"
    }
  ],
  "tunnels": [],
  "bridges": [
    {
      "id": "lou-clark-memorial",
      "name": "Clark Memorial Bridge (2nd St)",
      "addr": "US-31 over Ohio River",
      "lat": 38.2617,
      "lng": -85.7598,
      "height_in": null,
      "height_label": "Over water",
      "notes": "Car bridge to Indiana.",
      "source": "Wikipedia"
    },
    {
      "id": "lou-big-four",
      "name": "Big Four Bridge (pedestrian)",
      "addr": "Pedestrian over Ohio",
      "lat": 38.2599,
      "lng": -85.7395,
      "height_in": null,
      "height_label": "Pedestrian only",
      "notes": "Converted former rail bridge.",
      "source": "Wikipedia"
    },
    {
      "id": "lou-kennedy-bridge",
      "name": "John F. Kennedy Memorial Bridge (I-65)",
      "addr": "I-65 over Ohio River",
      "lat": 38.2632,
      "lng": -85.7546,
      "height_in": null,
      "height_label": "Over water",
      "notes": "Major interstate bridge.",
      "source": "KYTC",
      "entrance_lat": 38.262812,
      "entrance_lng": -85.751772,
      "entrance_source": "Auto (nearest Street View pano within 300m, 2026-04-24)"
    },
    {
      "id": "lou-abe-lincoln-bridge",
      "name": "Abraham Lincoln Bridge (I-65 North)",
      "addr": "I-65 over Ohio River",
      "lat": 38.2631,
      "lng": -85.7537,
      "height_in": null,
      "height_label": "Over water",
      "notes": "Companion to Kennedy for northbound traffic.",
      "source": "KYTC",
      "entrance_lat": 38.262812,
      "entrance_lng": -85.751772,
      "entrance_source": "Auto (nearest Street View pano within 300m, 2026-04-24)"
    }
  ]
}
