{
  "garages": [
    {
      "id": "nyc-17e54",
      "name": "17 East 54th St Garage",
      "addr": "13-17 E 54th St",
      "lat": 40.7607,
      "lng": -73.9729,
      "height_in": 82,
      "height_label": "6'10\"",
      "oversized": true,
      "notes": "Accepts full-size SUVs w/ roof racks, vans, pickups. Oversized surcharge ~$12.67. Near Rockefeller Center, 5th Ave shopping.",
      "source": "ParkRoll partner list"
    },
    {
      "id": "nyc-475pas",
      "name": "475 Park Avenue South",
      "addr": "104 E 32nd St",
      "lat": 40.7457,
      "lng": -73.9822,
      "height_in": 80,
      "height_label": "6'8\"",
      "oversized": true,
      "notes": "Near Empire State Building, Bryant Park. Accepts oversized with +$12.67 surcharge.",
      "source": "ParkRoll partner list",
      "entrance_lat": 40.746057,
      "entrance_lng": -73.9801221,
      "entrance_source": "OSM parking_entrance node 6347916314"
    },
    {
      "id": "nyc-midtowneast-apts",
      "name": "Icon \u2014 Midtown East Apartments Garage",
      "addr": "309 E 54th St",
      "lat": 40.7588,
      "lng": -73.9654,
      "height_in": 80,
      "height_label": "6'8\"",
      "oversized": false,
      "notes": "Icon Parking operator. Standard midtown clearance.",
      "source": "ParkMobile/Icon",
      "entrance_lat": 40.7593425,
      "entrance_lng": -73.9644641,
      "entrance_source": "OSM parking_entrance node 10836437298"
    },
    {
      "id": "nyc-herald-sq",
      "name": "Icon \u2014 Herald Square Parking Garage",
      "addr": "Herald Square / Chelsea",
      "lat": 40.7484,
      "lng": -73.9878,
      "height_in": 84,
      "height_label": "7'0\"",
      "oversized": false,
      "notes": "Icon Parking. Taller than most midtown garages. Exact street address needs verification.",
      "source": "ParkMobile/Icon",
      "entrance_lat": 40.7481781,
      "entrance_lng": -73.9896246,
      "entrance_source": "OSM parking_entrance node 8567327076"
    },
    {
      "id": "nyc-1633bway",
      "name": "235 W 50th St (1633 Broadway)",
      "addr": "235 W 50th St",
      "lat": 40.7612,
      "lng": -73.9844,
      "height_in": 80,
      "height_label": "6'8\"",
      "oversized": true,
      "notes": "Commercial-vehicle friendly. Accepts trucks, delivery vans, work vehicles. Near Times Square. +$10 oversized surcharge.",
      "source": "ParkRoll partner list",
      "entrance_lat": 40.7612553,
      "entrance_lng": -73.9853675,
      "entrance_source": "OSM parking_entrance node 8704367787"
    },
    {
      "id": "nyc-landon-520w43",
      "name": "Icon \u2014 Landon Garage (520 W 43rd)",
      "addr": "520 W 43rd St",
      "lat": 40.7594,
      "lng": -73.9936,
      "height_in": 108,
      "height_label": "9'0\"",
      "oversized": true,
      "notes": "Hell's Kitchen. One of the highest-clearance Manhattan garages \u2014 accommodates large trucks/RVs.",
      "source": "ParkMobile/Icon",
      "entrance_lat": 40.7590999,
      "entrance_lng": -73.9938474,
      "entrance_source": "OSM parking_entrance node 8393241418"
    },
    {
      "id": "nyc-advance-w43",
      "name": "Icon \u2014 Advance Parking (W 43rd)",
      "addr": "W 43rd St, Theater District",
      "lat": 40.7582,
      "lng": -73.9887,
      "height_in": 80,
      "height_label": "6'8\"",
      "oversized": false,
      "notes": "Exact address on W 43rd needs verification.",
      "source": "ParkMobile/Icon",
      "entrance_lat": 40.7575941,
      "entrance_lng": -73.9883345,
      "entrance_source": "OSM parking_entrance node 8669764314"
    },
    {
      "id": "nyc-161w36",
      "name": "161 W 36th St Garage",
      "addr": "161 W 36th St",
      "lat": 40.7533,
      "lng": -73.9894,
      "height_in": 75,
      "height_label": "6'3\"",
      "oversized": false,
      "notes": "Near Penn Station, MSG, Times Square. Low clearance \u2014 standard sedans/small SUVs only.",
      "source": "ParkWhiz"
    },
    {
      "id": "nyc-new-garden",
      "name": "New Garden Garage (MSG)",
      "addr": "234 W 31st St",
      "lat": 40.7506,
      "lng": -73.9935,
      "height_in": 144,
      "height_label": "12'0\"",
      "oversized": false,
      "notes": "Official Madison Square Garden event garage. 1,500 spaces. Clearance needs verification.\nVerified 2026-04-23 from sign reading \"12 FT\" (pano EyhDpIYXjpxUy4LgkTDWhA, heading 90\u00b0, Claude confidence medium)",
      "source": "AI-verified (Street View + Claude Vision \u2014 auto-pano) \u2014 was: Needs verification",
      "entrance_lat": 40.7495332,
      "entrance_lng": -73.9932857,
      "entrance_source": "OSM parking_entrance node 8567304865",
      "verified_on": "2026-04-23",
      "pano_id": "EyhDpIYXjpxUy4LgkTDWhA",
      "pano_heading": 90
    },
    {
      "id": "nyc-penn1",
      "name": "Dock Parking \u2014 Penn 1 Garage",
      "addr": "1 Penn Plaza",
      "lat": 40.751,
      "lng": -73.9928,
      "height_in": 96,
      "height_label": "8'0\"",
      "oversized": false,
      "notes": "Under Penn 1 office tower. Clearance needs verification.\nVerified 2026-04-23 from sign reading \"8'0\"\" (pano 9umAs6BY_Vy9Jv9Lv20DJw, heading 0\u00b0, Claude confidence medium)",
      "source": "AI-verified (Street View + Claude Vision \u2014 auto-pano) \u2014 was: Needs verification",
      "entrance_lat": 40.7516064,
      "entrance_lng": -73.9928867,
      "entrance_source": "OSM parking_entrance node 4599496701",
      "verified_on": "2026-04-23",
      "pano_id": "9umAs6BY_Vy9Jv9Lv20DJw",
      "pano_heading": 0
    },
    {
      "id": "nyc-port-auth",
      "name": "Port Authority Bus Terminal Garage",
      "addr": "625 8th Ave",
      "lat": 40.757,
      "lng": -73.9905,
      "height_in": 111,
      "height_label": "9'3\"",
      "oversized": false,
      "notes": "Rooftop garage above bus terminal. ~600 spaces. Clearance needs verification.\nVerified 2026-04-23 from sign reading \"CLEARANCE 9'3\"\" (pano PJDhEpNVsrYpYnHfk6JcMQ, heading 0\u00b0, Claude confidence high)",
      "source": "AI-verified (Street View + Claude Vision \u2014 auto-pano) \u2014 was: Needs verification",
      "entrance_lat": 40.7575941,
      "entrance_lng": -73.9883345,
      "entrance_source": "OSM parking_entrance node 8669764314",
      "verified_on": "2026-04-23",
      "pano_id": "PJDhEpNVsrYpYnHfk6JcMQ",
      "pano_heading": 0
    },
    {
      "id": "nyc-20166-67th",
      "name": "20166 Parking \u2014 East 67th St",
      "addr": "166 E 67th St",
      "lat": 40.7668,
      "lng": -73.9625,
      "height_in": null,
      "height_label": null,
      "oversized": true,
      "notes": "Accepts oversized vehicles per operator policy page. Clearance needs verification.",
      "source": "20166parking.com",
      "entrance_lat": 40.7669319,
      "entrance_lng": -73.9616371,
      "entrance_source": "OSM parking_entrance node 5373598784",
      "structure_type": "surface_lot"
    },
    {
      "id": "nyc-lincoln-ctr",
      "name": "Lincoln Center Parking (Kinney)",
      "addr": "60 W 66th St",
      "lat": 40.7737,
      "lng": -73.9838,
      "height_in": 93,
      "height_label": "7'9\"",
      "oversized": false,
      "notes": "Public garage serving Lincoln Center. Clearance needs verification.\nVerified 2026-04-23 from sign reading \"MAX OCCUPANCY IS 93\" (pano C0ZeNrOCgIcX9my1QwawaQ, heading 90\u00b0, Claude confidence high)",
      "source": "AI-verified (Street View + Claude Vision \u2014 auto-pano) \u2014 was: Needs verification",
      "entrance_lat": 40.7734299,
      "entrance_lng": -73.9838425,
      "entrance_source": "OSM parking_entrance node 10211295974",
      "verified_on": "2026-04-23",
      "pano_id": "C0ZeNrOCgIcX9my1QwawaQ",
      "pano_heading": 90
    },
    {
      "id": "nyc-metnorth",
      "name": "Met Museum Garage (80th/5th area)",
      "addr": "1145 5th Ave",
      "lat": 40.7793,
      "lng": -73.9623,
      "height_in": null,
      "height_label": null,
      "oversized": false,
      "notes": "Serves Metropolitan Museum area. Clearance needs verification.",
      "source": "Needs verification"
    },
    {
      "id": "nyc-battery-laz",
      "name": "LAZ \u2014 Battery Parking Garage",
      "addr": "70 Greenwich St",
      "lat": 40.7054,
      "lng": -74.0136,
      "height_in": null,
      "height_label": null,
      "oversized": false,
      "notes": "Large Financial District garage under LAZ Parking. Clearance needs verification.",
      "source": "LAZ Parking",
      "entrance_lat": 40.7036961,
      "entrance_lng": -74.0139059,
      "entrance_source": "OSM parking_entrance node 7687295648"
    },
    {
      "id": "nyc-1west",
      "name": "1 West Street Parking",
      "addr": "17 Battery Pl",
      "lat": 40.705,
      "lng": -74.0149,
      "height_in": null,
      "height_label": null,
      "oversized": false,
      "notes": "24/7 attended indoor garage. Manhattan Cruise Terminal access. Clearance needs verification.",
      "source": "parkright.com",
      "entrance_lat": 40.7036961,
      "entrance_lng": -74.0139059,
      "entrance_source": "OSM parking_entrance node 7687295648"
    },
    {
      "id": "nyc-trinity",
      "name": "Trinity Place Garage",
      "addr": "74 Trinity Pl",
      "lat": 40.7085,
      "lng": -74.0127,
      "height_in": 84,
      "height_label": "7'0\"",
      "oversized": false,
      "notes": "Downtown FiDi. Clearance needs verification.\nVerified 2026-04-23 from sign reading \"7'0\"\" (pano UX3BcguxBFsuDgv0kXGHlQ, heading 315\u00b0, Claude confidence medium)",
      "source": "AI-verified (Street View + Claude Vision \u2014 auto-pano) \u2014 was: Needs verification",
      "entrance_lat": 40.7071915,
      "entrance_lng": -74.0140577,
      "entrance_source": "OSM parking_entrance node 4149936244",
      "verified_on": "2026-04-23",
      "pano_id": "UX3BcguxBFsuDgv0kXGHlQ",
      "pano_heading": 315
    },
    {
      "id": "nyc-wtc",
      "name": "World Trade Center Parking",
      "addr": "250 Vesey St",
      "lat": 40.7128,
      "lng": -74.0125,
      "height_in": null,
      "height_label": null,
      "oversized": false,
      "notes": "Brookfield Place / WTC area. Clearance needs verification.",
      "source": "Needs verification",
      "entrance_lat": 40.7129268,
      "entrance_lng": -74.0122919,
      "entrance_source": "OSM parking_entrance node 11301575812"
    },
    {
      "id": "nyc-14th8th",
      "name": "Icon \u2014 14th and 8th Ave Garage",
      "addr": "8th Ave & W 14th St",
      "lat": 40.7398,
      "lng": -74.0019,
      "height_in": 80,
      "height_label": "6'8\"",
      "oversized": false,
      "notes": "Icon Parking. West Village access.",
      "source": "ParkMobile/Icon",
      "entrance_lat": 40.7411854,
      "entrance_lng": -74.0020296,
      "entrance_source": "OSM parking_entrance node 12357848377"
    },
    {
      "id": "nyc-proud",
      "name": "Icon \u2014 Proud Parking Garage",
      "addr": "Manhattan (location varies)",
      "lat": 40.74,
      "lng": -73.99,
      "height_in": 80,
      "height_label": "6'8\"",
      "oversized": false,
      "notes": "Icon Parking. Exact address needs verification.",
      "source": "ParkMobile/Icon",
      "entrance_lat": 40.7405215,
      "entrance_lng": -73.9888423,
      "entrance_source": "OSM parking_entrance node 10177726902"
    },
    {
      "id": "nyc-jfk-t1",
      "name": "JFK Airport \u2014 Terminal 1 Garage",
      "addr": "JFK Expy",
      "lat": 40.644,
      "lng": -73.7831,
      "height_in": 144,
      "height_label": "12'0\"",
      "oversized": false,
      "notes": "Terminal-adjacent. Standard terminal garage clearance needs verification.\nVerified 2026-04-23 from sign reading \"12'\" (pano 3Eqzt35pEdCiHGdJQCQw0Q, heading 0\u00b0, Claude confidence high)",
      "source": "AI-verified (Street View + Claude Vision \u2014 auto-pano) \u2014 was: Port Authority NY/NJ",
      "entrance_lat": 40.6452868,
      "entrance_lng": -73.7819569,
      "entrance_source": "OSM parking_entrance node 10572129960",
      "verified_on": "2026-04-23",
      "pano_id": "3Eqzt35pEdCiHGdJQCQw0Q",
      "pano_heading": 0
    },
    {
      "id": "nyc-jfk-t4",
      "name": "JFK Airport \u2014 Terminal 4 Garage",
      "addr": "JFK Expy",
      "lat": 40.642,
      "lng": -73.7822,
      "height_in": null,
      "height_label": null,
      "oversized": false,
      "notes": "Terminal-adjacent. Clearance needs verification.",
      "source": "Port Authority NY/NJ",
      "entrance_lat": 40.6428167,
      "entrance_lng": -73.7829117,
      "entrance_source": "Auto (nearest Street View pano within 300m, 2026-04-24)"
    },
    {
      "id": "nyc-jfk-economy",
      "name": "JFK \u2014 Long Term / Economy Lot",
      "addr": "Lefferts Blvd",
      "lat": 40.661,
      "lng": -73.8248,
      "height_in": null,
      "height_label": "No limit (uncovered)",
      "oversized": true,
      "notes": "Uncovered long-term lot \u2014 accommodates over-height vehicles. AirTrain connection to terminals.",
      "source": "Port Authority NY/NJ",
      "structure_type": "surface_lot"
    },
    {
      "id": "nyc-lga-centralgarage",
      "name": "LaGuardia \u2014 Central Terminal Garage",
      "addr": "Central Terminal, LGA",
      "lat": 40.7769,
      "lng": -73.874,
      "height_in": null,
      "height_label": null,
      "oversized": false,
      "notes": "Redeveloped Terminal B garage. Clearance needs verification.",
      "source": "Port Authority NY/NJ"
    },
    {
      "id": "nyc-lga-marineair",
      "name": "LaGuardia \u2014 Marine Air Terminal Lot",
      "addr": "Marine Air Terminal, LGA",
      "lat": 40.7737,
      "lng": -73.8868,
      "height_in": null,
      "height_label": "No limit (uncovered)",
      "oversized": true,
      "notes": "Surface lot. Accommodates taller vehicles.",
      "source": "Port Authority NY/NJ",
      "structure_type": "surface_lot"
    },
    {
      "id": "nyc-ewr-p1",
      "name": "Newark Liberty \u2014 P1 Terminal Garage",
      "addr": "Terminal A, EWR",
      "lat": 40.6922,
      "lng": -74.1757,
      "height_in": null,
      "height_label": null,
      "oversized": false,
      "notes": "Terminal A daily parking. Clearance needs verification.",
      "source": "newarkairport.com"
    },
    {
      "id": "nyc-ewr-p4",
      "name": "Newark Liberty \u2014 P4 Daily Garage",
      "addr": "Terminal C, EWR",
      "lat": 40.6891,
      "lng": -74.1775,
      "height_in": 138,
      "height_label": "11'6\"",
      "oversized": false,
      "notes": "11'6\" clearance, but restricted to vehicles that fit a single space \u2014 full-size vans/RVs not allowed.",
      "source": "newarkairport.com"
    },
    {
      "id": "nyc-ewr-economy",
      "name": "Newark Liberty \u2014 Economy Lot",
      "addr": "EWR Economy",
      "lat": 40.684,
      "lng": -74.1833,
      "height_in": null,
      "height_label": "No limit (uncovered)",
      "oversized": true,
      "notes": "Uncovered economy lot. Handles over-height vehicles. AirTrain to terminals.",
      "source": "newarkairport.com",
      "structure_type": "surface_lot"
    },
    {
      "id": "nyc-hy-chelsea29",
      "name": "Icon \u2014 Chelsea 29 Parking (Hudson Yards)",
      "addr": "560 W 29th St",
      "lat": 40.753,
      "lng": -74.0014,
      "height_in": null,
      "height_label": null,
      "oversized": false,
      "notes": "Hudson Yards / Javits Center area. Walk to High Line. Clearance needs verification.",
      "source": "Icon Parking",
      "entrance_lat": 40.7523037,
      "entrance_lng": -74.0017531,
      "entrance_source": "OSM parking_entrance node 11327602968"
    },
    {
      "id": "nyc-hy-jds-41st",
      "name": "Icon \u2014 JDS Parking (501 W 41st)",
      "addr": "501 W 41st St",
      "lat": 40.758,
      "lng": -74.0005,
      "height_in": null,
      "height_label": null,
      "oversized": false,
      "notes": "Between 10th & 11th Ave. Open 24/7. Near Javits, Hudson Yards, Port Authority.",
      "source": "Icon Parking",
      "entrance_lat": 40.7574007,
      "entrance_lng": -73.9982716,
      "entrance_source": "OSM parking_entrance node 8318644138"
    },
    {
      "id": "nyc-hy-mall",
      "name": "Shops at Hudson Yards Garage",
      "addr": "20 Hudson Yards",
      "lat": 40.7538,
      "lng": -74.0007,
      "height_in": 84,
      "height_label": "7'0\"",
      "oversized": false,
      "notes": "Serves The Shops at Hudson Yards, The Vessel, The Shed. Clearance needs verification.\nVerified 2026-04-23 from sign reading \"7' 0\"\" (pano Aqa650pgITArdGifGnZUgg, heading 180\u00b0, Claude confidence medium [+1 more section(s)])",
      "source": "AI-verified (Street View + Claude Vision \u2014 auto-pano) \u2014 was: Needs verification",
      "entrance_lat": 40.753999,
      "entrance_lng": -73.9987478,
      "entrance_source": "OSM parking_entrance node 11144700432",
      "verified_on": "2026-04-23",
      "pano_id": "Aqa650pgITArdGifGnZUgg",
      "pano_heading": 180,
      "sections": [
        {
          "label": "Lane 1",
          "height_in": 84,
          "height_label": "7'0\""
        },
        {
          "label": "Lane 2",
          "height_in": 120,
          "height_label": "10'0\""
        }
      ]
    },
    {
      "id": "nyc-chelsea-mkt",
      "name": "Chelsea Market Parking Area",
      "addr": "75 9th Ave",
      "lat": 40.7424,
      "lng": -74.0061,
      "height_in": 84,
      "height_label": "7'0\"",
      "oversized": false,
      "notes": "Food hall + tourist destination. Nearby garages via 9th Ave.\nVerified 2026-04-23 from sign reading \"7'0\" (pano mhQ95oR8lIsZ9g9EPKjomA, heading 180\u00b0, Claude confidence medium [+1 more section(s)])",
      "source": "AI-verified (Street View + Claude Vision \u2014 auto-pano) \u2014 was: Needs verification",
      "entrance_lat": 40.7419884,
      "entrance_lng": -74.0039469,
      "entrance_source": "OSM parking_entrance node 12357848373",
      "verified_on": "2026-04-23",
      "pano_id": "mhQ95oR8lIsZ9g9EPKjomA",
      "pano_heading": 180,
      "sections": [
        {
          "label": "Lane 1",
          "height_in": 84,
          "height_label": "7'0\""
        },
        {
          "label": "Lane 2",
          "height_in": 96,
          "height_label": "8'0\""
        }
      ]
    },
    {
      "id": "nyc-barclays-atlantic",
      "name": "GGMC \u2014 Atlantic Center Garage",
      "addr": "625 Atlantic Ave",
      "lat": 40.6838,
      "lng": -73.9779,
      "height_in": null,
      "height_label": null,
      "oversized": false,
      "notes": "Near Barclays Center, Atlantic Terminal. Oversized fee for vehicles 181\"+ long or 70\"+ high.",
      "source": "GGMC Parking"
    },
    {
      "id": "nyc-barclays-545wash",
      "name": "545 Washington Ave Garage",
      "addr": "545 Washington Ave",
      "lat": 40.6799,
      "lng": -73.9661,
      "height_in": 101,
      "height_label": "8'5\"",
      "oversized": true,
      "notes": "Near Barclays Center. 8'5\" clearance. ~$12/day oversized fee.",
      "source": "ParkWhiz"
    },
    {
      "id": "nyc-barclays-main",
      "name": "Barclays Center \u2014 Underground Garage",
      "addr": "620 Atlantic Ave",
      "lat": 40.6826,
      "lng": -73.9754,
      "height_in": 132,
      "height_label": "11'0\"",
      "oversized": false,
      "notes": "Event-only garage under Barclays Center.\nVerified 2026-04-23 from sign reading \"11'0\"\" (pano 17JjLC3HOcOM5I33iF9Zsw, heading 0\u00b0, Claude confidence medium)",
      "source": "AI-verified (Street View + Claude Vision \u2014 auto-pano) \u2014 was: barclayscenter.com",
      "entrance_lat": 40.6818344,
      "entrance_lng": -73.9745807,
      "entrance_source": "OSM parking_entrance node 13701020426",
      "verified_on": "2026-04-23",
      "pano_id": "17JjLC3HOcOM5I33iF9Zsw",
      "pano_heading": 0
    },
    {
      "id": "nyc-yankee-gerard",
      "name": "Yankee Stadium \u2014 Gerard Ave (Oversized) Lot",
      "addr": "Gerard Ave, Bronx",
      "lat": 40.8273,
      "lng": -73.9273,
      "height_in": null,
      "height_label": "No limit (uncovered)",
      "oversized": true,
      "notes": "Designated bus/van/oversized lot. Reserve via City Parking. Call 718-588-7817.",
      "source": "City Parking NYC",
      "structure_type": "surface_lot"
    },
    {
      "id": "nyc-yankee-river",
      "name": "Yankee Stadium \u2014 River Ave Garage",
      "addr": "River Ave, Bronx",
      "lat": 40.8266,
      "lng": -73.926,
      "height_in": 135,
      "height_label": "11'3\"",
      "oversized": false,
      "notes": "Standard game day garage. Clearance needs verification.\nVerified 2026-04-23 from sign reading \"11'3\" (pano F3QlJg0E6P9YT_nsdmXL1w, heading 0\u00b0, Claude confidence medium)",
      "source": "AI-verified (Street View + Claude Vision \u2014 auto-pano) \u2014 was: Needs verification",
      "verified_on": "2026-04-23",
      "pano_id": "F3QlJg0E6P9YT_nsdmXL1w",
      "pano_heading": 0
    },
    {
      "id": "nyc-citi-field-porkchop",
      "name": "Citi Field \u2014 Pork Chop Hill (Oversized)",
      "addr": "Shea Rd & 126th St",
      "lat": 40.7567,
      "lng": -73.8486,
      "height_in": null,
      "height_label": "No limit (uncovered)",
      "oversized": true,
      "notes": "Bus/Sprinter/Oversized Parking north of Citi Field. Surface lot.",
      "source": "nymets.com",
      "structure_type": "surface_lot",
      "entrance_lat": 40.7573721,
      "entrance_lng": -73.8489807,
      "entrance_source": "Auto (nearest Street View pano within 300m, 2026-04-24)"
    },
    {
      "id": "nyc-citi-field-main",
      "name": "Citi Field \u2014 General Lots",
      "addr": "41 Seaver Way",
      "lat": 40.7546,
      "lng": -73.8452,
      "height_in": null,
      "height_label": "No limit (uncovered)",
      "oversized": false,
      "notes": "Main surface lots. Game day parking.",
      "source": "Mets",
      "structure_type": "surface_lot"
    },
    {
      "id": "nyc-jacob-javits",
      "name": "Javits Center \u2014 Nearby Lots (11th Ave)",
      "addr": "429 11th Ave",
      "lat": 40.7575,
      "lng": -74.0023,
      "height_in": null,
      "height_label": null,
      "oversized": false,
      "notes": "Javits has no on-site parking \u2014 multiple off-site garages within walking distance.",
      "source": "javitscenter.com",
      "entrance_lat": 40.756995,
      "entrance_lng": -74.0042199,
      "entrance_source": "OSM parking_entrance node 8261122870"
    },
    {
      "id": "nyc-atlantic-term",
      "name": "Atlantic Terminal Mall Garage",
      "addr": "139 Flatbush Ave",
      "lat": 40.6847,
      "lng": -73.9772,
      "height_in": null,
      "height_label": null,
      "oversized": false,
      "notes": "Adjacent to Barclays + LIRR.",
      "source": "Needs verification"
    },
    {
      "id": "nyc-moynihan",
      "name": "Moynihan Train Hall / Penn West Garage",
      "addr": "421 8th Ave",
      "lat": 40.7528,
      "lng": -73.9955,
      "height_in": 120,
      "height_label": "10'0\"",
      "oversized": false,
      "notes": "New Amtrak hall west side of Penn.\nVerified 2026-04-23 from sign reading \"10'0\"\" (pano J-0Ku49Up2Kwp5G8-eRHeg, heading 0\u00b0, Claude confidence medium [+1 more section(s)])",
      "source": "AI-verified (Street View + Claude Vision \u2014 auto-pano) \u2014 was: Needs verification",
      "entrance_lat": 40.7538172,
      "entrance_lng": -73.9969471,
      "entrance_source": "OSM parking_entrance node 10089242335",
      "verified_on": "2026-04-23",
      "pano_id": "J-0Ku49Up2Kwp5G8-eRHeg",
      "pano_heading": 0,
      "sections": [
        {
          "label": "Lane 1",
          "height_in": 120,
          "height_label": "10'0\""
        },
        {
          "label": "Lane 2",
          "height_in": 132,
          "height_label": "11'0\""
        }
      ]
    },
    {
      "id": "nyc-rock-plaza",
      "name": "Rockefeller Plaza Garage",
      "addr": "30 Rockefeller Plaza",
      "lat": 40.7587,
      "lng": -73.9787,
      "height_in": null,
      "height_label": null,
      "oversized": false,
      "notes": "Under 30 Rock / Top of the Rock.",
      "source": "Needs verification"
    },
    {
      "id": "nyc-columbus-circle",
      "name": "Time Warner Center / Shops at Columbus Circle",
      "addr": "10 Columbus Cir",
      "lat": 40.7685,
      "lng": -73.9822,
      "height_in": 84,
      "height_label": "7'0\"",
      "oversized": false,
      "notes": "Under the mall \u2014 Deutsche Bank Center. Clearance needs verification.\nVerified 2026-04-23 from sign reading \"7'0\"\" (pano NaOddCT1M_9-e8pZhURCKQ, heading 180\u00b0, Claude confidence medium [+1 more section(s)])",
      "source": "AI-verified (Street View + Claude Vision \u2014 auto-pano) \u2014 was: Needs verification",
      "entrance_lat": 40.7693482,
      "entrance_lng": -73.9815382,
      "entrance_source": "OSM parking_entrance node 10187602682",
      "verified_on": "2026-04-23",
      "pano_id": "NaOddCT1M_9-e8pZhURCKQ",
      "pano_heading": 180,
      "sections": [
        {
          "label": "Lane 1",
          "height_in": 84,
          "height_label": "7'0\""
        },
        {
          "label": "parking garage",
          "height_in": 144,
          "height_label": "12'0\""
        }
      ]
    },
    {
      "id": "osm-w193904384",
      "name": "Truck parking",
      "addr": "",
      "lat": 40.769,
      "lng": -74.06579,
      "height_in": null,
      "height_label": "No limit (uncovered)",
      "oversized": true,
      "structure_type": "surface_lot",
      "notes": "Imported 2026 from OSM as an oversized-vehicle-friendly surface lot: name signals oversized use ('truck').",
      "source": "OpenStreetMap (surface lot)"
    },
    {
      "id": "osm-w204540119",
      "name": "Park and Ride",
      "addr": "",
      "lat": 40.82656,
      "lng": -74.02814,
      "height_in": null,
      "height_label": "No limit (uncovered)",
      "oversized": true,
      "structure_type": "surface_lot",
      "notes": "Imported 2026 from OSM as an oversized-vehicle-friendly surface lot: large capacity (1022 spaces). 1022 spaces. Paid parking. Operator: New Jersey Turnpike Authority.",
      "source": "OpenStreetMap (surface lot)"
    },
    {
      "id": "osm-w281218256",
      "name": "Central Parking System of New York, Inc.",
      "addr": "",
      "lat": 40.74296,
      "lng": -73.93812,
      "height_in": null,
      "height_label": "No limit (uncovered)",
      "oversized": true,
      "structure_type": "surface_lot",
      "notes": "Imported 2026 from OSM as an oversized-vehicle-friendly surface lot: large capacity (100 spaces). 100 spaces. Paid parking. Operator: SP+.",
      "source": "OpenStreetMap (surface lot)"
    },
    {
      "id": "osm-w354408901",
      "name": "Liberty Harbor RV",
      "addr": "",
      "lat": 40.71246,
      "lng": -74.04438,
      "height_in": null,
      "height_label": "No limit (uncovered)",
      "oversized": true,
      "structure_type": "surface_lot",
      "notes": "Imported 2026 from OSM as an oversized-vehicle-friendly surface lot: RV park (OSM tourism=caravan_site). 50 spaces. Paid parking. Operator: Liberty Harbor Marina.",
      "source": "OpenStreetMap (surface lot)"
    },
    {
      "id": "osm-w1075152242",
      "name": "Kinder Tower",
      "addr": "",
      "lat": 40.80869,
      "lng": -74.19135,
      "height_in": null,
      "height_label": "No limit (uncovered)",
      "oversized": true,
      "structure_type": "surface_lot",
      "notes": "Imported 2026 from OSM as an oversized-vehicle-friendly surface lot: large capacity (57 spaces). 57 spaces. Free parking. Operator: Kinder Tower.",
      "source": "OpenStreetMap (surface lot)"
    },
    {
      "id": "osm-w1289229476",
      "name": "New Milford Public Library",
      "addr": "",
      "lat": 40.91964,
      "lng": -74.02338,
      "height_in": null,
      "height_label": "No limit (uncovered)",
      "oversized": true,
      "structure_type": "surface_lot",
      "notes": "Imported 2026 from OSM as an oversized-vehicle-friendly surface lot: large capacity (78 spaces). 78 spaces. Free parking. Operator: New Milford Public Library.",
      "source": "OpenStreetMap (surface lot)"
    }
  ],
  "tunnels": [
    {
      "id": "nyc-lincoln-tunnel",
      "name": "Lincoln Tunnel",
      "addr": "Route 495 \u2014 NYC \u2194 Weehawken NJ",
      "lat": 40.7609,
      "lng": -74.0088,
      "height_in": 150,
      "height_label": "12'6\"",
      "notes": "Commercial + passenger traffic OK under height. No hazmat. Three tubes. E-ZPass.",
      "source": "Port Authority NY/NJ",
      "entrance_lat": 40.7617241,
      "entrance_lng": -74.0081459,
      "entrance_source": "Auto (nearest Street View pano within 300m, 2026-04-24)"
    },
    {
      "id": "nyc-holland-tunnel",
      "name": "Holland Tunnel",
      "addr": "I-78 \u2014 Manhattan \u2194 Jersey City NJ",
      "lat": 40.7276,
      "lng": -74.02,
      "height_in": 150,
      "height_label": "12'6\"",
      "notes": "No trucks w/ 3+ axles. No hazmat. Tighter lanes than Lincoln.",
      "source": "Port Authority NY/NJ"
    },
    {
      "id": "nyc-queens-midtown",
      "name": "Queens-Midtown Tunnel",
      "addr": "I-495 \u2014 Manhattan \u2194 Long Island City",
      "lat": 40.7435,
      "lng": -73.9671,
      "height_in": 145,
      "height_label": "12'1\"",
      "notes": "Lowest NYC tunnel. No hazmat. MTA-operated. Clearance tight for rental trucks.",
      "source": "MTA Bridges & Tunnels"
    },
    {
      "id": "nyc-hugh-carey",
      "name": "Hugh L. Carey (Brooklyn-Battery) Tunnel",
      "addr": "I-478 \u2014 Manhattan \u2194 Brooklyn",
      "lat": 40.7,
      "lng": -74.017,
      "height_in": 162,
      "height_label": "13'6\"",
      "notes": "Tallest downtown tunnel. No hazmat. MTA.",
      "source": "MTA Bridges & Tunnels",
      "entrance_lat": 40.701195,
      "entrance_lng": -74.0154339,
      "entrance_source": "Auto (nearest Street View pano within 300m, 2026-04-24)"
    },
    {
      "id": "nyc-park-ave-viaduct",
      "name": "Park Avenue Viaduct (Helmsley Bldg)",
      "addr": "Park Ave at E 46th St",
      "lat": 40.7544,
      "lng": -73.9761,
      "height_in": 120,
      "height_label": "10'0\"",
      "notes": "Bypass around Grand Central Terminal goes through Helmsley (230 Park). Box trucks scrape.",
      "source": "NYC DOT"
    }
  ],
  "bridges": [
    {
      "id": "nyc-belt-pkwy-low",
      "name": "Belt Parkway \u2014 Coney Island Overpasses",
      "addr": "Belt Pkwy @ Ocean Pkwy",
      "lat": 40.5858,
      "lng": -73.968,
      "height_in": 83,
      "height_label": "6'11\"",
      "notes": "Belt Pkwy has some of lowest parkway bridges in NYC. Trucks banned on all parkways but still caught.",
      "source": "NYC DOT"
    },
    {
      "id": "nyc-henry-hudson-low",
      "name": "Henry Hudson Parkway \u2014 Low Bridges",
      "addr": "Henry Hudson Pkwy",
      "lat": 40.814,
      "lng": -73.9466,
      "height_in": 119,
      "height_label": "9'11\"",
      "notes": "West Side parkway. Commercial vehicles prohibited. Multiple viaducts around 10'.",
      "source": "NYC DOT"
    },
    {
      "id": "nyc-fdr-low",
      "name": "FDR Drive \u2014 Low Underpasses",
      "addr": "FDR Dr @ E 71st St area",
      "lat": 40.7655,
      "lng": -73.952,
      "height_in": 108,
      "height_label": "9'0\"",
      "notes": "100% truck prohibition. Multiple on/off ramp overpasses under 10'.",
      "source": "NYC DOT"
    },
    {
      "id": "nyc-grand-central-pkwy-low",
      "name": "Grand Central Parkway \u2014 Low Bridges",
      "addr": "Grand Central Pkwy, Queens",
      "lat": 40.7533,
      "lng": -73.7895,
      "height_in": 115,
      "height_label": "9'7\"",
      "notes": "Parkway \u2014 trucks banned. Several low pedestrian/rail bridges.",
      "source": "NYC DOT"
    },
    {
      "id": "nyc-cross-bay-pkwy-low",
      "name": "Cross Bay Parkway \u2014 Low Bridges",
      "addr": "Cross Bay Blvd, Queens",
      "lat": 40.6455,
      "lng": -73.8372,
      "height_in": 118,
      "height_label": "9'10\"",
      "notes": "Rockaway access. Parkway restrictions \u2014 cars only.",
      "source": "NYC DOT"
    },
    {
      "id": "nbi-34-3822507",
      "name": "Low on-bridge clearance: 95I 95I04011007",
      "addr": "95I 95I04011007",
      "lat": 40.85175,
      "lng": -73.95199,
      "height_in": 175,
      "height_label": "14'7\"",
      "notes": "FHWA NBI; on-bridge clearance; built 1962",
      "source": "FHWA National Bridge Inventory"
    },
    {
      "id": "nbi-36-000000001055789",
      "name": "Low on-bridge clearance: RTE I678",
      "addr": "RTE I678",
      "lat": 40.73899,
      "lng": -73.83683,
      "height_in": 177,
      "height_label": "14'9\"",
      "notes": "FHWA NBI; on-bridge clearance; built 1963",
      "source": "FHWA National Bridge Inventory"
    },
    {
      "id": "nbi-36-00000000105578B",
      "name": "Low on-bridge clearance: RTE I678",
      "addr": "RTE I678",
      "lat": 40.74348,
      "lng": -73.83678,
      "height_in": 173,
      "height_label": "14'5\"",
      "notes": "FHWA NBI; on-bridge clearance; built 1963",
      "source": "FHWA National Bridge Inventory"
    },
    {
      "id": "nbi-36-000000001065507",
      "name": "Low on-bridge clearance: BROADWAY",
      "addr": "BROADWAY",
      "lat": 40.70821,
      "lng": -73.95736,
      "height_in": 174,
      "height_label": "14'6\"",
      "notes": "FHWA NBI; on-bridge clearance; built 1958",
      "source": "FHWA National Bridge Inventory"
    },
    {
      "id": "nbi-36-000000001066407",
      "name": "Low on-bridge clearance: BOSTON RD",
      "addr": "BOSTON RD",
      "lat": 40.83943,
      "lng": -73.88408,
      "height_in": 161,
      "height_label": "13'5\"",
      "notes": "FHWA NBI; on-bridge clearance; built 1958",
      "source": "FHWA National Bridge Inventory"
    },
    {
      "id": "nbi-36-000000001066529",
      "name": "Low on-bridge clearance: RTE I278",
      "addr": "RTE I278",
      "lat": 40.82892,
      "lng": -73.83716,
      "height_in": 180,
      "height_label": "15'0\"",
      "notes": "FHWA NBI; on-bridge clearance; built 1971",
      "source": "FHWA National Bridge Inventory"
    },
    {
      "id": "nbi-36-000000001067077",
      "name": "Low on-bridge clearance: WESTCHESTER AVE",
      "addr": "WESTCHESTER AVE",
      "lat": 40.82986,
      "lng": -73.87319,
      "height_in": 170,
      "height_label": "14'2\"",
      "notes": "FHWA NBI; on-bridge clearance; built 1948",
      "source": "FHWA National Bridge Inventory"
    },
    {
      "id": "nbi-36-00000000106745A",
      "name": "Low on-bridge clearance: RTE I87",
      "addr": "RTE I87",
      "lat": 40.82481,
      "lng": -73.93119,
      "height_in": 173,
      "height_label": "14'5\"",
      "notes": "FHWA NBI; on-bridge clearance; built 1976",
      "source": "FHWA National Bridge Inventory"
    },
    {
      "id": "nbi-36-000000001076311",
      "name": "Low on-bridge clearance: RTE I295",
      "addr": "RTE I295",
      "lat": 40.72636,
      "lng": -73.75699,
      "height_in": 179,
      "height_label": "14'11\"",
      "notes": "FHWA NBI; on-bridge clearance; built 1963",
      "source": "FHWA National Bridge Inventory"
    },
    {
      "id": "nbi-36-000000001076390",
      "name": "Low on-bridge clearance: RTE I878",
      "addr": "RTE I878",
      "lat": 40.6646,
      "lng": -73.82765,
      "height_in": 168,
      "height_label": "14'0\"",
      "notes": "FHWA NBI; on-bridge clearance; built 1967",
      "source": "FHWA National Bridge Inventory"
    },
    {
      "id": "nbi-36-000000001240090",
      "name": "Low on-bridge clearance: RTE 907",
      "addr": "RTE 907",
      "lat": 40.82808,
      "lng": -73.93468,
      "height_in": 174,
      "height_label": "14'6\"",
      "notes": "FHWA NBI; on-bridge clearance; built 1895",
      "source": "FHWA National Bridge Inventory"
    },
    {
      "id": "nbi-36-000000002075837",
      "name": "Low on-bridge clearance: WESTCHESTER AVE",
      "addr": "WESTCHESTER AVE",
      "lat": 40.84284,
      "lng": -73.83765,
      "height_in": 170,
      "height_label": "14'2\"",
      "notes": "FHWA NBI; on-bridge clearance; built 1940",
      "source": "FHWA National Bridge Inventory"
    },
    {
      "id": "nbi-36-000000002229290",
      "name": "Low on-bridge clearance: RTE 9",
      "addr": "RTE 9",
      "lat": 40.78553,
      "lng": -73.98399,
      "height_in": 174,
      "height_label": "14'6\"",
      "notes": "FHWA NBI; on-bridge clearance; built 1937",
      "source": "FHWA National Bridge Inventory"
    },
    {
      "id": "nbi-36-000000002230287",
      "name": "Low on-bridge clearance: JEROME AVENUE",
      "addr": "JEROME AVENUE",
      "lat": 40.87977,
      "lng": -73.88471,
      "height_in": 165,
      "height_label": "13'9\"",
      "notes": "FHWA NBI; on-bridge clearance; built 1910",
      "source": "FHWA National Bridge Inventory"
    },
    {
      "id": "nbi-36-000000002230587",
      "name": "Low on-bridge clearance: ROOSEVELT AVENUE",
      "addr": "ROOSEVELT AVENUE",
      "lat": 40.74647,
      "lng": -73.89505,
      "height_in": 169,
      "height_label": "14'1\"",
      "notes": "FHWA NBI; on-bridge clearance; built 2007",
      "source": "FHWA National Bridge Inventory"
    },
    {
      "id": "nbi-36-000000002231359",
      "name": "Low on-bridge clearance: RTE 907C",
      "addr": "RTE 907C",
      "lat": 40.58279,
      "lng": -73.9745,
      "height_in": 166,
      "height_label": "13'10\"",
      "notes": "FHWA NBI; on-bridge clearance; built 1941",
      "source": "FHWA National Bridge Inventory"
    },
    {
      "id": "nbi-36-000000002232019",
      "name": "Low on-bridge clearance: RTE 907L",
      "addr": "RTE 907L",
      "lat": 40.70315,
      "lng": -74.00774,
      "height_in": 176,
      "height_label": "14'8\"",
      "notes": "FHWA NBI; on-bridge clearance; built 1954",
      "source": "FHWA National Bridge Inventory"
    },
    {
      "id": "nbi-36-000000002232130",
      "name": "Low on-bridge clearance: EAST 91ST STREET",
      "addr": "EAST 91ST STREET",
      "lat": 40.77886,
      "lng": -73.94323,
      "height_in": 168,
      "height_label": "14'0\"",
      "notes": "FHWA NBI; on-bridge clearance; built 2019",
      "source": "FHWA National Bridge Inventory"
    },
    {
      "id": "nbi-36-000000002232158",
      "name": "Low on-bridge clearance: RTE 907L",
      "addr": "RTE 907L",
      "lat": 40.77382,
      "lng": -73.94413,
      "height_in": 152,
      "height_label": "12'8\"",
      "notes": "FHWA NBI; on-bridge clearance; built 1942",
      "source": "FHWA National Bridge Inventory"
    },
    {
      "id": "nbi-36-000000002233038",
      "name": "Low on-bridge clearance: RTE 907L",
      "addr": "RTE 907L",
      "lat": 40.76015,
      "lng": -73.95752,
      "height_in": 148,
      "height_label": "12'4\"",
      "notes": "FHWA NBI; on-bridge clearance; built 1941",
      "source": "FHWA National Bridge Inventory"
    },
    {
      "id": "nbi-36-000000002240019",
      "name": "Low on-bridge clearance: BROOKLYN BRIDGE",
      "addr": "BROOKLYN BRIDGE",
      "lat": 40.7081,
      "lng": -73.99951,
      "height_in": 144,
      "height_label": "12'0\"",
      "notes": "FHWA NBI; on-bridge clearance; built 1883",
      "source": "FHWA National Bridge Inventory"
    },
    {
      "id": "nbi-36-00000000224001B",
      "name": "Low on-bridge clearance: RTE 907L",
      "addr": "RTE 907L",
      "lat": 40.71141,
      "lng": -74.00433,
      "height_in": 170,
      "height_label": "14'2\"",
      "notes": "FHWA NBI; on-bridge clearance; built 1964",
      "source": "FHWA National Bridge Inventory"
    },
    {
      "id": "nbi-36-000000002240027",
      "name": "Low on-bridge clearance: RTE 27",
      "addr": "RTE 27",
      "lat": 40.70959,
      "lng": -73.99194,
      "height_in": 168,
      "height_label": "14'0\"",
      "notes": "FHWA NBI; on-bridge clearance; built 1909",
      "source": "FHWA National Bridge Inventory"
    },
    {
      "id": "nbi-36-000000002240039",
      "name": "Low on-bridge clearance: Williamsburg Bridg",
      "addr": "Williamsburg Bridg",
      "lat": 40.71478,
      "lng": -73.97656,
      "height_in": 168,
      "height_label": "14'0\"",
      "notes": "FHWA NBI; on-bridge clearance; built 1903",
      "source": "FHWA National Bridge Inventory"
    },
    {
      "id": "nbi-36-000000002240047",
      "name": "Low on-bridge clearance: RTE 25",
      "addr": "RTE 25",
      "lat": 40.75907,
      "lng": -73.9594,
      "height_in": 177,
      "height_label": "14'9\"",
      "notes": "FHWA NBI; on-bridge clearance; built 1909",
      "source": "FHWA National Bridge Inventory"
    },
    {
      "id": "nbi-36-00000000224004E",
      "name": "Low on-bridge clearance: RTE 25",
      "addr": "RTE 25",
      "lat": 40.75251,
      "lng": -73.94436,
      "height_in": 168,
      "height_label": "14'0\"",
      "notes": "FHWA NBI; on-bridge clearance; built 1957",
      "source": "FHWA National Bridge Inventory"
    },
    {
      "id": "nbi-36-00000000224004I",
      "name": "Low on-bridge clearance: RTE 25",
      "addr": "RTE 25",
      "lat": 40.75054,
      "lng": -73.94344,
      "height_in": 156,
      "height_label": "13'0\"",
      "notes": "FHWA NBI; on-bridge clearance; built 1957",
      "source": "FHWA National Bridge Inventory"
    },
    {
      "id": "nbi-36-000000002240137",
      "name": "Low on-bridge clearance: RTE 9",
      "addr": "RTE 9",
      "lat": 40.87392,
      "lng": -73.91059,
      "height_in": 165,
      "height_label": "13'9\"",
      "notes": "FHWA NBI; on-bridge clearance; built 1961",
      "source": "FHWA National Bridge Inventory"
    },
    {
      "id": "nbi-36-000000002240260",
      "name": "Low on-bridge clearance: CARROLL STREET",
      "addr": "CARROLL STREET",
      "lat": 40.67825,
      "lng": -73.98932,
      "height_in": 162,
      "height_label": "13'6\"",
      "notes": "FHWA NBI; on-bridge clearance; built 1889",
      "source": "FHWA National Bridge Inventory"
    },
    {
      "id": "nbi-36-000000002240390",
      "name": "Low on-bridge clearance: GRAND STREET",
      "addr": "GRAND STREET",
      "lat": 40.71658,
      "lng": -73.92234,
      "height_in": 173,
      "height_label": "14'5\"",
      "notes": "FHWA NBI; on-bridge clearance; built 1901",
      "source": "FHWA National Bridge Inventory"
    },
    {
      "id": "nbi-36-000000002240507",
      "name": "Low on-bridge clearance: ROOSEVELT AVENUE",
      "addr": "ROOSEVELT AVENUE",
      "lat": 40.75704,
      "lng": -73.83861,
      "height_in": 168,
      "height_label": "14'0\"",
      "notes": "FHWA NBI; on-bridge clearance; built 1924",
      "source": "FHWA National Bridge Inventory"
    },
    {
      "id": "nbi-36-000000002240639",
      "name": "Low on-bridge clearance: MCGUINNESS BLVD",
      "addr": "MCGUINNESS BLVD",
      "lat": 40.73889,
      "lng": -73.95264,
      "height_in": 179,
      "height_label": "14'11\"",
      "notes": "FHWA NBI; on-bridge clearance; built 1954",
      "source": "FHWA National Bridge Inventory"
    },
    {
      "id": "nbi-36-000000002240640",
      "name": "Low on-bridge clearance: ROOSEVELT IS BRDG",
      "addr": "ROOSEVELT IS BRDG",
      "lat": 40.76382,
      "lng": -73.94656,
      "height_in": 171,
      "height_label": "14'3\"",
      "notes": "FHWA NBI; on-bridge clearance; built 1955",
      "source": "FHWA National Bridge Inventory"
    },
    {
      "id": "nbi-36-000000002241000",
      "name": "Low on-bridge clearance: WESTCHESTER AVE",
      "addr": "WESTCHESTER AVE",
      "lat": 40.81614,
      "lng": -73.9129,
      "height_in": 145,
      "height_label": "12'1\"",
      "notes": "FHWA NBI; on-bridge clearance; built 1904",
      "source": "FHWA National Bridge Inventory"
    },
    {
      "id": "nbi-36-000000002241099",
      "name": "Low on-bridge clearance: BRUCKNER BLVD.",
      "addr": "BRUCKNER BLVD.",
      "lat": 40.80684,
      "lng": -73.90764,
      "height_in": 174,
      "height_label": "14'6\"",
      "notes": "FHWA NBI; on-bridge clearance; built 1909",
      "source": "FHWA National Bridge Inventory"
    },
    {
      "id": "nbi-36-000000002241129",
      "name": "Low on-bridge clearance: EAST 149TH STREET",
      "addr": "EAST 149TH STREET",
      "lat": 40.80914,
      "lng": -73.90296,
      "height_in": 177,
      "height_label": "14'9\"",
      "notes": "FHWA NBI; on-bridge clearance; built 1907",
      "source": "FHWA National Bridge Inventory"
    },
    {
      "id": "nbi-36-000000002241139",
      "name": "Low on-bridge clearance: LEGGETT AVENUE",
      "addr": "LEGGETT AVENUE",
      "lat": 40.81265,
      "lng": -73.89718,
      "height_in": 177,
      "height_label": "14'9\"",
      "notes": "FHWA NBI; on-bridge clearance; built 1906",
      "source": "FHWA National Bridge Inventory"
    },
    {
      "id": "nbi-36-000000002241329",
      "name": "Low on-bridge clearance: WHITE PLAINS ROAD",
      "addr": "WHITE PLAINS ROAD",
      "lat": 40.84161,
      "lng": -73.86473,
      "height_in": 180,
      "height_label": "15'0\"",
      "notes": "FHWA NBI; on-bridge clearance; built 1905",
      "source": "FHWA National Bridge Inventory"
    },
    {
      "id": "nbi-36-000000002243310",
      "name": "Low on-bridge clearance: SECOND AVENUE",
      "addr": "SECOND AVENUE",
      "lat": 40.64034,
      "lng": -74.02603,
      "height_in": 177,
      "height_label": "14'9\"",
      "notes": "FHWA NBI; on-bridge clearance; built 2004",
      "source": "FHWA National Bridge Inventory"
    },
    {
      "id": "nbi-36-000000002243569",
      "name": "Low on-bridge clearance: ATLANTIC AVENUE",
      "addr": "ATLANTIC AVENUE",
      "lat": 40.67587,
      "lng": -73.903,
      "height_in": 168,
      "height_label": "14'0\"",
      "notes": "FHWA NBI; on-bridge clearance; built 1942",
      "source": "FHWA National Bridge Inventory"
    },
    {
      "id": "nbi-36-000000002247310",
      "name": "Low on-bridge clearance: RTE 25",
      "addr": "RTE 25",
      "lat": 40.74834,
      "lng": -73.9367,
      "height_in": 170,
      "height_label": "14'2\"",
      "notes": "FHWA NBI; on-bridge clearance; built 1910",
      "source": "FHWA National Bridge Inventory"
    },
    {
      "id": "nbi-36-000000002261210",
      "name": "Low on-bridge clearance: BRIDGE ROAD",
      "addr": "BRIDGE ROAD",
      "lat": 40.80158,
      "lng": -73.69479,
      "height_in": 102,
      "height_label": "8'6\"",
      "notes": "FHWA NBI; on-bridge clearance; built 1898",
      "source": "FHWA National Bridge Inventory"
    },
    {
      "id": "nbi-36-000000002266160",
      "name": "Low on-bridge clearance: RTE I678",
      "addr": "RTE I678",
      "lat": 40.78957,
      "lng": -73.82253,
      "height_in": 160,
      "height_label": "13'4\"",
      "notes": "FHWA NBI; on-bridge clearance; built 1939",
      "source": "FHWA National Bridge Inventory"
    },
    {
      "id": "nbi-36-000000002266540",
      "name": "Low on-bridge clearance: RTE I278",
      "addr": "RTE I278",
      "lat": 40.80315,
      "lng": -73.91694,
      "height_in": 180,
      "height_label": "15'0\"",
      "notes": "FHWA NBI; on-bridge clearance; built 1938",
      "source": "FHWA National Bridge Inventory"
    },
    {
      "id": "nbi-36-000000002267160",
      "name": "Low on-bridge clearance: ROOSEVELT AVENUE",
      "addr": "ROOSEVELT AVENUE",
      "lat": 40.75296,
      "lng": -73.85118,
      "height_in": 167,
      "height_label": "13'11\"",
      "notes": "FHWA NBI; on-bridge clearance; built 1936",
      "source": "FHWA National Bridge Inventory"
    },
    {
      "id": "nbi-36-00000000226771B",
      "name": "Low on-bridge clearance: 79 ST RAMP TO GAR",
      "addr": "79 ST RAMP TO GAR",
      "lat": 40.78558,
      "lng": -73.98498,
      "height_in": 118,
      "height_label": "9'10\"",
      "notes": "FHWA NBI; on-bridge clearance; built 1935",
      "source": "FHWA National Bridge Inventory"
    },
    {
      "id": "nbi-36-000000002268498",
      "name": "Low on-bridge clearance: RTE I278",
      "addr": "RTE I278",
      "lat": 40.70011,
      "lng": -73.99591,
      "height_in": 174,
      "height_label": "14'6\"",
      "notes": "FHWA NBI; on-bridge clearance; built 1944",
      "source": "FHWA National Bridge Inventory"
    },
    {
      "id": "nbi-36-000000002268507",
      "name": "Low on-bridge clearance: RTE I278",
      "addr": "RTE I278",
      "lat": 40.70165,
      "lng": -73.99039,
      "height_in": 176,
      "height_label": "14'8\"",
      "notes": "FHWA NBI; on-bridge clearance; built 1944",
      "source": "FHWA National Bridge Inventory"
    },
    {
      "id": "nbi-36-000000005521209",
      "name": "Low on-bridge clearance: RTE 900",
      "addr": "RTE 900",
      "lat": 40.80092,
      "lng": -73.92909,
      "height_in": 176,
      "height_label": "14'8\"",
      "notes": "FHWA NBI; on-bridge clearance; built 1936",
      "source": "FHWA National Bridge Inventory"
    },
    {
      "id": "nbi-36-00000000552120A",
      "name": "Low on-bridge clearance: FROM HARLEM RV DR",
      "addr": "FROM HARLEM RV DR",
      "lat": 40.80089,
      "lng": -73.93007,
      "height_in": 169,
      "height_label": "14'1\"",
      "notes": "FHWA NBI; on-bridge clearance; built 1956",
      "source": "FHWA National Bridge Inventory"
    },
    {
      "id": "nbi-36-00000000552120B",
      "name": "Low on-bridge clearance: RTE 900",
      "addr": "RTE 900",
      "lat": 40.802,
      "lng": -73.93103,
      "height_in": 177,
      "height_label": "14'9\"",
      "notes": "FHWA NBI; on-bridge clearance; built 1936",
      "source": "FHWA National Bridge Inventory"
    },
    {
      "id": "nbi-36-000000005521217",
      "name": "Low on-bridge clearance: RTE I278",
      "addr": "RTE I278",
      "lat": 40.6094,
      "lng": -74.03609,
      "height_in": 178,
      "height_label": "14'10\"",
      "notes": "FHWA NBI; on-bridge clearance; built 1961",
      "source": "FHWA National Bridge Inventory"
    },
    {
      "id": "nbi-36-00000000552121A",
      "name": "Low on-bridge clearance: RTE I278",
      "addr": "RTE I278",
      "lat": 40.61081,
      "lng": -74.03194,
      "height_in": 172,
      "height_label": "14'4\"",
      "notes": "FHWA NBI; on-bridge clearance; built 1967",
      "source": "FHWA National Bridge Inventory"
    },
    {
      "id": "nbi-36-000000005521239",
      "name": "Low on-bridge clearance: RTE 900",
      "addr": "RTE 900",
      "lat": 40.59044,
      "lng": -73.81942,
      "height_in": 180,
      "height_label": "15'0\"",
      "notes": "FHWA NBI; on-bridge clearance; built 1967",
      "source": "FHWA National Bridge Inventory"
    },
    {
      "id": "nbi-36-000000005521257",
      "name": "Low on-bridge clearance: RTE 9A",
      "addr": "RTE 9A",
      "lat": 40.87818,
      "lng": -73.92151,
      "height_in": 175,
      "height_label": "14'7\"",
      "notes": "FHWA NBI; on-bridge clearance; built 1935",
      "source": "FHWA National Bridge Inventory"
    },
    {
      "id": "nbi-36-00000000552126B",
      "name": "Low on-bridge clearance: RTE I295",
      "addr": "RTE I295",
      "lat": 40.78827,
      "lng": -73.79057,
      "height_in": 175,
      "height_label": "14'7\"",
      "notes": "FHWA NBI; on-bridge clearance; built 1961",
      "source": "FHWA National Bridge Inventory"
    },
    {
      "id": "nbi-36-000000005521889",
      "name": "Low on-bridge clearance: RTE I278",
      "addr": "RTE I278",
      "lat": 40.79883,
      "lng": -73.91919,
      "height_in": 174,
      "height_label": "14'6\"",
      "notes": "FHWA NBI; on-bridge clearance; built 1936",
      "source": "FHWA National Bridge Inventory"
    },
    {
      "id": "nbi-36-000000005521910",
      "name": "Low on-bridge clearance: RTE 907C",
      "addr": "RTE 907C",
      "lat": 40.60876,
      "lng": -74.03441,
      "height_in": 174,
      "height_label": "14'6\"",
      "notes": "FHWA NBI; on-bridge clearance; built 1961",
      "source": "FHWA National Bridge Inventory"
    },
    {
      "id": "nbi-36-000000005522309",
      "name": "Low on-bridge clearance: I-495",
      "addr": "I-495",
      "lat": 40.75291,
      "lng": -73.99899,
      "height_in": 172,
      "height_label": "14'4\"",
      "notes": "FHWA NBI; on-bridge clearance; built 1956",
      "source": "FHWA National Bridge Inventory"
    },
    {
      "id": "nbi-36-000000005522410",
      "name": "Low on-bridge clearance: BUS RAMPS B97&R98",
      "addr": "BUS RAMPS B97&R98",
      "lat": 40.75787,
      "lng": -73.99427,
      "height_in": 151,
      "height_label": "12'7\"",
      "notes": "FHWA NBI; on-bridge clearance; built 1950",
      "source": "FHWA National Bridge Inventory"
    },
    {
      "id": "nbi-36-00000000552241A",
      "name": "Low on-bridge clearance: BUS RAMP E96",
      "addr": "BUS RAMP E96",
      "lat": 40.75726,
      "lng": -73.9955,
      "height_in": 157,
      "height_label": "13'1\"",
      "notes": "FHWA NBI; on-bridge clearance; built 1961",
      "source": "FHWA National Bridge Inventory"
    },
    {
      "id": "nbi-36-00000000552241B",
      "name": "Low on-bridge clearance: BUS RAMP R97",
      "addr": "BUS RAMP R97",
      "lat": 40.75747,
      "lng": -73.99332,
      "height_in": 173,
      "height_label": "14'5\"",
      "notes": "FHWA NBI; on-bridge clearance; built 1950",
      "source": "FHWA National Bridge Inventory"
    },
    {
      "id": "nbi-36-00000000552250A",
      "name": "Low on-bridge clearance: RTE I95",
      "addr": "RTE I95",
      "lat": 40.85006,
      "lng": -73.94104,
      "height_in": 171,
      "height_label": "14'3\"",
      "notes": "FHWA NBI; on-bridge clearance; built 1962",
      "source": "FHWA National Bridge Inventory"
    },
    {
      "id": "nbi-36-00000000552250B",
      "name": "Low on-bridge clearance: RTE 95",
      "addr": "RTE 95",
      "lat": 40.84964,
      "lng": -73.94294,
      "height_in": 170,
      "height_label": "14'2\"",
      "notes": "FHWA NBI; on-bridge clearance; built 1962",
      "source": "FHWA National Bridge Inventory"
    },
    {
      "id": "nbi-36-00000000552250H",
      "name": "Low on-bridge clearance: RTE 9",
      "addr": "RTE 9",
      "lat": 40.84881,
      "lng": -73.94161,
      "height_in": 174,
      "height_label": "14'6\"",
      "notes": "FHWA NBI; on-bridge clearance; built 1960",
      "source": "FHWA National Bridge Inventory"
    },
    {
      "id": "nbi-36-000000005522520",
      "name": "Low on-bridge clearance: RAMP HR 11",
      "addr": "RAMP HR 11",
      "lat": 40.8483,
      "lng": -73.94274,
      "height_in": 178,
      "height_label": "14'10\"",
      "notes": "FHWA NBI; on-bridge clearance; built 1960",
      "source": "FHWA National Bridge Inventory"
    },
    {
      "id": "nbi-36-00000000552254A",
      "name": "Low on-bridge clearance: HR12HP NB FRM GWB",
      "addr": "HR12HP NB FRM GWB",
      "lat": 40.84643,
      "lng": -73.94451,
      "height_in": 178,
      "height_label": "14'10\"",
      "notes": "FHWA NBI; on-bridge clearance; built 1960",
      "source": "FHWA National Bridge Inventory"
    },
    {
      "id": "nbi-36-000000005524260",
      "name": "Low on-bridge clearance: DEPARTURE RAMP",
      "addr": "DEPARTURE RAMP",
      "lat": 40.64182,
      "lng": -73.78927,
      "height_in": 156,
      "height_label": "13'0\"",
      "notes": "FHWA NBI; on-bridge clearance; built 1963",
      "source": "FHWA National Bridge Inventory",
      "entrance_lat": 40.6425257,
      "entrance_lng": -73.7892574,
      "entrance_source": "Auto (nearest Street View pano within 300m, 2026-04-24)"
    },
    {
      "id": "nbi-36-000000005524270",
      "name": "Low on-bridge clearance: JFK BLDG 55 DEPRT",
      "addr": "JFK BLDG 55 DEPRT",
      "lat": 40.64348,
      "lng": -73.79004,
      "height_in": 180,
      "height_label": "15'0\"",
      "notes": "FHWA NBI; on-bridge clearance; built 1998",
      "source": "FHWA National Bridge Inventory"
    },
    {
      "id": "nbi-36-000000005524290",
      "name": "Low on-bridge clearance: BLDG 59 DEPT RAMP",
      "addr": "BLDG 59 DEPT RAMP",
      "lat": 40.64854,
      "lng": -73.78203,
      "height_in": 171,
      "height_label": "14'3\"",
      "notes": "FHWA NBI; on-bridge clearance; built 1971",
      "source": "FHWA National Bridge Inventory"
    },
    {
      "id": "nbi-36-000000005524310",
      "name": "Low on-bridge clearance: VICTCW OVERPASS",
      "addr": "VICTCW OVERPASS",
      "lat": 40.64456,
      "lng": -73.78842,
      "height_in": 173,
      "height_label": "14'5\"",
      "notes": "FHWA NBI; on-bridge clearance; built 2002",
      "source": "FHWA National Bridge Inventory"
    },
    {
      "id": "nbi-36-000000005525151",
      "name": "Low on-bridge clearance: ROADWAY FROM TERMI",
      "addr": "ROADWAY FROM TERMI",
      "lat": 40.77301,
      "lng": -73.87213,
      "height_in": 172,
      "height_label": "14'4\"",
      "notes": "FHWA NBI; on-bridge clearance; built 2020",
      "source": "FHWA National Bridge Inventory"
    },
    {
      "id": "nbi-36-000000005525163",
      "name": "Low on-bridge clearance: TERMINAL B ARRIVAL",
      "addr": "TERMINAL B ARRIVAL",
      "lat": 40.77269,
      "lng": -73.87014,
      "height_in": 176,
      "height_label": "14'8\"",
      "notes": "FHWA NBI; on-bridge clearance; built 2019",
      "source": "FHWA National Bridge Inventory"
    },
    {
      "id": "nbi-36-000000005525192",
      "name": "Low on-bridge clearance: ROADWAY TO TERMINA",
      "addr": "ROADWAY TO TERMINA",
      "lat": 40.77079,
      "lng": -73.86715,
      "height_in": 176,
      "height_label": "14'8\"",
      "notes": "FHWA NBI; on-bridge clearance; built 2020",
      "source": "FHWA National Bridge Inventory"
    },
    {
      "id": "nbi-36-000000005525250",
      "name": "Low on-bridge clearance: TAXI ROAD",
      "addr": "TAXI ROAD",
      "lat": 40.77221,
      "lng": -73.86874,
      "height_in": 176,
      "height_label": "14'8\"",
      "notes": "FHWA NBI; on-bridge clearance; built 2020",
      "source": "FHWA National Bridge Inventory"
    }
  ]
}
