{
  "garages": [
    {
      "id": "oak-oakland-coliseum",
      "name": "Oakland Coliseum Lots",
      "addr": "7000 Coliseum Way",
      "lat": 37.7516,
      "lng": -122.2006,
      "height_in": null,
      "height_label": "No limit (uncovered)",
      "oversized": true,
      "notes": "Shared by former A's + Raiders venue. Surface lots.",
      "source": "Needs verification"
    },
    {
      "id": "oak-jack-london",
      "name": "Jack London Square Garage",
      "addr": "55 Harrison St",
      "lat": 37.794,
      "lng": -122.2763,
      "height_in": null,
      "height_label": null,
      "oversized": false,
      "notes": "Waterfront district.",
      "source": "jacklondonsquare.com"
    },
    {
      "id": "oak-ferry-building",
      "name": "Jack London Ferry Terminal Lot",
      "addr": "10 Clay St",
      "lat": 37.7946,
      "lng": -122.2778,
      "height_in": null,
      "height_label": "No limit (uncovered)",
      "oversized": true,
      "notes": "Ferry terminal surface lot.",
      "source": "sanfranciscobayferry.com"
    },
    {
      "id": "oak-city-center",
      "name": "City Center Garage",
      "addr": "1250 Broadway",
      "lat": 37.8041,
      "lng": -122.2709,
      "height_in": null,
      "height_label": null,
      "oversized": false,
      "notes": "Downtown Oakland.",
      "source": "Needs verification"
    },
    {
      "id": "oak-rotunda",
      "name": "Rotunda Building Garage",
      "addr": "300 Frank H Ogawa Plaza",
      "lat": 37.8051,
      "lng": -122.2717,
      "height_in": null,
      "height_label": null,
      "oversized": false,
      "notes": "City Hall adjacent.",
      "source": "Needs verification"
    },
    {
      "id": "oak-lake-merritt",
      "name": "Lake Merritt Street Lots",
      "addr": "1520 Lakeside Dr",
      "lat": 37.8065,
      "lng": -122.2606,
      "height_in": null,
      "height_label": "No limit (uncovered)",
      "oversized": false,
      "notes": "Lake Merritt perimeter street + lots.",
      "source": "Needs verification"
    },
    {
      "id": "oak-airport-garage",
      "name": "OAK Airport \u2014 Daily Garage",
      "addr": "1 Airport Dr",
      "lat": 37.7213,
      "lng": -122.2213,
      "height_in": null,
      "height_label": null,
      "oversized": false,
      "notes": "Terminal-adjacent.",
      "source": "oaklandairport.com"
    },
    {
      "id": "oak-airport-econ",
      "name": "OAK \u2014 Economy Lot",
      "addr": "1 Airport Dr",
      "lat": 37.718,
      "lng": -122.22,
      "height_in": null,
      "height_label": "No limit (uncovered)",
      "oversized": true,
      "notes": "Uncovered. Oversized OK.",
      "source": "oaklandairport.com"
    },
    {
      "id": "oak-chinatown",
      "name": "Oakland Chinatown Lots",
      "addr": "900 Webster St",
      "lat": 37.799,
      "lng": -122.2717,
      "height_in": null,
      "height_label": null,
      "oversized": false,
      "notes": "Chinatown parking garage/street.",
      "source": "Needs verification"
    },
    {
      "id": "oak-temescal",
      "name": "Temescal District Lots",
      "addr": "5100 Telegraph Ave",
      "lat": 37.8357,
      "lng": -122.2635,
      "height_in": null,
      "height_label": "No limit (uncovered)",
      "oversized": false,
      "notes": "Restaurant/shopping district.",
      "source": "Needs verification"
    },
    {
      "id": "oak-paramount",
      "name": "Paramount Theatre Lot",
      "addr": "2025 Broadway",
      "lat": 37.8099,
      "lng": -122.2689,
      "height_in": null,
      "height_label": null,
      "oversized": false,
      "notes": "Historic Art Deco theater.",
      "source": "paramounttheatre.com"
    },
    {
      "id": "oak-montclair",
      "name": "Montclair Village Lots",
      "addr": "1986 Mountain Blvd",
      "lat": 37.8279,
      "lng": -122.2083,
      "height_in": null,
      "height_label": "No limit (uncovered)",
      "oversized": false,
      "notes": "Hills neighborhood shopping.",
      "source": "Needs verification"
    },
    {
      "id": "oak-redwood-regional",
      "name": "Redwood Regional Park Lots",
      "addr": "7867 Redwood Rd",
      "lat": 37.7907,
      "lng": -122.1529,
      "height_in": null,
      "height_label": "No limit (uncovered)",
      "oversized": true,
      "notes": "EB Regional Parks district.",
      "source": "ebparks.org"
    },
    {
      "id": "oak-fox-theater",
      "name": "Fox Theater Garage",
      "addr": "1807 Telegraph Ave",
      "lat": 37.8087,
      "lng": -122.2705,
      "height_in": null,
      "height_label": null,
      "oversized": false,
      "notes": "Historic concert venue.",
      "source": "thefoxoakland.com"
    },
    {
      "id": "oak-uptown-dist",
      "name": "Uptown District Lots",
      "addr": "1875 Broadway",
      "lat": 37.8078,
      "lng": -122.2704,
      "height_in": null,
      "height_label": null,
      "oversized": false,
      "notes": "Uptown Oakland district.",
      "source": "Needs verification"
    },
    {
      "id": "oak-kaiser-arena",
      "name": "Kaiser Convention Center / Calvin Simmons Theatre",
      "addr": "10 10th St",
      "lat": 37.8007,
      "lng": -122.2585,
      "height_in": null,
      "height_label": null,
      "oversized": false,
      "notes": "Historic 1914 arena reopening as Oakland Arena.",
      "source": "Needs verification"
    },
    {
      "id": "oak-emeryville-public-market",
      "name": "Emeryville Public Market / Bay Street",
      "addr": "5959 Shellmound St, Emeryville",
      "lat": 37.8389,
      "lng": -122.2935,
      "height_in": null,
      "height_label": null,
      "oversized": false,
      "notes": "Open-air retail + food hall. Emeryville adjacent.",
      "source": "baystreetemeryville.com"
    },
    {
      "id": "oak-oakland-chinatown-lot",
      "name": "Oakland Chinatown \u2014 Pacific Renaissance Plaza",
      "addr": "388 9th St",
      "lat": 37.798,
      "lng": -122.2698,
      "height_in": null,
      "height_label": null,
      "oversized": false,
      "notes": "Chinatown public garage.",
      "source": "Needs verification"
    },
    {
      "id": "oak-children-museum-habitot",
      "name": "Children's Fairyland Lot (Lake Merritt)",
      "addr": "699 Bellevue Ave",
      "lat": 37.8115,
      "lng": -122.2625,
      "height_in": null,
      "height_label": "No limit (uncovered)",
      "oversized": true,
      "notes": "Iconic park-side kids attraction.",
      "source": "fairyland.org"
    },
    {
      "id": "oak-museum-of-california",
      "name": "Oakland Museum of California (OMCA)",
      "addr": "1000 Oak St",
      "lat": 37.7961,
      "lng": -122.2638,
      "height_in": null,
      "height_label": null,
      "oversized": false,
      "notes": "Museum underground garage.",
      "source": "museumca.org"
    },
    {
      "id": "oak-preservation-park",
      "name": "Preservation Park",
      "addr": "1233 Preservation Park Way",
      "lat": 37.8052,
      "lng": -122.273,
      "height_in": null,
      "height_label": "No limit (uncovered)",
      "oversized": false,
      "notes": "Victorian-era preserved park.",
      "source": "preservationpark.com"
    },
    {
      "id": "oak-mills-college",
      "name": "Mills College at Northeastern University",
      "addr": "5000 MacArthur Blvd",
      "lat": 37.7806,
      "lng": -122.1838,
      "height_in": null,
      "height_label": "No limit (uncovered)",
      "oversized": false,
      "notes": "Campus visitor parking.",
      "source": "northeastern.edu"
    },
    {
      "id": "oak-redwood-heights",
      "name": "Redwood Heights Lots (Trestle Glen/Piedmont)",
      "addr": "Skyline Blvd",
      "lat": 37.8055,
      "lng": -122.162,
      "height_in": null,
      "height_label": "No limit (uncovered)",
      "oversized": false,
      "notes": "Hills neighborhood parking.",
      "source": "Needs verification"
    },
    {
      "id": "oak-bay-wildlife",
      "name": "Martin Luther King Jr Regional Shoreline",
      "addr": "Edgewater Dr",
      "lat": 37.7405,
      "lng": -122.2072,
      "height_in": null,
      "height_label": "No limit (uncovered)",
      "oversized": true,
      "notes": "EB Regional Parks shoreline.",
      "source": "ebparks.org"
    },
    {
      "id": "oak-coliseum-bart",
      "name": "Coliseum BART Station Lot",
      "addr": "7200 San Leandro St",
      "lat": 37.7534,
      "lng": -122.1971,
      "height_in": null,
      "height_label": "No limit (uncovered)",
      "oversized": false,
      "notes": "BART park-and-ride.",
      "source": "bart.gov"
    },
    {
      "id": "oak-rockridge",
      "name": "Rockridge District Lots (BART)",
      "addr": "5660 College Ave",
      "lat": 37.8445,
      "lng": -122.2514,
      "height_in": null,
      "height_label": null,
      "oversized": false,
      "notes": "BART station + shopping.",
      "source": "bart.gov"
    }
  ],
  "tunnels": [
    {
      "id": "oak-caldecott",
      "name": "Caldecott Tunnel (SR-24)",
      "addr": "SR-24 under Berkeley Hills",
      "lat": 37.8544,
      "lng": -122.2232,
      "height_in": 180,
      "height_label": "15'0\"",
      "notes": "4 bores connecting Oakland to Orinda/Lamorinda. Hazmat restricted.",
      "source": "Caltrans"
    },
    {
      "id": "oak-webster-posey",
      "name": "Webster/Posey Tubes (CA-260)",
      "addr": "Under Oakland Estuary to Alameda",
      "lat": 37.787,
      "lng": -122.2771,
      "height_in": 162,
      "height_label": "13'6\"",
      "notes": "Twin tubes to Alameda Island. One-way each. No hazmat.",
      "source": "Caltrans"
    },
    {
      "id": "osm-w8921175",
      "name": "Broadway",
      "addr": "Broadway",
      "lat": 37.79684,
      "lng": -122.41457,
      "height_in": 162,
      "height_label": "13'6\"",
      "notes": "layer -1; 2 lanes",
      "source": "OpenStreetMap"
    },
    {
      "id": "osm-w9898614",
      "name": "Caldecott Tunnel",
      "addr": "CA 24",
      "lat": 37.85815,
      "lng": -122.21336,
      "height_in": 174,
      "height_label": "14'6\"",
      "notes": "layer -1; 2 lanes",
      "source": "OpenStreetMap"
    },
    {
      "id": "osm-w11415208",
      "name": "Dwight D. Eisenhower Highway",
      "addr": "I 80",
      "lat": 37.80957,
      "lng": -122.3657,
      "height_in": 168,
      "height_label": "14'0\"",
      "notes": "layer -1; 5 lanes",
      "source": "OpenStreetMap"
    },
    {
      "id": "osm-w20742033",
      "name": "CA 77",
      "addr": "CA 77",
      "lat": 37.77022,
      "lng": -122.22022,
      "height_in": 183,
      "height_label": "15'3\"",
      "notes": "layer -1; 2 lanes",
      "source": "OpenStreetMap"
    },
    {
      "id": "osm-w22272045",
      "name": "Posey Tube",
      "addr": "CA 61",
      "lat": 37.79187,
      "lng": -122.27419,
      "height_in": 176,
      "height_label": "14'8\"",
      "notes": "layer -1; 2 lanes",
      "source": "OpenStreetMap"
    },
    {
      "id": "osm-w25966237",
      "name": "Webster Street Tube",
      "addr": "CA 61",
      "lat": 37.79239,
      "lng": -122.27576,
      "height_in": 178,
      "height_label": "14'10\"",
      "notes": "layer -1; 2 lanes",
      "source": "OpenStreetMap"
    },
    {
      "id": "osm-w27420337",
      "name": "Dornan Drive",
      "addr": "Dornan Drive",
      "lat": 37.92219,
      "lng": -122.38503,
      "height_in": 156,
      "height_label": "13'0\"",
      "notes": "layer -1",
      "source": "OpenStreetMap"
    },
    {
      "id": "osm-w50982113",
      "name": "San Leandro Street",
      "addr": "San Leandro Street",
      "lat": 37.7357,
      "lng": -122.17523,
      "height_in": 162,
      "height_label": "13'6\"",
      "notes": "layer -1; 2 lanes",
      "source": "OpenStreetMap"
    },
    {
      "id": "osm-w417099350",
      "name": "Stockton Tunnel",
      "addr": "Stockton Tunnel",
      "lat": 37.79152,
      "lng": -122.4074,
      "height_in": 156,
      "height_label": "13'0\"",
      "notes": "layer -2; 2 lanes",
      "source": "OpenStreetMap"
    },
    {
      "id": "osm-w570334400",
      "name": "Tunnel (service)",
      "addr": "",
      "lat": 37.87119,
      "lng": -122.27322,
      "height_in": 189,
      "height_label": "15'9\"",
      "notes": "Imported from OpenStreetMap.",
      "source": "OpenStreetMap"
    },
    {
      "id": "osm-w582034693",
      "name": "Washington Street",
      "addr": "Washington Street",
      "lat": 37.79966,
      "lng": -122.27565,
      "height_in": 168,
      "height_label": "14'0\"",
      "notes": "Imported from OpenStreetMap.",
      "source": "OpenStreetMap"
    },
    {
      "id": "osm-w591682875",
      "name": "Tunnel (service)",
      "addr": "",
      "lat": 37.80999,
      "lng": -122.24423,
      "height_in": 80,
      "height_label": "6'8\"",
      "notes": "Imported from OpenStreetMap.",
      "source": "OpenStreetMap"
    },
    {
      "id": "osm-w609327173",
      "name": "Tunnel (service)",
      "addr": "",
      "lat": 37.85082,
      "lng": -122.25222,
      "height_in": 120,
      "height_label": "10'0\"",
      "notes": "layer -1",
      "source": "OpenStreetMap"
    },
    {
      "id": "osm-w663697663",
      "name": "Tunnel (service)",
      "addr": "",
      "lat": 37.89809,
      "lng": -122.32278,
      "height_in": 162,
      "height_label": "13'6\"",
      "notes": "Imported from OpenStreetMap.",
      "source": "OpenStreetMap"
    },
    {
      "id": "osm-w685038694",
      "name": "Tunnel (service)",
      "addr": "",
      "lat": 37.85517,
      "lng": -122.25787,
      "height_in": 84,
      "height_label": "7'0\"",
      "notes": "Imported from OpenStreetMap.",
      "source": "OpenStreetMap"
    },
    {
      "id": "osm-w782809091",
      "name": "Caldecott Tunnel",
      "addr": "CA 24",
      "lat": 37.85833,
      "lng": -122.21457,
      "height_in": 186,
      "height_label": "15'6\"",
      "notes": "layer -1; 2 lanes",
      "source": "OpenStreetMap"
    },
    {
      "id": "osm-w1043563112",
      "name": "Tunnel (service)",
      "addr": "",
      "lat": 37.81645,
      "lng": -122.26631,
      "height_in": 110,
      "height_label": "9'2\"",
      "notes": "Imported from OpenStreetMap.",
      "source": "OpenStreetMap"
    },
    {
      "id": "osm-w1195562600",
      "name": "Tunnel (service)",
      "addr": "",
      "lat": 37.85041,
      "lng": -122.2607,
      "height_in": 137,
      "height_label": "11'5\"",
      "notes": "Imported from OpenStreetMap.",
      "source": "OpenStreetMap"
    },
    {
      "id": "osm-w1292481749",
      "name": "Tunnel (service)",
      "addr": "",
      "lat": 37.79095,
      "lng": -122.27739,
      "height_in": 108,
      "height_label": "9'0\"",
      "notes": "Imported from OpenStreetMap.",
      "source": "OpenStreetMap"
    }
  ],
  "bridges": [
    {
      "id": "oak-bay-bridge-east",
      "name": "Bay Bridge \u2014 Eastern Span (I-80)",
      "addr": "I-80 Oakland \u2192 SF",
      "lat": 37.8219,
      "lng": -122.3263,
      "height_in": null,
      "height_label": "Over water",
      "notes": "Self-anchored suspension. High clearance.",
      "source": "Caltrans"
    },
    {
      "id": "nbi-06-280164Y",
      "name": "Low on-bridge clearance: WILLOW PASS ROAD",
      "addr": "WILLOW PASS ROAD",
      "lat": 37.97077,
      "lng": -122.04753,
      "height_in": 180,
      "height_label": "15'0\"",
      "notes": "FHWA NBI; on-bridge clearance; built 1963",
      "source": "FHWA National Bridge Inventory"
    },
    {
      "id": "nbi-06-330061L",
      "name": "Low on-bridge clearance: E&W80-E580 CONNCTR",
      "addr": "E&W80-E580 CONNCTR",
      "lat": 37.827,
      "lng": -122.28446,
      "height_in": 177,
      "height_label": "14'9\"",
      "notes": "FHWA NBI; on-bridge clearance; built 1955",
      "source": "FHWA National Bridge Inventory"
    },
    {
      "id": "nbi-06-330288",
      "name": "Low on-bridge clearance: ROUTE 580",
      "addr": "ROUTE 580",
      "lat": 37.81897,
      "lng": -122.25341,
      "height_in": 179,
      "height_label": "14'11\"",
      "notes": "FHWA NBI; on-bridge clearance; built 1961",
      "source": "FHWA National Bridge Inventory"
    },
    {
      "id": "nbi-06-330304G",
      "name": "Low on-bridge clearance: E980-580 CONNECTOR",
      "addr": "E980-580 CONNECTOR",
      "lat": 37.8251,
      "lng": -122.27081,
      "height_in": 178,
      "height_label": "14'10\"",
      "notes": "FHWA NBI; on-bridge clearance; built 1970",
      "source": "FHWA National Bridge Inventory"
    },
    {
      "id": "nbi-06-330305F",
      "name": "Low on-bridge clearance: W24-E&W580 CONNCTR",
      "addr": "W24-E&W580 CONNCTR",
      "lat": 37.82556,
      "lng": -122.27241,
      "height_in": 178,
      "height_label": "14'10\"",
      "notes": "FHWA NBI; on-bridge clearance; built 1970",
      "source": "FHWA National Bridge Inventory"
    },
    {
      "id": "nbi-06-33C0026",
      "name": "Low on-bridge clearance: HIGH ST",
      "addr": "HIGH ST",
      "lat": 37.76401,
      "lng": -122.22548,
      "height_in": 173,
      "height_label": "14'5\"",
      "notes": "FHWA NBI; on-bridge clearance; built 1939",
      "source": "FHWA National Bridge Inventory"
    },
    {
      "id": "nbi-06-33C0027",
      "name": "Low on-bridge clearance: PARK ST",
      "addr": "PARK ST",
      "lat": 37.77116,
      "lng": -122.23687,
      "height_in": 162,
      "height_label": "13'6\"",
      "notes": "FHWA NBI; on-bridge clearance; built 1934",
      "source": "FHWA National Bridge Inventory"
    },
    {
      "id": "nbi-06-33C0183",
      "name": "Low on-bridge clearance: POWELL ST",
      "addr": "POWELL ST",
      "lat": 37.83884,
      "lng": -122.29217,
      "height_in": 167,
      "height_label": "13'11\"",
      "notes": "FHWA NBI; on-bridge clearance; built 1968",
      "source": "FHWA National Bridge Inventory"
    },
    {
      "id": "osm-w6322040",
      "name": "Low clearance underpass (motorway link)",
      "addr": "",
      "lat": 37.81196,
      "lng": -122.25029,
      "height_in": 184,
      "height_label": "15'4\"",
      "notes": "Underpass / low clearance",
      "source": "OpenStreetMap"
    },
    {
      "id": "osm-w6324438",
      "name": "Low clearance underpass (motorway link)",
      "addr": "",
      "lat": 37.80567,
      "lng": -122.23649,
      "height_in": 182,
      "height_label": "15'2\"",
      "notes": "Underpass / low clearance",
      "source": "OpenStreetMap"
    },
    {
      "id": "osm-w6395492",
      "name": "Low clearance \u2014 Mountain Boulevard",
      "addr": "Mountain Boulevard",
      "lat": 37.7836,
      "lng": -122.17665,
      "height_in": 180,
      "height_label": "15'0\"",
      "notes": "Underpass / low clearance",
      "source": "OpenStreetMap"
    },
    {
      "id": "osm-w8915265",
      "name": "Low clearance underpass (primary link)",
      "addr": "",
      "lat": 37.71964,
      "lng": -122.39826,
      "height_in": 184,
      "height_label": "15'4\"",
      "notes": "Underpass / low clearance",
      "source": "OpenStreetMap"
    },
    {
      "id": "osm-w8921938",
      "name": "Low clearance \u2014 Dwight D. Eisenhower Highway (I 80)",
      "addr": "I 80",
      "lat": 37.79714,
      "lng": -122.37901,
      "height_in": 197,
      "height_label": "16'5\"",
      "notes": "Underpass / low clearance; Under: San Francisco\u2013Oakland Bay Bridge",
      "source": "OpenStreetMap"
    },
    {
      "id": "osm-w9574596",
      "name": "Low clearance underpass (motorway link)",
      "addr": "",
      "lat": 37.86699,
      "lng": -122.30328,
      "height_in": 182,
      "height_label": "15'2\"",
      "notes": "Underpass / low clearance",
      "source": "OpenStreetMap"
    },
    {
      "id": "osm-w10626121",
      "name": "Low clearance \u2014 Golden Gate Avenue",
      "addr": "Golden Gate Avenue",
      "lat": 37.8498,
      "lng": -122.23988,
      "height_in": 155,
      "height_label": "12'11\"",
      "notes": "Underpass / low clearance",
      "source": "OpenStreetMap"
    },
    {
      "id": "osm-w10712862",
      "name": "Low clearance underpass (motorway link)",
      "addr": "",
      "lat": 37.83793,
      "lng": -122.26534,
      "height_in": 179,
      "height_label": "14'11\"",
      "notes": "Underpass / low clearance",
      "source": "OpenStreetMap"
    },
    {
      "id": "osm-w10713766",
      "name": "Low clearance \u2014 30th Street",
      "addr": "30th Street",
      "lat": 37.81977,
      "lng": -122.27181,
      "height_in": 175,
      "height_label": "14'7\"",
      "notes": "Underpass / low clearance",
      "source": "OpenStreetMap"
    },
    {
      "id": "osm-w10718719",
      "name": "Low clearance underpass (motorway link)",
      "addr": "",
      "lat": 37.82446,
      "lng": -122.27046,
      "height_in": 178,
      "height_label": "14'10\"",
      "notes": "Underpass / low clearance",
      "source": "OpenStreetMap"
    },
    {
      "id": "osm-w10718882",
      "name": "Low clearance \u2014 34th Street",
      "addr": "34th Street",
      "lat": 37.82271,
      "lng": -122.26726,
      "height_in": 178,
      "height_label": "14'10\"",
      "notes": "Underpass / low clearance",
      "source": "OpenStreetMap"
    },
    {
      "id": "osm-w22920753",
      "name": "Low clearance \u2014 San Pablo Avenue",
      "addr": "San Pablo Avenue",
      "lat": 37.81214,
      "lng": -122.27387,
      "height_in": 176,
      "height_label": "14'8\"",
      "notes": "Underpass / low clearance",
      "source": "OpenStreetMap"
    },
    {
      "id": "osm-w23874736",
      "name": "Low clearance \u2014 Dwight D. Eisenhower Highway (I 80)",
      "addr": "I 80",
      "lat": 37.80853,
      "lng": -122.36681,
      "height_in": 197,
      "height_label": "16'5\"",
      "notes": "Underpass / low clearance; Under: San Francisco\u2013Oakland Bay Bridge",
      "source": "OpenStreetMap"
    },
    {
      "id": "osm-w25967099",
      "name": "Low clearance \u2014 Broadway",
      "addr": "Broadway",
      "lat": 37.79844,
      "lng": -122.27481,
      "height_in": 176,
      "height_label": "14'8\"",
      "notes": "Underpass / low clearance",
      "source": "OpenStreetMap"
    },
    {
      "id": "osm-w26779600",
      "name": "Low clearance underpass (motorway link)",
      "addr": "",
      "lat": 37.77876,
      "lng": -122.40024,
      "height_in": 171,
      "height_label": "14'3\"",
      "notes": "Underpass / low clearance",
      "source": "OpenStreetMap"
    },
    {
      "id": "osm-w27630854",
      "name": "Low clearance \u2014 Bacon Street",
      "addr": "Bacon Street",
      "lat": 37.72781,
      "lng": -122.40291,
      "height_in": 180,
      "height_label": "15'0\"",
      "notes": "Underpass / low clearance",
      "source": "OpenStreetMap"
    },
    {
      "id": "osm-w33783051",
      "name": "Low clearance \u2014 Paul Avenue",
      "addr": "Paul Avenue",
      "lat": 37.72377,
      "lng": -122.40143,
      "height_in": 177,
      "height_label": "14'9\"",
      "notes": "Underpass / low clearance",
      "source": "OpenStreetMap"
    },
    {
      "id": "osm-w36744838",
      "name": "Low clearance \u2014 Harrison Street",
      "addr": "Harrison Street",
      "lat": 37.81936,
      "lng": -122.25474,
      "height_in": 180,
      "height_label": "15'0\"",
      "notes": "Underpass / low clearance",
      "source": "OpenStreetMap"
    },
    {
      "id": "osm-w50690291",
      "name": "Low clearance \u2014 Dwight D. Eisenhower Highway (I 80)",
      "addr": "I 80",
      "lat": 37.78625,
      "lng": -122.39064,
      "height_in": 197,
      "height_label": "16'5\"",
      "notes": "Underpass / low clearance; Under: San Francisco\u2013Oakland Bay Bridge",
      "source": "OpenStreetMap"
    },
    {
      "id": "osm-w50982116",
      "name": "Low clearance \u2014 San Leandro Street",
      "addr": "San Leandro Street",
      "lat": 37.73464,
      "lng": -122.17368,
      "height_in": 162,
      "height_label": "13'6\"",
      "notes": "Underpass / low clearance",
      "source": "OpenStreetMap"
    },
    {
      "id": "osm-w57070303",
      "name": "Low clearance \u2014 MacArthur Freeway (I 580)",
      "addr": "I 580",
      "lat": 37.79763,
      "lng": -122.2139,
      "height_in": 184,
      "height_label": "15'4\"",
      "notes": "Underpass / low clearance",
      "source": "OpenStreetMap"
    },
    {
      "id": "osm-w105429999",
      "name": "Low clearance \u2014 Golden Gate Avenue",
      "addr": "Golden Gate Avenue",
      "lat": 37.85092,
      "lng": -122.23993,
      "height_in": 155,
      "height_label": "12'11\"",
      "notes": "Underpass / low clearance",
      "source": "OpenStreetMap"
    },
    {
      "id": "osm-w107418594",
      "name": "Low clearance \u2014 Washington Street",
      "addr": "Washington Street",
      "lat": 37.79896,
      "lng": -122.27608,
      "height_in": 181,
      "height_label": "15'1\"",
      "notes": "Underpass / low clearance",
      "source": "OpenStreetMap"
    },
    {
      "id": "osm-w107674371",
      "name": "Low clearance \u2014 4th Street",
      "addr": "4th Street",
      "lat": 37.78059,
      "lng": -122.39934,
      "height_in": 150,
      "height_label": "12'6\"",
      "notes": "Underpass / low clearance",
      "source": "OpenStreetMap"
    },
    {
      "id": "osm-w118422335",
      "name": "Low clearance \u2014 Fruitvale Avenue",
      "addr": "Fruitvale Avenue",
      "lat": 37.79833,
      "lng": -122.21709,
      "height_in": 182,
      "height_label": "15'2\"",
      "notes": "Underpass / low clearance",
      "source": "OpenStreetMap"
    },
    {
      "id": "osm-w125343955",
      "name": "Low clearance \u2014 Cutting Boulevard (CA 123)",
      "addr": "CA 123",
      "lat": 37.92541,
      "lng": -122.32116,
      "height_in": 185,
      "height_label": "15'5\"",
      "notes": "Underpass / low clearance",
      "source": "OpenStreetMap"
    },
    {
      "id": "osm-w125343975",
      "name": "Low clearance \u2014 San Pablo Avenue",
      "addr": "San Pablo Avenue",
      "lat": 37.82668,
      "lng": -122.2784,
      "height_in": 181,
      "height_label": "15'1\"",
      "notes": "Underpass / low clearance",
      "source": "OpenStreetMap"
    },
    {
      "id": "osm-w146999459",
      "name": "Low clearance \u2014 CA 13",
      "addr": "CA 13",
      "lat": 37.84938,
      "lng": -122.2951,
      "height_in": 181,
      "height_label": "15'1\"",
      "notes": "Underpass / low clearance",
      "source": "OpenStreetMap"
    },
    {
      "id": "osm-w183343384",
      "name": "Low clearance \u2014 Webster Street (CA 61)",
      "addr": "CA 61",
      "lat": 37.79729,
      "lng": -122.27278,
      "height_in": 175,
      "height_label": "14'7\"",
      "notes": "Underpass / low clearance",
      "source": "OpenStreetMap"
    },
    {
      "id": "osm-w184792839",
      "name": "Low clearance \u2014 Webster Street (CA 61)",
      "addr": "CA 61",
      "lat": 37.78479,
      "lng": -122.27656,
      "height_in": 176,
      "height_label": "14'8\"",
      "notes": "Underpass / low clearance",
      "source": "OpenStreetMap"
    },
    {
      "id": "osm-w202024214",
      "name": "Low clearance \u2014 Park Boulevard",
      "addr": "Park Boulevard",
      "lat": 37.80428,
      "lng": -122.2334,
      "height_in": 182,
      "height_label": "15'2\"",
      "notes": "Underpass / low clearance",
      "source": "OpenStreetMap"
    },
    {
      "id": "osm-w202024223",
      "name": "Low clearance \u2014 14th Avenue",
      "addr": "14th Avenue",
      "lat": 37.80056,
      "lng": -122.22677,
      "height_in": 179,
      "height_label": "14'11\"",
      "notes": "Underpass / low clearance",
      "source": "OpenStreetMap"
    },
    {
      "id": "osm-w202455436",
      "name": "Low clearance \u2014 Lakeshore Avenue",
      "addr": "Lakeshore Avenue",
      "lat": 37.80975,
      "lng": -122.24644,
      "height_in": 182,
      "height_label": "15'2\"",
      "notes": "Underpass / low clearance",
      "source": "OpenStreetMap"
    },
    {
      "id": "osm-w202577472",
      "name": "Low clearance \u2014 Beaumont Avenue",
      "addr": "Beaumont Avenue",
      "lat": 37.80114,
      "lng": -122.22883,
      "height_in": 176,
      "height_label": "14'8\"",
      "notes": "Underpass / low clearance",
      "source": "OpenStreetMap"
    },
    {
      "id": "osm-w209489875",
      "name": "Low clearance \u2014 CA 77",
      "addr": "CA 77",
      "lat": 37.76993,
      "lng": -122.22067,
      "height_in": 183,
      "height_label": "15'3\"",
      "notes": "Underpass / low clearance",
      "source": "OpenStreetMap"
    },
    {
      "id": "osm-w275560143",
      "name": "Low clearance \u2014 Golf Links Road",
      "addr": "Golf Links Road",
      "lat": 37.7536,
      "lng": -122.15113,
      "height_in": 184,
      "height_label": "15'4\"",
      "notes": "Underpass / low clearance",
      "source": "OpenStreetMap"
    },
    {
      "id": "osm-w281365723",
      "name": "Low clearance \u2014 Claremont Avenue",
      "addr": "Claremont Avenue",
      "lat": 37.84217,
      "lng": -122.25811,
      "height_in": 180,
      "height_label": "15'0\"",
      "notes": "Underpass / low clearance",
      "source": "OpenStreetMap"
    },
    {
      "id": "osm-w304565058",
      "name": "Low clearance \u2014 Warren Freeway (CA 13)",
      "addr": "CA 13",
      "lat": 37.81053,
      "lng": -122.19772,
      "height_in": 179,
      "height_label": "14'11\"",
      "notes": "Underpass / low clearance",
      "source": "OpenStreetMap"
    },
    {
      "id": "osm-w308661448",
      "name": "Low clearance \u2014 High Street",
      "addr": "High Street",
      "lat": 37.78671,
      "lng": -122.19605,
      "height_in": 177,
      "height_label": "14'9\"",
      "notes": "Underpass / low clearance",
      "source": "OpenStreetMap"
    },
    {
      "id": "osm-w331254994",
      "name": "Low clearance \u2014 Nimitz Freeway (I 880)",
      "addr": "I 880",
      "lat": 37.7539,
      "lng": -122.20818,
      "height_in": 185,
      "height_label": "15'5\"",
      "notes": "Underpass / low clearance",
      "source": "OpenStreetMap"
    },
    {
      "id": "osm-w375744879",
      "name": "Low clearance \u2014 4th Street",
      "addr": "4th Street",
      "lat": 37.77996,
      "lng": -122.39867,
      "height_in": 166,
      "height_label": "13'10\"",
      "notes": "Underpass / low clearance",
      "source": "OpenStreetMap"
    },
    {
      "id": "osm-w393890395",
      "name": "Low clearance \u2014 Broadway",
      "addr": "Broadway",
      "lat": 37.82221,
      "lng": -122.26009,
      "height_in": 179,
      "height_label": "14'11\"",
      "notes": "Underpass / low clearance",
      "source": "OpenStreetMap"
    },
    {
      "id": "osm-w394210476",
      "name": "Low clearance \u2014 Edwards Avenue",
      "addr": "Edwards Avenue",
      "lat": 37.77637,
      "lng": -122.16414,
      "height_in": 178,
      "height_label": "14'10\"",
      "notes": "Underpass / low clearance",
      "source": "OpenStreetMap"
    },
    {
      "id": "osm-w394213284",
      "name": "Low clearance \u2014 Golf Links Road",
      "addr": "Golf Links Road",
      "lat": 37.75403,
      "lng": -122.15182,
      "height_in": 184,
      "height_label": "15'4\"",
      "notes": "Underpass / low clearance",
      "source": "OpenStreetMap"
    },
    {
      "id": "osm-w416162576",
      "name": "Low clearance \u2014 Madison Street",
      "addr": "Madison Street",
      "lat": 37.79554,
      "lng": -122.26781,
      "height_in": 178,
      "height_label": "14'10\"",
      "notes": "Underpass / low clearance",
      "source": "OpenStreetMap"
    },
    {
      "id": "osm-w416192587",
      "name": "Low clearance \u2014 Coolidge Avenue",
      "addr": "Coolidge Avenue",
      "lat": 37.79689,
      "lng": -122.21038,
      "height_in": 178,
      "height_label": "14'10\"",
      "notes": "Underpass / low clearance",
      "source": "OpenStreetMap"
    },
    {
      "id": "osm-w417728884",
      "name": "Low clearance \u2014 West Grand Avenue",
      "addr": "West Grand Avenue",
      "lat": 37.8127,
      "lng": -122.27327,
      "height_in": 176,
      "height_label": "14'8\"",
      "notes": "Underpass / low clearance",
      "source": "OpenStreetMap"
    },
    {
      "id": "osm-w458974388",
      "name": "Low clearance \u2014 San Leandro Street",
      "addr": "San Leandro Street",
      "lat": 37.73654,
      "lng": -122.17648,
      "height_in": 162,
      "height_label": "13'6\"",
      "notes": "Underpass / low clearance",
      "source": "OpenStreetMap"
    },
    {
      "id": "osm-w476013964",
      "name": "Low clearance \u2014 Embarcadero West",
      "addr": "Embarcadero West",
      "lat": 37.7959,
      "lng": -122.27799,
      "height_in": 181,
      "height_label": "15'1\"",
      "notes": "Underpass / low clearance",
      "source": "OpenStreetMap"
    },
    {
      "id": "osm-w530654768",
      "name": "Low clearance \u2014 Broadway",
      "addr": "Broadway",
      "lat": 37.79918,
      "lng": -122.27449,
      "height_in": 177,
      "height_label": "14'9\"",
      "notes": "Underpass / low clearance",
      "source": "OpenStreetMap"
    },
    {
      "id": "osm-w562342322",
      "name": "Low clearance \u2014 Champion Street",
      "addr": "Champion Street",
      "lat": 37.79795,
      "lng": -122.21557,
      "height_in": 182,
      "height_label": "15'2\"",
      "notes": "Underpass / low clearance",
      "source": "OpenStreetMap"
    },
    {
      "id": "osm-w575450764",
      "name": "Low clearance \u2014 Central Avenue",
      "addr": "Central Avenue",
      "lat": 37.9009,
      "lng": -122.31083,
      "height_in": 178,
      "height_label": "14'10\"",
      "notes": "Underpass / low clearance",
      "source": "OpenStreetMap"
    },
    {
      "id": "osm-w582034698",
      "name": "Low clearance \u2014 Washington Street",
      "addr": "Washington Street",
      "lat": 37.79985,
      "lng": -122.27553,
      "height_in": 168,
      "height_label": "14'0\"",
      "notes": "Underpass / low clearance",
      "source": "OpenStreetMap"
    },
    {
      "id": "osm-w619076861",
      "name": "Low clearance \u2014 MacArthur Freeway (I 580)",
      "addr": "I 580",
      "lat": 37.71982,
      "lng": -122.13426,
      "height_in": 179,
      "height_label": "14'11\"",
      "notes": "Underpass / low clearance",
      "source": "OpenStreetMap"
    },
    {
      "id": "osm-w619535758",
      "name": "Low clearance \u2014 Cortland Avenue",
      "addr": "Cortland Avenue",
      "lat": 37.7396,
      "lng": -122.40744,
      "height_in": 169,
      "height_label": "14'1\"",
      "notes": "Underpass / low clearance",
      "source": "OpenStreetMap"
    },
    {
      "id": "osm-w624357077",
      "name": "Low clearance underpass (service)",
      "addr": "",
      "lat": 37.75639,
      "lng": -122.23328,
      "height_in": 132,
      "height_label": "11'0\"",
      "notes": "Underpass / low clearance",
      "source": "OpenStreetMap"
    },
    {
      "id": "osm-w661905443",
      "name": "Low clearance \u2014 Dwight D. Eisenhower Highway (I 80)",
      "addr": "I 80",
      "lat": 37.78565,
      "lng": -122.39146,
      "height_in": 197,
      "height_label": "16'5\"",
      "notes": "Underpass / low clearance; Under: San Francisco\u2013Oakland Bay Bridge",
      "source": "OpenStreetMap"
    },
    {
      "id": "osm-w668807084",
      "name": "Low clearance \u2014 Blanken Avenue",
      "addr": "Blanken Avenue",
      "lat": 37.71094,
      "lng": -122.39557,
      "height_in": 177,
      "height_label": "14'9\"",
      "notes": "Underpass / low clearance",
      "source": "OpenStreetMap"
    },
    {
      "id": "osm-w706548258",
      "name": "Low clearance \u2014 Brannan Street",
      "addr": "Brannan Street",
      "lat": 37.76989,
      "lng": -122.40724,
      "height_in": 185,
      "height_label": "15'5\"",
      "notes": "Underpass / low clearance",
      "source": "OpenStreetMap"
    },
    {
      "id": "osm-w736627684",
      "name": "Low clearance \u2014 Broadway",
      "addr": "Broadway",
      "lat": 37.84807,
      "lng": -122.22672,
      "height_in": 174,
      "height_label": "14'6\"",
      "notes": "Underpass / low clearance",
      "source": "OpenStreetMap"
    },
    {
      "id": "osm-w737154875",
      "name": "Low clearance \u2014 CA 24",
      "addr": "CA 24",
      "lat": 37.86728,
      "lng": -122.19803,
      "height_in": 180,
      "height_label": "15'0\"",
      "notes": "Underpass / low clearance",
      "source": "OpenStreetMap"
    },
    {
      "id": "osm-w769984639",
      "name": "Low clearance \u2014 7th Street",
      "addr": "7th Street",
      "lat": 37.80792,
      "lng": -122.30453,
      "height_in": 162,
      "height_label": "13'6\"",
      "notes": "Underpass / low clearance",
      "source": "OpenStreetMap"
    },
    {
      "id": "osm-w780559978",
      "name": "Low clearance \u2014 Carlson Boulevard",
      "addr": "Carlson Boulevard",
      "lat": 37.91101,
      "lng": -122.31733,
      "height_in": 180,
      "height_label": "15'0\"",
      "notes": "Underpass / low clearance",
      "source": "OpenStreetMap"
    },
    {
      "id": "osm-w821827458",
      "name": "Low clearance \u2014 Eastshore Freeway (I 80)",
      "addr": "I 80",
      "lat": 37.95618,
      "lng": -122.3295,
      "height_in": 176,
      "height_label": "14'8\"",
      "notes": "Underpass / low clearance",
      "source": "OpenStreetMap"
    },
    {
      "id": "osm-w908588697",
      "name": "Low clearance underpass (service)",
      "addr": "",
      "lat": 37.86652,
      "lng": -122.25527,
      "height_in": 98,
      "height_label": "8'2\"",
      "notes": "Underpass / low clearance",
      "source": "OpenStreetMap"
    },
    {
      "id": "osm-w928266801",
      "name": "Low clearance \u2014 MacArthur Freeway (I 580)",
      "addr": "I 580",
      "lat": 37.81272,
      "lng": -122.24999,
      "height_in": 182,
      "height_label": "15'2\"",
      "notes": "Underpass / low clearance",
      "source": "OpenStreetMap"
    },
    {
      "id": "osm-w930553820",
      "name": "Low clearance \u2014 MacArthur Freeway (I 580)",
      "addr": "I 580",
      "lat": 37.81749,
      "lng": -122.25244,
      "height_in": 181,
      "height_label": "15'1\"",
      "notes": "Underpass / low clearance",
      "source": "OpenStreetMap"
    },
    {
      "id": "osm-w939666575",
      "name": "Low clearance \u2014 Warren Freeway (CA 13)",
      "addr": "CA 13",
      "lat": 37.82734,
      "lng": -122.21231,
      "height_in": 178,
      "height_label": "14'10\"",
      "notes": "Underpass / low clearance",
      "source": "OpenStreetMap"
    },
    {
      "id": "osm-w942738986",
      "name": "Low clearance underpass (service)",
      "addr": "",
      "lat": 37.65643,
      "lng": -122.4113,
      "height_in": 98,
      "height_label": "8'2\"",
      "notes": "Underpass / low clearance",
      "source": "OpenStreetMap"
    },
    {
      "id": "osm-w1081068727",
      "name": "Low clearance underpass (service)",
      "addr": "",
      "lat": 37.88681,
      "lng": -122.30906,
      "height_in": 78,
      "height_label": "6'6\"",
      "notes": "Underpass / low clearance",
      "source": "OpenStreetMap"
    },
    {
      "id": "osm-w1202222747",
      "name": "Low clearance \u2014 Washington Avenue",
      "addr": "Washington Avenue",
      "lat": 37.71093,
      "lng": -122.14717,
      "height_in": 171,
      "height_label": "14'3\"",
      "notes": "Underpass / low clearance",
      "source": "OpenStreetMap"
    },
    {
      "id": "osm-w1204808143",
      "name": "Low clearance \u2014 Telegraph Avenue",
      "addr": "Telegraph Avenue",
      "lat": 37.82365,
      "lng": -122.26595,
      "height_in": 176,
      "height_label": "14'8\"",
      "notes": "Underpass / low clearance",
      "source": "OpenStreetMap"
    },
    {
      "id": "osm-w1376915734",
      "name": "Low clearance \u2014 Martin Luther King Junior Way",
      "addr": "Martin Luther King Junior Way",
      "lat": 37.82497,
      "lng": -122.26965,
      "height_in": 176,
      "height_label": "14'8\"",
      "notes": "Underpass / low clearance",
      "source": "OpenStreetMap"
    },
    {
      "id": "osm-w1443047998",
      "name": "Low clearance \u2014 Nimitz Freeway (I 880)",
      "addr": "I 880",
      "lat": 37.82811,
      "lng": -122.29346,
      "height_in": 183,
      "height_label": "15'3\"",
      "notes": "Underpass / low clearance",
      "source": "OpenStreetMap"
    },
    {
      "id": "osm-w1443048000",
      "name": "Low clearance \u2014 Nimitz Freeway (I 880)",
      "addr": "I 880",
      "lat": 37.82735,
      "lng": -122.29265,
      "height_in": 186,
      "height_label": "15'6\"",
      "notes": "Underpass / low clearance",
      "source": "OpenStreetMap"
    },
    {
      "id": "osm-w1443049422",
      "name": "Low clearance \u2014 Peralta Street",
      "addr": "Peralta Street",
      "lat": 37.82732,
      "lng": -122.28122,
      "height_in": 182,
      "height_label": "15'2\"",
      "notes": "Underpass / low clearance",
      "source": "OpenStreetMap"
    },
    {
      "id": "osm-w1443055218",
      "name": "Low clearance \u2014 42nd Street",
      "addr": "42nd Street",
      "lat": 37.8313,
      "lng": -122.26679,
      "height_in": 177,
      "height_label": "14'9\"",
      "notes": "Underpass / low clearance",
      "source": "OpenStreetMap"
    },
    {
      "id": "osm-w1443058893",
      "name": "Low clearance \u2014 Maple Avenue",
      "addr": "Maple Avenue",
      "lat": 37.79509,
      "lng": -122.20724,
      "height_in": 176,
      "height_label": "14'8\"",
      "notes": "Underpass / low clearance",
      "source": "OpenStreetMap"
    },
    {
      "id": "osm-w1443062559",
      "name": "Low clearance \u2014 Oak Street",
      "addr": "Oak Street",
      "lat": 37.79521,
      "lng": -122.26655,
      "height_in": 173,
      "height_label": "14'5\"",
      "notes": "Underpass / low clearance",
      "source": "OpenStreetMap"
    },
    {
      "id": "osm-w1443063461",
      "name": "Low clearance \u2014 Martin Luther King Junior Way",
      "addr": "Martin Luther King Junior Way",
      "lat": 37.80035,
      "lng": -122.27963,
      "height_in": 173,
      "height_label": "14'5\"",
      "notes": "Underpass / low clearance",
      "source": "OpenStreetMap"
    },
    {
      "id": "osm-w1443064056",
      "name": "Low clearance \u2014 Castro Street",
      "addr": "Castro Street",
      "lat": 37.80081,
      "lng": -122.2808,
      "height_in": 182,
      "height_label": "15'2\"",
      "notes": "Underpass / low clearance",
      "source": "OpenStreetMap"
    },
    {
      "id": "osm-w1443065012",
      "name": "Low clearance \u2014 7th Street",
      "addr": "7th Street",
      "lat": 37.80808,
      "lng": -122.3056,
      "height_in": 162,
      "height_label": "13'6\"",
      "notes": "Underpass / low clearance",
      "source": "OpenStreetMap"
    }
  ]
}
