{
  "garages": [
    {
      "id": "oma-chi-center",
      "name": "CHI Health Center Omaha Garage",
      "addr": "455 N 10th St",
      "lat": 41.2647,
      "lng": -95.9257,
      "height_in": null,
      "height_label": null,
      "oversized": false,
      "notes": "Arena + convention center.",
      "source": "chihealthcenteromaha.com"
    },
    {
      "id": "oma-charles-schwab-field",
      "name": "Charles Schwab Field (College World Series)",
      "addr": "1200 Mike Fahey St",
      "lat": 41.2674,
      "lng": -95.9263,
      "height_in": null,
      "height_label": "No limit (uncovered)",
      "oversized": true,
      "notes": "CWS host venue. Surface lots + RV accommodation.",
      "source": "Omaha Sports Commission",
      "structure_type": "surface_lot"
    },
    {
      "id": "oma-old-market",
      "name": "Old Market District Lots",
      "addr": "1201 Howard St",
      "lat": 41.2568,
      "lng": -95.9327,
      "height_in": null,
      "height_label": null,
      "oversized": false,
      "notes": "Historic cobblestone district street + lots.",
      "source": "oldmarket.com",
      "entrance_lat": 41.2566576,
      "entrance_lng": -95.9311899,
      "entrance_source": "OSM parking_entrance node 2528443471",
      "structure_type": "surface_lot"
    },
    {
      "id": "oma-park-one",
      "name": "Park One Garage (Downtown)",
      "addr": "1201 Leavenworth St",
      "lat": 41.2543,
      "lng": -95.9338,
      "height_in": null,
      "height_label": null,
      "oversized": false,
      "notes": "Downtown Omaha.",
      "source": "Needs verification"
    },
    {
      "id": "oma-zoo",
      "name": "Henry Doorly Zoo & Aquarium",
      "addr": "3701 S 10th St",
      "lat": 41.2281,
      "lng": -95.934,
      "height_in": null,
      "height_label": "No limit (uncovered)",
      "oversized": true,
      "notes": "World-class zoo. Massive surface lots.",
      "source": "omahazoo.com",
      "structure_type": "surface_lot"
    },
    {
      "id": "oma-gene-leahy",
      "name": "Gene Leahy Mall Lots (RiverFront)",
      "addr": "1302 Farnam St",
      "lat": 41.2601,
      "lng": -95.9316,
      "height_in": null,
      "height_label": "No limit (uncovered)",
      "oversized": false,
      "notes": "Downtown riverfront park.",
      "source": "Needs verification",
      "entrance_lat": 41.2604883,
      "entrance_lng": -95.9324317,
      "entrance_source": "OSM parking_entrance node 10015267528",
      "structure_type": "surface_lot"
    },
    {
      "id": "oma-joslyn-art",
      "name": "Joslyn Art Museum Lot",
      "addr": "2200 Dodge St",
      "lat": 41.2634,
      "lng": -95.9447,
      "height_in": null,
      "height_label": "No limit (uncovered)",
      "oversized": false,
      "notes": "Museum surface.",
      "source": "joslyn.org",
      "entrance_lat": 41.2639304,
      "entrance_lng": -95.942901,
      "entrance_source": "OSM parking_entrance node 6127359028",
      "structure_type": "surface_lot"
    },
    {
      "id": "oma-omaha-union",
      "name": "Union Station (Durham Museum) Lot",
      "addr": "801 S 10th St",
      "lat": 41.2509,
      "lng": -95.931,
      "height_in": null,
      "height_label": "No limit (uncovered)",
      "oversized": false,
      "notes": "Historic Art Deco station \u2014 now museum.",
      "source": "durhammuseum.org",
      "structure_type": "surface_lot"
    },
    {
      "id": "oma-westroads",
      "name": "Westroads Mall",
      "addr": "10000 California St",
      "lat": 41.2656,
      "lng": -96.0629,
      "height_in": null,
      "height_label": null,
      "oversized": false,
      "notes": "Enclosed mall.",
      "source": "simon.com"
    },
    {
      "id": "oma-village-pointe",
      "name": "Village Pointe",
      "addr": "17305 Davenport St",
      "lat": 41.2658,
      "lng": -96.1471,
      "height_in": null,
      "height_label": "No limit (uncovered)",
      "oversized": false,
      "notes": "Open-air retail.",
      "source": "shopvillagepointe.com",
      "structure_type": "surface_lot"
    },
    {
      "id": "oma-blackstone",
      "name": "Blackstone District Lots",
      "addr": "4025 Farnam St",
      "lat": 41.2589,
      "lng": -95.969,
      "height_in": null,
      "height_label": "No limit (uncovered)",
      "oversized": false,
      "notes": "Historic mixed-use district.",
      "source": "Needs verification",
      "entrance_lat": 41.2574248,
      "entrance_lng": -95.9689077,
      "entrance_source": "OSM parking_entrance node 13167012542",
      "structure_type": "surface_lot"
    },
    {
      "id": "oma-airport-garage",
      "name": "Omaha Eppley (OMA) \u2014 Terminal Garage",
      "addr": "4501 Abbott Dr",
      "lat": 41.3033,
      "lng": -95.8954,
      "height_in": null,
      "height_label": null,
      "oversized": false,
      "notes": "Terminal-adjacent.",
      "source": "flyoma.com"
    },
    {
      "id": "oma-airport-economy",
      "name": "OMA \u2014 Economy Lot",
      "addr": "4501 Abbott Dr",
      "lat": 41.3017,
      "lng": -95.8975,
      "height_in": null,
      "height_label": "No limit (uncovered)",
      "oversized": true,
      "notes": "Uncovered.",
      "source": "flyoma.com",
      "structure_type": "surface_lot",
      "entrance_lat": 41.3007705,
      "entrance_lng": -95.8998072,
      "entrance_source": "Auto (nearest Street View pano within 300m, 2026-04-24)"
    },
    {
      "id": "oma-lauritzen-gardens",
      "name": "Lauritzen Gardens",
      "addr": "100 Bancroft St",
      "lat": 41.2343,
      "lng": -95.9379,
      "height_in": null,
      "height_label": "No limit (uncovered)",
      "oversized": false,
      "notes": "Botanical garden surface lot.",
      "source": "lauritzengardens.org",
      "structure_type": "surface_lot"
    },
    {
      "id": "oma-strategic-air",
      "name": "Strategic Air Command & Aerospace Museum",
      "addr": "28210 W Park Hwy, Ashland",
      "lat": 41.023,
      "lng": -96.325,
      "height_in": null,
      "height_label": "No limit (uncovered)",
      "oversized": true,
      "notes": "Aerospace museum 25mi west of Omaha.",
      "source": "sacmuseum.org",
      "structure_type": "surface_lot"
    },
    {
      "id": "oma-creighton-univ",
      "name": "Creighton University \u2014 Visitor Center Lot",
      "addr": "2500 California Plaza",
      "lat": 41.2675,
      "lng": -95.9432,
      "height_in": null,
      "height_label": null,
      "oversized": false,
      "notes": "Creighton campus.",
      "source": "creighton.edu",
      "entrance_lat": 41.2684494,
      "entrance_lng": -95.9451264,
      "entrance_source": "OSM parking_entrance node 4285204521",
      "structure_type": "surface_lot"
    },
    {
      "id": "oma-millwork-commons",
      "name": "Millwork Commons",
      "addr": "1314 Jones St",
      "lat": 41.2599,
      "lng": -95.931,
      "height_in": 87,
      "height_label": "7'3\"",
      "oversized": false,
      "notes": "Tech/retail redevelopment district.\nVerified 2026-04-23 from sign reading \"Clearance 7' 3\" (pano WKcOBT7TYSWULpAMZoZLEg, heading 180.0\u00b0, Claude confidence high [+1 more section(s)])",
      "source": "AI-verified (Street View + Claude Vision \u2014 auto-pano) \u2014 was: millworkcommons.com",
      "entrance_lat": 41.2604883,
      "entrance_lng": -95.9324317,
      "entrance_source": "OSM parking_entrance node 10015267528",
      "verified_on": "2026-04-23",
      "pano_id": "WKcOBT7TYSWULpAMZoZLEg",
      "pano_heading": 180.0,
      "sections": [
        {
          "label": "Lane 1",
          "height_in": 87,
          "height_label": "7'3\""
        },
        {
          "label": "13th and Capital",
          "height_in": 156,
          "height_label": "13'0\""
        }
      ]
    },
    {
      "id": "oma-little-bohemia",
      "name": "Little Bohemia / Blackstone District",
      "addr": "3900 Farnam St",
      "lat": 41.2601,
      "lng": -95.9694,
      "height_in": null,
      "height_label": "No limit (uncovered)",
      "oversized": false,
      "notes": "Restaurant/entertainment district.",
      "source": "Needs verification"
    },
    {
      "id": "oma-henry-doorly-aquarium",
      "name": "Henry Doorly Zoo \u2014 Aquarium Lot (Scott)",
      "addr": "3701 S 10th St",
      "lat": 41.229,
      "lng": -95.935,
      "height_in": null,
      "height_label": "No limit (uncovered)",
      "oversized": true,
      "notes": "Second zoo lot near Scott Aquarium.",
      "source": "omahazoo.com",
      "structure_type": "surface_lot"
    },
    {
      "id": "oma-west-dodge-station",
      "name": "West Dodge Park & Ride",
      "addr": "17600 West Dodge Rd",
      "lat": 41.2658,
      "lng": -96.1551,
      "height_in": null,
      "height_label": "No limit (uncovered)",
      "oversized": false,
      "notes": "Metro Transit park-ride.",
      "source": "metroareatransit.com"
    },
    {
      "id": "oma-ak-sar-ben-village",
      "name": "Aksarben Village",
      "addr": "1299 S 67th St",
      "lat": 41.2463,
      "lng": -95.9966,
      "height_in": null,
      "height_label": null,
      "oversized": false,
      "notes": "Mixed-use retail + offices.",
      "source": "aksarbenvillage.com"
    },
    {
      "id": "oma-millard-south-market",
      "name": "Shadow Lake Towne Center (Papillion)",
      "addr": "7775 Olson Dr, Papillion",
      "lat": 41.1555,
      "lng": -96.1187,
      "height_in": null,
      "height_label": "No limit (uncovered)",
      "oversized": false,
      "notes": "Papillion lifestyle center.",
      "source": "Needs verification"
    },
    {
      "id": "oma-heartland-park",
      "name": "Heartland of America Park Lots",
      "addr": "800 Douglas St",
      "lat": 41.2587,
      "lng": -95.9294,
      "height_in": null,
      "height_label": "No limit (uncovered)",
      "oversized": true,
      "notes": "Downtown riverfront park \u2014 recently redeveloped (2023).",
      "source": "thericketthouse.com",
      "entrance_lat": 41.2577095,
      "entrance_lng": -95.9278713,
      "entrance_source": "OSM parking_entrance node 10017521403",
      "structure_type": "surface_lot"
    },
    {
      "id": "oma-tdameritrade-lot",
      "name": "TD Ameritrade Park \u2014 Overflow Lots",
      "addr": "1200 Mike Fahey St",
      "lat": 41.2666,
      "lng": -95.928,
      "height_in": null,
      "height_label": "No limit (uncovered)",
      "oversized": true,
      "notes": "CWS + NCAA events.",
      "source": "Omaha Sports Commission",
      "structure_type": "surface_lot"
    },
    {
      "id": "oma-werner-park",
      "name": "Werner Park (Storm Chasers)",
      "addr": "12356 Ballpark Way, Papillion",
      "lat": 41.1472,
      "lng": -96.1226,
      "height_in": null,
      "height_label": "No limit (uncovered)",
      "oversized": false,
      "notes": "AAA minor league surface lots.",
      "source": "milb.com",
      "structure_type": "surface_lot"
    },
    {
      "id": "osm-n1781295403",
      "name": "Lake Cunningham Campground West",
      "addr": "",
      "lat": 41.34444,
      "lng": -96.04509,
      "height_in": null,
      "height_label": "No limit (uncovered)",
      "oversized": true,
      "structure_type": "surface_lot",
      "notes": "Imported 2026 from OSM as an oversized-vehicle-friendly surface lot: RV park (OSM tourism=caravan_site).",
      "source": "OpenStreetMap (surface lot)"
    },
    {
      "id": "osm-n2011975356",
      "name": "RV Storage Lot",
      "addr": "",
      "lat": 41.1279,
      "lng": -95.91425,
      "height_in": null,
      "height_label": "No limit (uncovered)",
      "oversized": true,
      "structure_type": "surface_lot",
      "notes": "Imported 2026 from OSM as an oversized-vehicle-friendly surface lot: RV park (OSM tourism=caravan_site).",
      "source": "OpenStreetMap (surface lot)"
    },
    {
      "id": "osm-n2014592113",
      "name": "FAMCamp",
      "addr": "",
      "lat": 41.11444,
      "lng": -95.87864,
      "height_in": null,
      "height_label": "No limit (uncovered)",
      "oversized": true,
      "structure_type": "surface_lot",
      "notes": "Imported 2026 from OSM as an oversized-vehicle-friendly surface lot: RV park (OSM tourism=caravan_site).",
      "source": "OpenStreetMap (surface lot)"
    },
    {
      "id": "osm-n9017988091",
      "name": "Lake Cunningham Campground East",
      "addr": "",
      "lat": 41.3441,
      "lng": -96.04192,
      "height_in": null,
      "height_label": "No limit (uncovered)",
      "oversized": true,
      "structure_type": "surface_lot",
      "notes": "Imported 2026 from OSM as an oversized-vehicle-friendly surface lot: RV park (OSM tourism=caravan_site).",
      "source": "OpenStreetMap (surface lot)",
      "entrance_lat": 41.3424757,
      "entrance_lng": -96.0405777,
      "entrance_source": "Auto (nearest Street View pano within 300m, 2026-04-24 surface-lot pass)"
    },
    {
      "id": "osm-w166077138",
      "name": "Dill Ball Fields",
      "addr": "",
      "lat": 41.29667,
      "lng": -96.01747,
      "height_in": null,
      "height_label": "No limit (uncovered)",
      "oversized": true,
      "structure_type": "surface_lot",
      "notes": "Imported 2026 from OSM as an oversized-vehicle-friendly surface lot: large capacity (260 spaces). 260 spaces. Operator: City of Omaha.",
      "source": "OpenStreetMap (surface lot)"
    },
    {
      "id": "osm-w166077153",
      "name": "Benson Park",
      "addr": "",
      "lat": 41.29697,
      "lng": -96.02123,
      "height_in": null,
      "height_label": "No limit (uncovered)",
      "oversized": true,
      "structure_type": "surface_lot",
      "notes": "Imported 2026 from OSM as an oversized-vehicle-friendly surface lot: large capacity (65 spaces). 65 spaces. Operator: City of Omaha.",
      "source": "OpenStreetMap (surface lot)"
    },
    {
      "id": "osm-w166079115",
      "name": "Roberts Park",
      "addr": "",
      "lat": 41.26624,
      "lng": -96.03767,
      "height_in": null,
      "height_label": "No limit (uncovered)",
      "oversized": true,
      "structure_type": "surface_lot",
      "notes": "Imported 2026 from OSM as an oversized-vehicle-friendly surface lot: large capacity (80 spaces). 80 spaces. Operator: City of Omaha.",
      "source": "OpenStreetMap (surface lot)"
    },
    {
      "id": "osm-w169674340",
      "name": "RV Park (unnamed)",
      "addr": "",
      "lat": 41.13502,
      "lng": -96.07674,
      "height_in": null,
      "height_label": "No limit (uncovered)",
      "oversized": true,
      "structure_type": "surface_lot",
      "notes": "Imported 2026 from OSM as an oversized-vehicle-friendly surface lot: RV park (OSM tourism=caravan_site).",
      "source": "OpenStreetMap (surface lot)",
      "entrance_lat": 41.1348285,
      "entrance_lng": -96.075237,
      "entrance_source": "Auto (nearest Street View pano within 300m, 2026-04-24 surface-lot pass)"
    },
    {
      "id": "osm-w188002364",
      "name": "Bus & RV Parking",
      "addr": "",
      "lat": 41.23348,
      "lng": -95.91593,
      "height_in": null,
      "height_label": "No limit (uncovered)",
      "oversized": true,
      "structure_type": "surface_lot",
      "notes": "Imported 2026 from OSM as an oversized-vehicle-friendly surface lot: name signals oversized use ('rv'). Operator: Lauritzen Gardens.",
      "source": "OpenStreetMap (surface lot)"
    },
    {
      "id": "osm-w312116755",
      "name": "Camp Wakonda",
      "addr": "",
      "lat": 41.16359,
      "lng": -95.89676,
      "height_in": null,
      "height_label": "No limit (uncovered)",
      "oversized": true,
      "structure_type": "surface_lot",
      "notes": "Imported 2026 from OSM as an oversized-vehicle-friendly surface lot: large capacity (50 spaces). 50 spaces. Operator: Fontenelle Forest.",
      "source": "OpenStreetMap (surface lot)"
    },
    {
      "id": "osm-w1092228404",
      "name": "RV Park (unnamed)",
      "addr": "",
      "lat": 41.22092,
      "lng": -95.85656,
      "height_in": null,
      "height_label": "No limit (uncovered)",
      "oversized": true,
      "structure_type": "surface_lot",
      "notes": "Imported 2026 from OSM as an oversized-vehicle-friendly surface lot: RV park (OSM tourism=caravan_site).",
      "source": "OpenStreetMap (surface lot)"
    },
    {
      "id": "osm-w1092255713",
      "name": "RV Park (unnamed)",
      "addr": "",
      "lat": 41.19783,
      "lng": -95.86061,
      "height_in": null,
      "height_label": "No limit (uncovered)",
      "oversized": true,
      "structure_type": "surface_lot",
      "notes": "Imported 2026 from OSM as an oversized-vehicle-friendly surface lot: RV park (OSM tourism=caravan_site).",
      "source": "OpenStreetMap (surface lot)",
      "entrance_lat": 41.1963986,
      "entrance_lng": -95.8619852,
      "entrance_source": "Auto (nearest Street View pano within 300m, 2026-04-24 surface-lot pass)"
    },
    {
      "id": "osm-w1283574720",
      "name": "NKO North Parking",
      "addr": "",
      "lat": 41.11085,
      "lng": -95.90752,
      "height_in": null,
      "height_label": "No limit (uncovered)",
      "oversized": true,
      "structure_type": "surface_lot",
      "notes": "Imported 2026 from OSM as an oversized-vehicle-friendly surface lot: large capacity (100 spaces). 100 spaces. Operator: NKO North Parking.",
      "source": "OpenStreetMap (surface lot)"
    },
    {
      "id": "osm-w1441647611",
      "name": "NKO Main Parking",
      "addr": "",
      "lat": 41.1089,
      "lng": -95.90862,
      "height_in": null,
      "height_label": "No limit (uncovered)",
      "oversized": true,
      "structure_type": "surface_lot",
      "notes": "Imported 2026 from OSM as an oversized-vehicle-friendly surface lot: large capacity (100 spaces). 100 spaces. Operator: NKO Main Parking.",
      "source": "OpenStreetMap (surface lot)"
    },
    {
      "id": "osm-w1441682048",
      "name": "OPPD",
      "addr": "",
      "lat": 41.32794,
      "lng": -95.94858,
      "height_in": null,
      "height_label": "No limit (uncovered)",
      "oversized": true,
      "structure_type": "surface_lot",
      "notes": "Imported 2026 from OSM as an oversized-vehicle-friendly surface lot: large capacity (50 spaces). 50 spaces. Operator: OPPD.",
      "source": "OpenStreetMap (surface lot)",
      "entrance_lat": 41.3274245,
      "entrance_lng": -95.9494002,
      "entrance_source": "Auto (nearest Street View pano within 300m, 2026-04-24 surface-lot pass)"
    }
  ],
  "tunnels": [],
  "bridges": [
    {
      "id": "oma-bob-kerrey",
      "name": "Bob Kerrey Pedestrian Bridge",
      "addr": "over Missouri River",
      "lat": 41.2634,
      "lng": -95.9183,
      "height_in": null,
      "height_label": "Pedestrian only",
      "notes": "Connects Omaha to Council Bluffs IA. S-curve bridge.",
      "source": "Wikipedia"
    },
    {
      "id": "oma-i80-i29-bridge",
      "name": "I-80 Missouri River Bridge",
      "addr": "I-80 over Missouri",
      "lat": 41.2347,
      "lng": -95.8901,
      "height_in": null,
      "height_label": "Over water",
      "notes": "Interstate bridge to IA.",
      "source": "NDOT"
    },
    {
      "id": "nbi-19-000000000289300",
      "name": "Low on-bridge clearance: INCA LANE",
      "addr": "INCA LANE",
      "lat": 41.34396,
      "lng": -95.88675,
      "height_in": 161,
      "height_label": "13'5\"",
      "notes": "FHWA NBI; on-bridge clearance; built 1924",
      "source": "FHWA National Bridge Inventory",
      "entrance_lat": 41.3440278,
      "entrance_lng": -95.8845542,
      "entrance_source": "Auto (nearest Street View pano within 300m, 2026-04-24)"
    },
    {
      "id": "nbi-19-000000000290810",
      "name": "Low on-bridge clearance: 220TH STREET",
      "addr": "220TH STREET",
      "lat": 41.44647,
      "lng": -95.765,
      "height_in": 162,
      "height_label": "13'6\"",
      "notes": "FHWA NBI; on-bridge clearance; built 1925",
      "source": "FHWA National Bridge Inventory"
    },
    {
      "id": "nbi-19-000000000290830",
      "name": "Low on-bridge clearance: 210TH STREET",
      "addr": "210TH STREET",
      "lat": 41.44163,
      "lng": -95.77811,
      "height_in": 165,
      "height_label": "13'9\"",
      "notes": "FHWA NBI; on-bridge clearance; built 1952",
      "source": "FHWA National Bridge Inventory"
    },
    {
      "id": "nbi-31-S03438208",
      "name": "Low on-bridge clearance: OLD US34",
      "addr": "OLD US34",
      "lat": 41.001,
      "lng": -95.8669,
      "height_in": 173,
      "height_label": "14'5\"",
      "notes": "FHWA NBI; on-bridge clearance; built 1929",
      "source": "FHWA National Bridge Inventory"
    }
  ]
}
