{
  "garages": [
    {
      "id": "pit-ppg-paints-arena",
      "name": "PPG Paints Arena Garage",
      "addr": "1001 5th Ave",
      "lat": 40.4395,
      "lng": -79.9892,
      "height_in": null,
      "height_label": null,
      "oversized": false,
      "notes": "Penguins arena + concerts.",
      "source": "ppgpaintsarena.com",
      "entrance_lat": 40.4399827,
      "entrance_lng": -79.9884462,
      "entrance_source": "OSM parking_entrance node 1436093585"
    },
    {
      "id": "pit-convention-ctr",
      "name": "David L. Lawrence Convention Center",
      "addr": "1000 Fort Duquesne Blvd",
      "lat": 40.444,
      "lng": -79.9953,
      "height_in": null,
      "height_label": null,
      "oversized": false,
      "notes": "LEED-platinum convention center.",
      "source": "pittsburghcc.com",
      "entrance_lat": 40.4438553,
      "entrance_lng": -79.9950577,
      "entrance_source": "OSM parking_entrance node 6219305268"
    },
    {
      "id": "pit-pnc-park",
      "name": "PNC Park (Pirates) \u2014 General Lots",
      "addr": "115 Federal St",
      "lat": 40.4469,
      "lng": -80.0057,
      "height_in": null,
      "height_label": "No limit (uncovered)",
      "oversized": true,
      "notes": "North Shore ballpark.",
      "source": "mlb.com/pirates"
    },
    {
      "id": "pit-acrisure-stadium",
      "name": "Acrisure Stadium (Steelers) \u2014 Lots",
      "addr": "100 Art Rooney Ave",
      "lat": 40.4468,
      "lng": -80.0157,
      "height_in": null,
      "height_label": "No limit (uncovered)",
      "oversized": true,
      "notes": "Steelers. Large North Shore lots.",
      "source": "acrisurestadium.com"
    },
    {
      "id": "pit-north-shore",
      "name": "North Shore \u2014 Casino Garage (Rivers)",
      "addr": "777 Casino Dr",
      "lat": 40.4463,
      "lng": -80.0207,
      "height_in": null,
      "height_label": null,
      "oversized": false,
      "notes": "Rivers Casino garage.",
      "source": "riverscasino.com",
      "entrance_lat": 40.4475842,
      "entrance_lng": -80.0214078,
      "entrance_source": "OSM parking_entrance node 5421653790"
    },
    {
      "id": "pit-sci-center",
      "name": "Carnegie Science Center Lot",
      "addr": "1 Allegheny Ave",
      "lat": 40.4467,
      "lng": -80.0175,
      "height_in": null,
      "height_label": "No limit (uncovered)",
      "oversized": false,
      "notes": "Science museum surface.",
      "source": "carnegiesciencecenter.org"
    },
    {
      "id": "pit-downtown-ninth-liberty",
      "name": "Ninth & Liberty Garage",
      "addr": "900 Liberty Ave",
      "lat": 40.4438,
      "lng": -79.9957,
      "height_in": null,
      "height_label": null,
      "oversized": false,
      "notes": "Cultural District garage.",
      "source": "pittsburghparking.com",
      "entrance_lat": 40.4438553,
      "entrance_lng": -79.9950577,
      "entrance_source": "OSM parking_entrance node 6219305268"
    },
    {
      "id": "pit-third-forbes",
      "name": "Third & Forbes Garage",
      "addr": "339 Forbes Ave",
      "lat": 40.4391,
      "lng": -79.997,
      "height_in": null,
      "height_label": null,
      "oversized": false,
      "notes": "Pittsburgh Parking Authority downtown.",
      "source": "pittsburghparking.com",
      "entrance_lat": 40.4386063,
      "entrance_lng": -79.9986052,
      "entrance_source": "OSM parking_entrance node 2133358876"
    },
    {
      "id": "pit-mellon-sq",
      "name": "Mellon Square Garage",
      "addr": "501 Smithfield St",
      "lat": 40.4423,
      "lng": -79.9976,
      "height_in": null,
      "height_label": null,
      "oversized": false,
      "notes": "Under Mellon Square park.",
      "source": "Needs verification",
      "entrance_lat": 40.4428164,
      "entrance_lng": -79.9980041,
      "entrance_source": "OSM parking_entrance node 4804778861"
    },
    {
      "id": "pit-market-square",
      "name": "Market Square Place Garage",
      "addr": "809 Penn Ave",
      "lat": 40.4434,
      "lng": -79.9982,
      "height_in": null,
      "height_label": null,
      "oversized": false,
      "notes": "Downtown core.",
      "source": "Needs verification",
      "entrance_lat": 40.4428164,
      "entrance_lng": -79.9980041,
      "entrance_source": "OSM parking_entrance node 4804778861"
    },
    {
      "id": "pit-strip-district",
      "name": "Strip District Lots",
      "addr": "21st & Smallman St",
      "lat": 40.452,
      "lng": -79.9815,
      "height_in": null,
      "height_label": "No limit (uncovered)",
      "oversized": false,
      "notes": "Produce market district street + lots.",
      "source": "Needs verification"
    },
    {
      "id": "pit-pittsburgh-public",
      "name": "PPA First Ave Garage",
      "addr": "345 1st Ave",
      "lat": 40.4357,
      "lng": -79.9953,
      "height_in": null,
      "height_label": null,
      "oversized": false,
      "notes": "Parking Authority.",
      "source": "pittsburghparking.com",
      "entrance_lat": 40.4350636,
      "entrance_lng": -79.9955571,
      "entrance_source": "OSM parking_entrance node 11098531744"
    },
    {
      "id": "pit-carnegie-music-hall",
      "name": "Carnegie Music Hall / Oakland Lots",
      "addr": "4400 Forbes Ave",
      "lat": 40.4428,
      "lng": -79.9498,
      "height_in": null,
      "height_label": null,
      "oversized": false,
      "notes": "Oakland cultural district.",
      "source": "pittsburgh.carnegiemuseums.org",
      "entrance_lat": 40.4426932,
      "entrance_lng": -79.9488919,
      "entrance_source": "OSM parking_entrance node 11110609420"
    },
    {
      "id": "pit-pitt-panther",
      "name": "Pitt \u2014 Soldiers & Sailors Garage",
      "addr": "4141 5th Ave",
      "lat": 40.4441,
      "lng": -79.9596,
      "height_in": null,
      "height_label": null,
      "oversized": false,
      "notes": "University of Pittsburgh visitor.",
      "source": "pts.pitt.edu",
      "entrance_lat": 40.443723,
      "entrance_lng": -79.9602964,
      "entrance_source": "OSM parking_entrance node 8934181465"
    },
    {
      "id": "pit-phipps-conservatory",
      "name": "Phipps Conservatory Lot",
      "addr": "One Schenley Dr",
      "lat": 40.438,
      "lng": -79.9479,
      "height_in": null,
      "height_label": "No limit (uncovered)",
      "oversized": false,
      "notes": "Oakland / Schenley Park.",
      "source": "phipps.conservatory.org"
    },
    {
      "id": "pit-the-waterfront",
      "name": "The Waterfront (Homestead)",
      "addr": "149 E Bridge St, Homestead",
      "lat": 40.4093,
      "lng": -79.9181,
      "height_in": null,
      "height_label": "No limit (uncovered)",
      "oversized": false,
      "notes": "Open-air retail.",
      "source": "Needs verification"
    },
    {
      "id": "pit-ross-park",
      "name": "Ross Park Mall",
      "addr": "1000 Ross Park Mall Dr",
      "lat": 40.5406,
      "lng": -80.0026,
      "height_in": null,
      "height_label": null,
      "oversized": false,
      "notes": "Upscale mall.",
      "source": "simon.com"
    },
    {
      "id": "pit-station-square",
      "name": "Station Square",
      "addr": "125 W Station Square Dr",
      "lat": 40.4334,
      "lng": -80.0013,
      "height_in": null,
      "height_label": null,
      "oversized": false,
      "notes": "Shopping/dining on south Mon side. Inclines adjacent.",
      "source": "stationsquare.com",
      "entrance_lat": 40.4319922,
      "entrance_lng": -80.0009908,
      "entrance_source": "OSM parking_entrance node 7808291270"
    },
    {
      "id": "pit-mt-washington",
      "name": "Mt Washington / Inclines Lots",
      "addr": "Grandview Ave",
      "lat": 40.4314,
      "lng": -80.0062,
      "height_in": null,
      "height_label": "No limit (uncovered)",
      "oversized": false,
      "notes": "Scenic overlooks. Street + small lots.",
      "source": "Needs verification"
    },
    {
      "id": "pit-downtown-fifth-ave-place",
      "name": "Fifth Avenue Place Garage",
      "addr": "120 Fifth Ave",
      "lat": 40.4423,
      "lng": -80.0018,
      "height_in": null,
      "height_label": null,
      "oversized": false,
      "notes": "Downtown office.",
      "source": "Needs verification",
      "entrance_lat": 40.4420045,
      "entrance_lng": -80.0006161,
      "entrance_source": "OSM parking_entrance node 8860727970"
    },
    {
      "id": "pit-airport-short",
      "name": "PIT Airport \u2014 Short Term Garage",
      "addr": "1000 Airport Blvd",
      "lat": 40.4916,
      "lng": -80.2327,
      "height_in": null,
      "height_label": null,
      "oversized": false,
      "notes": "Terminal-adjacent.",
      "source": "flypittsburgh.com"
    },
    {
      "id": "pit-airport-long",
      "name": "PIT \u2014 Long Term Garage",
      "addr": "1000 Airport Blvd",
      "lat": 40.491,
      "lng": -80.231,
      "height_in": null,
      "height_label": null,
      "oversized": false,
      "notes": "Next to Short Term.",
      "source": "flypittsburgh.com"
    },
    {
      "id": "pit-airport-extended",
      "name": "PIT \u2014 Extended Parking Lot",
      "addr": "1000 Airport Blvd",
      "lat": 40.4875,
      "lng": -80.236,
      "height_in": null,
      "height_label": "No limit (uncovered)",
      "oversized": true,
      "notes": "Uncovered.",
      "source": "flypittsburgh.com"
    },
    {
      "id": "pit-zoo-aquarium",
      "name": "Pittsburgh Zoo & Aquarium",
      "addr": "7340 Butler St",
      "lat": 40.4852,
      "lng": -79.9221,
      "height_in": null,
      "height_label": "No limit (uncovered)",
      "oversized": true,
      "notes": "Highland Park surface lot.",
      "source": "pittsburghzoo.org"
    }
  ],
  "tunnels": [
    {
      "id": "pit-fort-pitt-tunnel",
      "name": "Fort Pitt Tunnel (I-376)",
      "addr": "I-376 under Mt Washington",
      "lat": 40.4363,
      "lng": -80.015,
      "height_in": 168,
      "height_label": "14'0\"",
      "notes": "Famous 'reveal' tunnel \u2014 emerge to dramatic downtown skyline view.",
      "source": "PennDOT"
    },
    {
      "id": "pit-liberty-tunnel",
      "name": "Liberty Tunnel (SR-51)",
      "addr": "SR-51 under Mt Washington",
      "lat": 40.4318,
      "lng": -80.0167,
      "height_in": 162,
      "height_label": "13'6\"",
      "notes": "1924 tunnel. Connects downtown to South Hills.",
      "source": "PennDOT"
    },
    {
      "id": "pit-squirrel-hill",
      "name": "Squirrel Hill Tunnel (I-376)",
      "addr": "I-376 under Squirrel Hill",
      "lat": 40.4363,
      "lng": -79.9187,
      "height_in": 168,
      "height_label": "14'0\"",
      "notes": "East-side parkway tunnel.",
      "source": "PennDOT"
    },
    {
      "id": "pit-armstrong",
      "name": "Armstrong Tunnel (US-19/I-579)",
      "addr": "Under Soho neighborhood",
      "lat": 40.4381,
      "lng": -79.9897,
      "height_in": 156,
      "height_label": "13'0\"",
      "notes": "Urban short tunnel.",
      "source": "PennDOT"
    }
  ],
  "bridges": [
    {
      "id": "pit-fort-pitt-bridge",
      "name": "Fort Pitt Bridge (I-376)",
      "addr": "I-376 over Monongahela",
      "lat": 40.4407,
      "lng": -80.0085,
      "height_in": null,
      "height_label": "Over water",
      "notes": "Double-deck bridge emerging from Fort Pitt Tunnel.",
      "source": "PennDOT"
    },
    {
      "id": "pit-fort-duquesne",
      "name": "Fort Duquesne Bridge (I-279)",
      "addr": "I-279 over Allegheny",
      "lat": 40.4432,
      "lng": -80.0046,
      "height_in": null,
      "height_label": "Over water",
      "notes": "North Shore connector.",
      "source": "PennDOT"
    },
    {
      "id": "pit-roberto-clemente",
      "name": "Roberto Clemente Bridge (6th St)",
      "addr": "6th St over Allegheny",
      "lat": 40.4449,
      "lng": -80.0018,
      "height_in": null,
      "height_label": "Over water",
      "notes": "One of 'Three Sisters' identical bridges. Closed to cars on Pirates game days.",
      "source": "Wikipedia"
    },
    {
      "id": "pit-smithfield-st",
      "name": "Smithfield Street Bridge",
      "addr": "Smithfield St over Mon",
      "lat": 40.437,
      "lng": -80.0003,
      "height_in": null,
      "height_label": "Over water",
      "notes": "1883 lenticular truss \u2014 oldest steel bridge in US.",
      "source": "Wikipedia"
    },
    {
      "id": "nbi-42-000000000000492",
      "name": "Low on-bridge clearance: SR 8 SB",
      "addr": "SR 8 SB",
      "lat": 40.49573,
      "lng": -79.94001,
      "height_in": 175,
      "height_label": "14'7\"",
      "notes": "FHWA NBI; on-bridge clearance; built 1960",
      "source": "FHWA National Bridge Inventory"
    },
    {
      "id": "nbi-42-000000000000535",
      "name": "Low on-bridge clearance: West End Bridge",
      "addr": "West End Bridge",
      "lat": 40.44439,
      "lng": -80.02819,
      "height_in": 175,
      "height_label": "14'7\"",
      "notes": "FHWA NBI; on-bridge clearance; built 1930",
      "source": "FHWA National Bridge Inventory"
    },
    {
      "id": "nbi-42-000000000001019",
      "name": "Low on-bridge clearance: Fort Pitt Bridge",
      "addr": "Fort Pitt Bridge",
      "lat": 40.43875,
      "lng": -80.0116,
      "height_in": 171,
      "height_label": "14'3\"",
      "notes": "FHWA NBI; on-bridge clearance; built 1959",
      "source": "FHWA National Bridge Inventory"
    },
    {
      "id": "nbi-42-000000000001027",
      "name": "Low on-bridge clearance: RAMP F",
      "addr": "RAMP F",
      "lat": 40.44315,
      "lng": -80.00891,
      "height_in": 172,
      "height_label": "14'4\"",
      "notes": "FHWA NBI; on-bridge clearance; built 1968",
      "source": "FHWA National Bridge Inventory"
    },
    {
      "id": "nbi-42-000000000001120",
      "name": "Low on-bridge clearance: SR 376 WB  RAMP B",
      "addr": "SR 376 WB  RAMP B",
      "lat": 40.43959,
      "lng": -80.00935,
      "height_in": 172,
      "height_label": "14'4\"",
      "notes": "FHWA NBI; on-bridge clearance; built 1958",
      "source": "FHWA National Bridge Inventory"
    },
    {
      "id": "nbi-42-000000000001143",
      "name": "Low on-bridge clearance: I-376 EB",
      "addr": "I-376 EB",
      "lat": 40.43333,
      "lng": -79.96667,
      "height_in": 173,
      "height_label": "14'5\"",
      "notes": "FHWA NBI; on-bridge clearance; built 1956",
      "source": "FHWA National Bridge Inventory"
    },
    {
      "id": "nbi-42-000000000001876",
      "name": "Low on-bridge clearance: McKees Rocks Brg",
      "addr": "McKees Rocks Brg",
      "lat": 40.47597,
      "lng": -80.05646,
      "height_in": 172,
      "height_label": "14'4\"",
      "notes": "FHWA NBI; on-bridge clearance; built 1931",
      "source": "FHWA National Bridge Inventory"
    },
    {
      "id": "nbi-42-000000000002023",
      "name": "Low on-bridge clearance: EAST OHIO ST",
      "addr": "EAST OHIO ST",
      "lat": 40.45401,
      "lng": -79.99729,
      "height_in": 175,
      "height_label": "14'7\"",
      "notes": "FHWA NBI; on-bridge clearance; built 1986",
      "source": "FHWA National Bridge Inventory"
    },
    {
      "id": "nbi-42-000000000002403",
      "name": "Low on-bridge clearance: WEST CARSON ST",
      "addr": "WEST CARSON ST",
      "lat": 40.46492,
      "lng": -80.05356,
      "height_in": 179,
      "height_label": "14'11\"",
      "notes": "FHWA NBI; on-bridge clearance; built 1925",
      "source": "FHWA National Bridge Inventory"
    },
    {
      "id": "nbi-42-000000000002429",
      "name": "Low on-bridge clearance: MCARDLE RDWY",
      "addr": "MCARDLE RDWY",
      "lat": 40.42782,
      "lng": -79.99282,
      "height_in": 180,
      "height_label": "15'0\"",
      "notes": "FHWA NBI; on-bridge clearance; built 1933",
      "source": "FHWA National Bridge Inventory"
    },
    {
      "id": "nbi-42-000000000002461",
      "name": "Low on-bridge clearance: TWENTY EIGHTH ST",
      "addr": "TWENTY EIGHTH ST",
      "lat": 40.45596,
      "lng": -79.97335,
      "height_in": 163,
      "height_label": "13'7\"",
      "notes": "FHWA NBI; on-bridge clearance; built 1931",
      "source": "FHWA National Bridge Inventory"
    },
    {
      "id": "nbi-42-000000000002742",
      "name": "Low on-bridge clearance: RAMP T",
      "addr": "RAMP T",
      "lat": 40.44167,
      "lng": -79.96667,
      "height_in": 168,
      "height_label": "14'0\"",
      "notes": "FHWA NBI; on-bridge clearance; built 1956",
      "source": "FHWA National Bridge Inventory"
    },
    {
      "id": "nbi-42-000000000002783",
      "name": "Low on-bridge clearance: RAMP 8017 SB",
      "addr": "RAMP 8017 SB",
      "lat": 40.51833,
      "lng": -80.13333,
      "height_in": 176,
      "height_label": "14'8\"",
      "notes": "FHWA NBI; on-bridge clearance; built 1976",
      "source": "FHWA National Bridge Inventory"
    },
    {
      "id": "nbi-42-000000000002813",
      "name": "Low on-bridge clearance: RAMP A",
      "addr": "RAMP A",
      "lat": 40.43871,
      "lng": -80.01482,
      "height_in": 177,
      "height_label": "14'9\"",
      "notes": "FHWA NBI; on-bridge clearance; built 1959",
      "source": "FHWA National Bridge Inventory"
    },
    {
      "id": "nbi-42-000000000002877",
      "name": "Low on-bridge clearance: 8065 RAMP F",
      "addr": "8065 RAMP F",
      "lat": 40.43544,
      "lng": -79.97287,
      "height_in": 176,
      "height_label": "14'8\"",
      "notes": "FHWA NBI; on-bridge clearance; built 1976",
      "source": "FHWA National Bridge Inventory"
    },
    {
      "id": "nbi-42-000000000002901",
      "name": "Low on-bridge clearance: RAMP D",
      "addr": "RAMP D",
      "lat": 40.595,
      "lng": -79.75333,
      "height_in": 177,
      "height_label": "14'9\"",
      "notes": "FHWA NBI; on-bridge clearance; built 1952",
      "source": "FHWA National Bridge Inventory"
    },
    {
      "id": "nbi-42-000000000002908",
      "name": "Low on-bridge clearance: RAMP C",
      "addr": "RAMP C",
      "lat": 40.44167,
      "lng": -80.00833,
      "height_in": 179,
      "height_label": "14'11\"",
      "notes": "FHWA NBI; on-bridge clearance; built 1958",
      "source": "FHWA National Bridge Inventory"
    },
    {
      "id": "nbi-42-000000000035319",
      "name": "Low on-bridge clearance: HENRY COVERED BRDG",
      "addr": "HENRY COVERED BRDG",
      "lat": 40.20251,
      "lng": -80.01656,
      "height_in": 132,
      "height_label": "11'0\"",
      "notes": "FHWA NBI; on-bridge clearance; built 1881",
      "source": "FHWA National Bridge Inventory"
    },
    {
      "id": "nbi-42-000000000035320",
      "name": "Low on-bridge clearance: EBENEZER BRIDGE",
      "addr": "EBENEZER BRIDGE",
      "lat": 40.19209,
      "lng": -80.04037,
      "height_in": 132,
      "height_label": "11'0\"",
      "notes": "FHWA NBI; on-bridge clearance; built 1949",
      "source": "FHWA National Bridge Inventory"
    },
    {
      "id": "nbi-42-000000000040785",
      "name": "Low on-bridge clearance: HOT METAL STREET",
      "addr": "HOT METAL STREET",
      "lat": 40.42863,
      "lng": -79.96024,
      "height_in": 180,
      "height_label": "15'0\"",
      "notes": "FHWA NBI; on-bridge clearance; built 1904",
      "source": "FHWA National Bridge Inventory"
    },
    {
      "id": "nbi-42-000000000040852",
      "name": "Low on-bridge clearance: RAMP D to SR 65 SB",
      "addr": "RAMP D to SR 65 SB",
      "lat": 40.45833,
      "lng": -80.03333,
      "height_in": 179,
      "height_label": "14'11\"",
      "notes": "FHWA NBI; on-bridge clearance; built 1972",
      "source": "FHWA National Bridge Inventory"
    },
    {
      "id": "nbi-42-000000000042919",
      "name": "Low on-bridge clearance: PGH MILLS BLVD",
      "addr": "PGH MILLS BLVD",
      "lat": 40.56864,
      "lng": -79.79766,
      "height_in": 156,
      "height_label": "13'0\"",
      "notes": "FHWA NBI; on-bridge clearance; built 2005",
      "source": "FHWA National Bridge Inventory"
    },
    {
      "id": "nbi-42-000000000043172",
      "name": "Low on-bridge clearance: FORT DUQ BR (LOW)",
      "addr": "FORT DUQ BR (LOW)",
      "lat": 40.44417,
      "lng": -80.00913,
      "height_in": 167,
      "height_label": "13'11\"",
      "notes": "FHWA NBI; on-bridge clearance; built 1959",
      "source": "FHWA National Bridge Inventory"
    }
  ]
}
