{
  "garages": [
    {
      "id": "pvd-providence-place",
      "name": "Providence Place Mall Garage",
      "addr": "1 Providence Pl",
      "lat": 41.8269,
      "lng": -71.4142,
      "height_in": null,
      "height_label": null,
      "oversized": false,
      "notes": "Main downtown mall.",
      "source": "providenceplace.com",
      "entrance_lat": 41.8269553,
      "entrance_lng": -71.4156784,
      "entrance_source": "OSM parking_entrance node 8994212125"
    },
    {
      "id": "pvd-rhode-island-conv",
      "name": "RI Convention Center Garage",
      "addr": "1 Sabin St",
      "lat": 41.824,
      "lng": -71.4172,
      "height_in": null,
      "height_label": null,
      "oversized": false,
      "notes": "Connected to Amica Mutual Pavilion (Dunkin Donuts Ctr).",
      "source": "riconvention.com",
      "entrance_lat": 41.8240892,
      "entrance_lng": -71.4174531,
      "entrance_source": "OSM parking_entrance node 13085682084"
    },
    {
      "id": "pvd-amica-pavilion",
      "name": "Amica Mutual Pavilion (P-Bruins)",
      "addr": "1 LaSalle Square",
      "lat": 41.8223,
      "lng": -71.418,
      "height_in": null,
      "height_label": null,
      "oversized": false,
      "notes": "Formerly Dunkin Donuts Center.",
      "source": "amicamutualpavilion.com",
      "entrance_lat": 41.823374,
      "entrance_lng": -71.4192479,
      "entrance_source": "OSM parking_entrance node 11941557287"
    },
    {
      "id": "pvd-mcoy-stadium",
      "name": "McCoy Stadium (PawSox legacy \u2014 Pawtucket)",
      "addr": "1 Ben Mondor Way, Pawtucket",
      "lat": 41.877,
      "lng": -71.3728,
      "height_in": null,
      "height_label": "No limit (uncovered)",
      "oversized": false,
      "notes": "Former AAA PawSox stadium. Status uncertain post-move.",
      "source": "Needs verification"
    },
    {
      "id": "pvd-state-house",
      "name": "Rhode Island State House Lots",
      "addr": "82 Smith St",
      "lat": 41.8307,
      "lng": -71.4147,
      "height_in": null,
      "height_label": "No limit (uncovered)",
      "oversized": false,
      "notes": "Capitol grounds.",
      "source": "sos.ri.gov"
    },
    {
      "id": "pvd-kennedy-plaza",
      "name": "Kennedy Plaza / Burnside Park Lots",
      "addr": "1 Kennedy Plaza",
      "lat": 41.8237,
      "lng": -71.41,
      "height_in": null,
      "height_label": "No limit (uncovered)",
      "oversized": false,
      "notes": "Downtown transit + plaza.",
      "source": "providenceri.gov",
      "entrance_lat": 41.8248458,
      "entrance_lng": -71.4111437,
      "entrance_source": "OSM parking_entrance node 8998976882"
    },
    {
      "id": "pvd-waterplace-park",
      "name": "Waterplace Park Lots (WaterFire)",
      "addr": "1 Waterplace",
      "lat": 41.8272,
      "lng": -71.4134,
      "height_in": null,
      "height_label": "No limit (uncovered)",
      "oversized": false,
      "notes": "WaterFire installation art events.",
      "source": "waterfire.org",
      "entrance_lat": 41.8269553,
      "entrance_lng": -71.4156784,
      "entrance_source": "OSM parking_entrance node 8994212125"
    },
    {
      "id": "pvd-risd-museum",
      "name": "RISD Museum",
      "addr": "224 Benefit St",
      "lat": 41.8259,
      "lng": -71.4069,
      "height_in": null,
      "height_label": null,
      "oversized": false,
      "notes": "Rhode Island School of Design museum.",
      "source": "risdmuseum.org"
    },
    {
      "id": "pvd-providence-federal-hill",
      "name": "Federal Hill District Lots",
      "addr": "203 Atwells Ave",
      "lat": 41.8228,
      "lng": -71.4238,
      "height_in": null,
      "height_label": "No limit (uncovered)",
      "oversized": false,
      "notes": "Historic Italian district.",
      "source": "federalhillprovri.com"
    },
    {
      "id": "pvd-thayer-street",
      "name": "Thayer Street (Brown/RISD) Lots",
      "addr": "280 Thayer St",
      "lat": 41.8272,
      "lng": -71.4014,
      "height_in": null,
      "height_label": "No limit (uncovered)",
      "oversized": false,
      "notes": "College Hill shopping/dining.",
      "source": "Needs verification"
    },
    {
      "id": "pvd-roger-williams-park",
      "name": "Roger Williams Park & Zoo",
      "addr": "1000 Elmwood Ave",
      "lat": 41.7893,
      "lng": -71.4111,
      "height_in": null,
      "height_label": "No limit (uncovered)",
      "oversized": true,
      "notes": "Zoo + park + museum. Surface lots.",
      "source": "rwpzoo.org"
    },
    {
      "id": "pvd-prov-performing-arts",
      "name": "Providence Performing Arts Center (PPAC)",
      "addr": "220 Weybosset St",
      "lat": 41.8209,
      "lng": -71.4149,
      "height_in": null,
      "height_label": null,
      "oversized": false,
      "notes": "Historic PPAC. Downtown theater.",
      "source": "ppacri.org",
      "entrance_lat": 41.8205256,
      "entrance_lng": -71.4149149,
      "entrance_source": "OSM parking_entrance node 7143617003"
    },
    {
      "id": "pvd-providence-children",
      "name": "Providence Children's Museum",
      "addr": "100 South St",
      "lat": 41.8198,
      "lng": -71.4099,
      "height_in": null,
      "height_label": null,
      "oversized": false,
      "notes": "Museum.",
      "source": "childrenmuseum.org"
    },
    {
      "id": "pvd-garden-city",
      "name": "Garden City Center (Cranston)",
      "addr": "100 Hillside Rd, Cranston",
      "lat": 41.7598,
      "lng": -71.4398,
      "height_in": null,
      "height_label": "No limit (uncovered)",
      "oversized": false,
      "notes": "Open-air shopping center.",
      "source": "gardencitycenter.com",
      "entrance_lat": 41.761027,
      "entrance_lng": -71.4406438,
      "entrance_source": "Auto (nearest Street View pano within 300m, 2026-04-24)"
    },
    {
      "id": "pvd-twin-river-casino",
      "name": "Bally's Twin River Lincoln",
      "addr": "100 Twin River Rd, Lincoln",
      "lat": 41.9196,
      "lng": -71.4552,
      "height_in": null,
      "height_label": null,
      "oversized": true,
      "notes": "Casino garage + RV friendly lots.",
      "source": "ballys.com"
    },
    {
      "id": "pvd-wickford-village",
      "name": "Wickford Village (N. Kingstown)",
      "addr": "7817 Post Rd, N Kingstown",
      "lat": 41.5717,
      "lng": -71.4478,
      "height_in": null,
      "height_label": "No limit (uncovered)",
      "oversized": false,
      "notes": "Historic seafaring village.",
      "source": "Needs verification"
    },
    {
      "id": "pvd-newport-mansions",
      "name": "Newport Mansions Visitor Center (Newport)",
      "addr": "424 Bellevue Ave, Newport",
      "lat": 41.4709,
      "lng": -71.2999,
      "height_in": null,
      "height_label": "No limit (uncovered)",
      "oversized": false,
      "notes": "Gilded Age mansion tours. 35mi south.",
      "source": "newportmansions.org"
    },
    {
      "id": "pvd-newport-gateway",
      "name": "Newport Gateway Transportation Center",
      "addr": "23 America's Cup Ave, Newport",
      "lat": 41.4893,
      "lng": -71.3148,
      "height_in": null,
      "height_label": null,
      "oversized": false,
      "notes": "Newport transit + trolleys.",
      "source": "Needs verification"
    },
    {
      "id": "pvd-johnston-jackson",
      "name": "Johnston Shopping Lots",
      "addr": "1500 Hartford Ave, Johnston",
      "lat": 41.8288,
      "lng": -71.5033,
      "height_in": null,
      "height_label": "No limit (uncovered)",
      "oversized": false,
      "notes": "Suburban retail.",
      "source": "Needs verification"
    },
    {
      "id": "pvd-providence-amtrak",
      "name": "Providence Amtrak Station Lot",
      "addr": "100 Gaspee St",
      "lat": 41.8293,
      "lng": -71.4157,
      "height_in": null,
      "height_label": null,
      "oversized": false,
      "notes": "Amtrak + MBTA Commuter Rail.",
      "source": "amtrak.com",
      "entrance_lat": 41.8291835,
      "entrance_lng": -71.416761,
      "entrance_source": "OSM parking_entrance node 9023329017"
    },
    {
      "id": "pvd-airport-garage",
      "name": "TF Green (PVD) \u2014 Garage A/B",
      "addr": "2000 Post Rd, Warwick",
      "lat": 41.7263,
      "lng": -71.4356,
      "height_in": null,
      "height_label": null,
      "oversized": false,
      "notes": "PVD (Warwick). Terminal-adjacent.",
      "source": "flyri.com",
      "entrance_lat": 41.7271585,
      "entrance_lng": -71.4356144,
      "entrance_source": "OSM parking_entrance node 2099033346"
    },
    {
      "id": "pvd-airport-economy",
      "name": "PVD \u2014 Economy Lot",
      "addr": "2000 Post Rd, Warwick",
      "lat": 41.7222,
      "lng": -71.438,
      "height_in": null,
      "height_label": "No limit (uncovered)",
      "oversized": true,
      "notes": "Uncovered.",
      "source": "flyri.com",
      "entrance_lat": 41.7226194,
      "entrance_lng": -71.4389711,
      "entrance_source": "Auto (nearest Street View pano within 300m, 2026-04-24)"
    },
    {
      "id": "pvd-bristol-harbor",
      "name": "Bristol Harbor / Herreshoff Museum Lot",
      "addr": "1 Burnside St, Bristol",
      "lat": 41.6765,
      "lng": -71.2838,
      "height_in": null,
      "height_label": "No limit (uncovered)",
      "oversized": false,
      "notes": "Historic bay town.",
      "source": "herreshoff.org"
    }
  ],
  "tunnels": [],
  "bridges": [
    {
      "id": "pvd-pell-bridge",
      "name": "Claiborne Pell Newport Bridge (RI-138)",
      "addr": "RI-138 over Narragansett Bay",
      "lat": 41.5036,
      "lng": -71.3422,
      "height_in": null,
      "height_label": "Over water",
      "notes": "Toll bridge to Newport. Suspension span.",
      "source": "ritba.org"
    },
    {
      "id": "pvd-mt-hope-bridge",
      "name": "Mount Hope Bridge",
      "addr": "RI-114 over Mt Hope Bay",
      "lat": 41.6472,
      "lng": -71.2514,
      "height_in": null,
      "height_label": "Over water",
      "notes": "Suspension bridge Bristol to Portsmouth.",
      "source": "ritba.org"
    },
    {
      "id": "pvd-i95-low-prov",
      "name": "I-95 \u2014 Downtown Providence Underpasses",
      "addr": "I-95 downtown",
      "lat": 41.82,
      "lng": -71.4166,
      "height_in": 168,
      "height_label": "14'0\"",
      "notes": "Standard interstate clearance.",
      "source": "RIDOT"
    },
    {
      "id": "nbi-25-B06011BLJDOTNBI",
      "name": "Low clearance: TR    PEDESTRIAN PATH under ST126 S MAIN ST",
      "addr": "TR    PEDESTRIAN PATH",
      "lat": 42.03406,
      "lng": -71.49321,
      "height_in": 144,
      "height_label": "12'0\"",
      "notes": "FHWA NBI; under-bridge clearance; built 2015; bridge carries ST126 S MAIN ST",
      "source": "FHWA National Bridge Inventory"
    },
    {
      "id": "nbi-44-000000000000250",
      "name": "Low clearance: WASH SEC BIKE PATH under RI 33 PROVIDNCE ST",
      "addr": "WASH SEC BIKE PATH",
      "lat": 41.7346,
      "lng": -71.48305,
      "height_in": 113,
      "height_label": "9'5\"",
      "notes": "FHWA NBI; under-bridge clearance; built 2000; bridge carries RI 33 PROVIDNCE ST",
      "source": "FHWA National Bridge Inventory"
    },
    {
      "id": "nbi-44-000000000002790",
      "name": "Low clearance: WASH SEC BIKE PATH under MAIN ST",
      "addr": "WASH SEC BIKE PATH",
      "lat": 41.702,
      "lng": -71.52339,
      "height_in": 134,
      "height_label": "11'2\"",
      "notes": "FHWA NBI; under-bridge clearance; built 2000; bridge carries MAIN ST",
      "source": "FHWA National Bridge Inventory"
    },
    {
      "id": "nbi-44-000000000003280",
      "name": "Low clearance: WASH SEC BIKE PATH under GANSETT AV",
      "addr": "WASH SEC BIKE PATH",
      "lat": 41.78976,
      "lng": -71.45246,
      "height_in": 154,
      "height_label": "12'10\"",
      "notes": "FHWA NBI; under-bridge clearance; built 2000; bridge carries GANSETT AV",
      "source": "FHWA National Bridge Inventory"
    },
    {
      "id": "nbi-44-000000000003502",
      "name": "Low on-bridge clearance: AIRPORT ELEV RDWY",
      "addr": "AIRPORT ELEV RDWY",
      "lat": 41.72579,
      "lng": -71.4367,
      "height_in": 172,
      "height_label": "14'4\"",
      "notes": "FHWA NBI; on-bridge clearance; built 1996",
      "source": "FHWA National Bridge Inventory"
    },
    {
      "id": "nbi-44-000000000004280",
      "name": "Low on-bridge clearance: RI 146 ED DOWL HWY",
      "addr": "RI 146 ED DOWL HWY",
      "lat": 41.85307,
      "lng": -71.42656,
      "height_in": 177,
      "height_label": "14'9\"",
      "notes": "FHWA NBI; on-bridge clearance; built 1957",
      "source": "FHWA National Bridge Inventory"
    },
    {
      "id": "nbi-44-000000000006180",
      "name": "Low on-bridge clearance: SERVICE AV",
      "addr": "SERVICE AV",
      "lat": 41.73753,
      "lng": -71.44795,
      "height_in": 174,
      "height_label": "14'6\"",
      "notes": "FHWA NBI; on-bridge clearance; built 1965",
      "source": "FHWA National Bridge Inventory"
    },
    {
      "id": "nbi-44-000000000007740",
      "name": "Low clearance: BLACKSTONE CANAL under MARTIN ST",
      "addr": "BLACKSTONE CANAL",
      "lat": 41.92699,
      "lng": -71.43147,
      "height_in": 125,
      "height_label": "10'5\"",
      "notes": "FHWA NBI; under-bridge clearance; built 1900; bridge carries MARTIN ST",
      "source": "FHWA National Bridge Inventory"
    },
    {
      "id": "nbi-44-000000000008590",
      "name": "Low on-bridge clearance: CENTRAL PIKE",
      "addr": "CENTRAL PIKE",
      "lat": 41.79952,
      "lng": -71.72955,
      "height_in": 175,
      "height_label": "14'7\"",
      "notes": "FHWA NBI; on-bridge clearance; built 1953",
      "source": "FHWA National Bridge Inventory"
    },
    {
      "id": "nbi-44-000000000009420",
      "name": "Low clearance: E BAY BICYCLE FAC under BRIDGE ST",
      "addr": "E BAY BICYCLE FAC",
      "lat": 41.7211,
      "lng": -71.28274,
      "height_in": 118,
      "height_label": "9'10\"",
      "notes": "FHWA NBI; under-bridge clearance; built 1993; bridge carries BRIDGE ST",
      "source": "FHWA National Bridge Inventory"
    },
    {
      "id": "nbi-44-000000000009430",
      "name": "Low on-bridge clearance: CHURCH ST",
      "addr": "CHURCH ST",
      "lat": 41.90755,
      "lng": -71.39208,
      "height_in": 151,
      "height_label": "12'7\"",
      "notes": "FHWA NBI; on-bridge clearance; built 1882",
      "source": "FHWA National Bridge Inventory"
    },
    {
      "id": "nbi-44-000000000009560",
      "name": "Low on-bridge clearance: RIVER ST",
      "addr": "RIVER ST",
      "lat": 42.00519,
      "lng": -71.52485,
      "height_in": 179,
      "height_label": "14'11\"",
      "notes": "FHWA NBI; on-bridge clearance; built 1959",
      "source": "FHWA National Bridge Inventory"
    },
    {
      "id": "nbi-44-000000000009860",
      "name": "Low on-bridge clearance: RI 99 NB & SB",
      "addr": "RI 99 NB & SB",
      "lat": 41.96448,
      "lng": -71.48446,
      "height_in": 179,
      "height_label": "14'11\"",
      "notes": "FHWA NBI; on-bridge clearance; built 1991",
      "source": "FHWA National Bridge Inventory"
    },
    {
      "id": "nbi-44-000000000010970",
      "name": "Low clearance: India Pt Bike Path under India Street",
      "addr": "India Pt Bike Path",
      "lat": 41.81804,
      "lng": -71.39162,
      "height_in": 89,
      "height_label": "7'5\"",
      "notes": "FHWA NBI; under-bridge clearance; built 2008; bridge carries India Street",
      "source": "FHWA National Bridge Inventory"
    }
  ]
}
