{
  "garages": [
    { "id": "stp-xcel-center", "name": "Xcel Energy Center (Wild)", "addr": "199 W Kellogg Blvd", "lat": 44.9449, "lng": -93.1011, "height_in": null, "height_label": null, "oversized": false, "notes": "Wild arena + RiverCentre. Attached garage.", "source": "xcelenergycenter.com" },
    { "id": "stp-rivercentre", "name": "Saint Paul RiverCentre", "addr": "175 W Kellogg Blvd", "lat": 44.9447, "lng": -93.1018, "height_in": null, "height_label": null, "oversized": false, "notes": "Convention center. Shared Xcel garage.", "source": "rivercentre.org" },
    { "id": "stp-lowertown", "name": "Lowertown District Lots", "addr": "214 E 4th St", "lat": 44.9500, "lng": -93.0894, "height_in": null, "height_label": "No limit (uncovered)", "oversized": false, "notes": "Historic warehouse district.", "source": "Needs verification" },
    { "id": "stp-union-depot", "name": "Union Depot", "addr": "214 E 4th St", "lat": 44.9486, "lng": -93.0877, "height_in": null, "height_label": null, "oversized": false, "notes": "Amtrak + light rail hub.", "source": "uniondepot.org" },
    { "id": "stp-chs-field", "name": "CHS Field (Saints)", "addr": "360 N Broadway St", "lat": 44.9522, "lng": -93.0858, "height_in": null, "height_label": "No limit (uncovered)", "oversized": false, "notes": "St. Paul Saints ballpark.", "source": "saintsbaseball.com" },
    { "id": "stp-allianz-field", "name": "Allianz Field (MN United)", "addr": "400 Snelling Ave N", "lat": 44.9537, "lng": -93.1654, "height_in": null, "height_label": "No limit (uncovered)", "oversized": false, "notes": "MLS stadium. Midway area.", "source": "mnufc.com" },
    { "id": "stp-state-capitol", "name": "Minnesota State Capitol Lot", "addr": "75 Rev Dr Martin Luther King Jr Blvd", "lat": 44.9552, "lng": -93.1022, "height_in": null, "height_label": "No limit (uncovered)", "oversized": false, "notes": "Capitol Mall surface lots.", "source": "mn.gov" },
    { "id": "stp-ordway-ramp", "name": "Ordway / Kellogg Ramp", "addr": "345 Washington St", "lat": 44.9433, "lng": -93.0996, "height_in": null, "height_label": null, "oversized": false, "notes": "City ramp. Ordway Performing Arts.", "source": "stpaul.gov" },
    { "id": "stp-world-trade-center", "name": "World Trade Center Parking Ramp", "addr": "11 E 4th St", "lat": 44.9465, "lng": -93.0940, "height_in": null, "height_label": null, "oversized": false, "notes": "Downtown office.", "source": "Needs verification" },
    { "id": "stp-science-museum", "name": "Science Museum of Minnesota", "addr": "120 W Kellogg Blvd", "lat": 44.9442, "lng": -93.0976, "height_in": null, "height_label": null, "oversized": false, "notes": "Museum ramp.", "source": "smm.org" },
    { "id": "stp-cathedral", "name": "Cathedral of St. Paul Lot", "addr": "239 Selby Ave", "lat": 44.9453, "lng": -93.1106, "height_in": null, "height_label": "No limit (uncovered)", "oversized": false, "notes": "Cathedral Hill.", "source": "cathedralsaintpaul.org" },
    { "id": "stp-como-park", "name": "Como Park Zoo & Conservatory", "addr": "1225 Estabrook Dr", "lat": 44.9805, "lng": -93.1530, "height_in": null, "height_label": "No limit (uncovered)", "oversized": true, "notes": "Free zoo + conservatory. Surface lots.", "source": "comozooconservatory.org" },
    { "id": "stp-grand-ave", "name": "Grand Avenue District Lots", "addr": "1025 Grand Ave", "lat": 44.9401, "lng": -93.1349, "height_in": null, "height_label": "No limit (uncovered)", "oversized": false, "notes": "Shopping district street + lots.", "source": "Needs verification" },
    { "id": "stp-ua-midway", "name": "Midway Shopping Center / Target", "addr": "1390 University Ave W", "lat": 44.9556, "lng": -93.1634, "height_in": null, "height_label": "No limit (uncovered)", "oversized": false, "notes": "Midway retail district.", "source": "Needs verification" },
    { "id": "stp-mosaic", "name": "Mall of America Mosaic — Lot D", "addr": "60 E Broadway, Bloomington", "lat": 44.8557, "lng": -93.2423, "height_in": null, "height_label": "No limit (uncovered)", "oversized": true, "notes": "Mall of America overflow lot.", "source": "mallofamerica.com" },
    { "id": "stp-lone-oak-rosedale", "name": "Rosedale Center (Roseville)", "addr": "10 Rosedale Ctr, Roseville", "lat": 45.0119, "lng": -93.1706, "height_in": null, "height_label": null, "oversized": false, "notes": "Enclosed mall.", "source": "rosedalecenter.com" },
    { "id": "stp-minnesota-history-ctr", "name": "Minnesota History Center", "addr": "345 W Kellogg Blvd", "lat": 44.9504, "lng": -93.1036, "height_in": null, "height_label": null, "oversized": false, "notes": "Museum garage.", "source": "mnhs.org" },
    { "id": "stp-macalester-college", "name": "Macalester College Visitor Lot", "addr": "1600 Grand Ave", "lat": 44.9379, "lng": -93.1695, "height_in": null, "height_label": "No limit (uncovered)", "oversized": false, "notes": "Liberal arts college.", "source": "macalester.edu" },
    { "id": "stp-minnesota-state-fair", "name": "Minnesota State Fairgrounds (Falcon Heights)", "addr": "1265 Snelling Ave N", "lat": 44.9813, "lng": -93.1702, "height_in": null, "height_label": "No limit (uncovered)", "oversized": true, "notes": "State Fair. Massive surface lots + RV camping.", "source": "mnstatefair.org" },
    { "id": "stp-summit-hill", "name": "Summit Avenue Historic District", "addr": "Summit Ave", "lat": 44.9417, "lng": -93.1296, "height_in": null, "height_label": "No limit (uncovered)", "oversized": false, "notes": "Victorian mansions. Street parking.", "source": "Needs verification" },
    { "id": "stp-como-park-pavilion", "name": "Como Park Pavilion / Golf Course", "addr": "1199 Midway Pkwy", "lat": 44.9820, "lng": -93.1478, "height_in": null, "height_label": "No limit (uncovered)", "oversized": true, "notes": "Pavilion + golf + paddle boats.", "source": "stpaul.gov" },
    { "id": "stp-harriet-island", "name": "Harriet Island Regional Park", "addr": "200 Dr Justus Ohage Blvd", "lat": 44.9400, "lng": -93.0873, "height_in": null, "height_label": "No limit (uncovered)", "oversized": true, "notes": "Mississippi riverfront.", "source": "stpaul.gov" },
    { "id": "stp-indian-mounds", "name": "Indian Mounds Regional Park", "addr": "10 Mounds Blvd", "lat": 44.9525, "lng": -93.0622, "height_in": null, "height_label": "No limit (uncovered)", "oversized": true, "notes": "Historic Dakota burial mounds overlook.", "source": "stpaul.gov" }
  ],
  "tunnels": [],
  "bridges": [
    { "id": "stp-wabasha-st-bridge", "name": "Wabasha Street Bridge", "addr": "Wabasha St over Mississippi", "lat": 44.9429, "lng": -93.0923, "height_in": null, "height_label": "Over water", "notes": "Downtown St. Paul bridge to West Side.", "source": "MnDOT" },
    { "id": "stp-smith-ave-high", "name": "Smith Avenue High Bridge", "addr": "Smith Ave over Mississippi", "lat": 44.9344, "lng": -93.1103, "height_in": null, "height_label": "Over water", "notes": "Dramatic high bridge.", "source": "MnDOT" },
    { "id": "stp-robert-st", "name": "Robert Street Bridge", "addr": "Robert St over Mississippi", "lat": 44.9411, "lng": -93.0877, "height_in": null, "height_label": "Over water", "notes": "Historic 1926 arch bridge.", "source": "Wikipedia" }
  ]
}
