{
  "garages": [
    {
      "id": "stp-xcel-center",
      "name": "Xcel Energy Center (Wild)",
      "addr": "199 W Kellogg Blvd",
      "lat": 44.9449,
      "lng": -93.1011,
      "height_in": null,
      "height_label": null,
      "oversized": false,
      "notes": "Wild arena + RiverCentre. Attached garage.",
      "source": "xcelenergycenter.com",
      "entrance_lat": 44.943623,
      "entrance_lng": -93.1024276,
      "entrance_source": "OSM parking_entrance node 13753021107"
    },
    {
      "id": "stp-rivercentre",
      "name": "Saint Paul RiverCentre",
      "addr": "175 W Kellogg Blvd",
      "lat": 44.9447,
      "lng": -93.1018,
      "height_in": null,
      "height_label": null,
      "oversized": false,
      "notes": "Convention center. Shared Xcel garage.",
      "source": "rivercentre.org",
      "entrance_lat": 44.943623,
      "entrance_lng": -93.1024276,
      "entrance_source": "OSM parking_entrance node 13753021107"
    },
    {
      "id": "stp-lowertown",
      "name": "Lowertown District Lots",
      "addr": "214 E 4th St",
      "lat": 44.95,
      "lng": -93.0894,
      "height_in": null,
      "height_label": "No limit (uncovered)",
      "oversized": false,
      "notes": "Historic warehouse district.",
      "source": "Needs verification",
      "entrance_lat": 44.9504961,
      "entrance_lng": -93.0870722,
      "entrance_source": "OSM parking_entrance node 3616447562"
    },
    {
      "id": "stp-union-depot",
      "name": "Union Depot",
      "addr": "214 E 4th St",
      "lat": 44.9486,
      "lng": -93.0877,
      "height_in": null,
      "height_label": null,
      "oversized": false,
      "notes": "Amtrak + light rail hub.",
      "source": "uniondepot.org",
      "entrance_lat": 44.9473462,
      "entrance_lng": -93.0866518,
      "entrance_source": "OSM parking_entrance node 2053875086"
    },
    {
      "id": "stp-chs-field",
      "name": "CHS Field (Saints)",
      "addr": "360 N Broadway St",
      "lat": 44.9522,
      "lng": -93.0858,
      "height_in": null,
      "height_label": "No limit (uncovered)",
      "oversized": false,
      "notes": "St. Paul Saints ballpark.",
      "source": "saintsbaseball.com"
    },
    {
      "id": "stp-allianz-field",
      "name": "Allianz Field (MN United)",
      "addr": "400 Snelling Ave N",
      "lat": 44.9537,
      "lng": -93.1654,
      "height_in": null,
      "height_label": "No limit (uncovered)",
      "oversized": false,
      "notes": "MLS stadium. Midway area.",
      "source": "mnufc.com"
    },
    {
      "id": "stp-state-capitol",
      "name": "Minnesota State Capitol Lot",
      "addr": "75 Rev Dr Martin Luther King Jr Blvd",
      "lat": 44.9552,
      "lng": -93.1022,
      "height_in": null,
      "height_label": "No limit (uncovered)",
      "oversized": false,
      "notes": "Capitol Mall surface lots.",
      "source": "mn.gov"
    },
    {
      "id": "stp-ordway-ramp",
      "name": "Ordway / Kellogg Ramp",
      "addr": "345 Washington St",
      "lat": 44.9433,
      "lng": -93.0996,
      "height_in": null,
      "height_label": null,
      "oversized": false,
      "notes": "City ramp. Ordway Performing Arts.",
      "source": "stpaul.gov",
      "entrance_lat": 44.9438951,
      "entrance_lng": -93.0985227,
      "entrance_source": "OSM parking_entrance node 13750502474"
    },
    {
      "id": "stp-world-trade-center",
      "name": "World Trade Center Parking Ramp",
      "addr": "11 E 4th St",
      "lat": 44.9465,
      "lng": -93.094,
      "height_in": null,
      "height_label": null,
      "oversized": false,
      "notes": "Downtown office.",
      "source": "Needs verification",
      "entrance_lat": 44.9471828,
      "entrance_lng": -93.0942862,
      "entrance_source": "OSM parking_entrance node 13019702813"
    },
    {
      "id": "stp-science-museum",
      "name": "Science Museum of Minnesota",
      "addr": "120 W Kellogg Blvd",
      "lat": 44.9442,
      "lng": -93.0976,
      "height_in": null,
      "height_label": null,
      "oversized": false,
      "notes": "Museum ramp.",
      "source": "smm.org",
      "entrance_lat": 44.9438888,
      "entrance_lng": -93.0984607,
      "entrance_source": "OSM parking_entrance node 13750502472"
    },
    {
      "id": "stp-como-park",
      "name": "Como Park Zoo & Conservatory",
      "addr": "1225 Estabrook Dr",
      "lat": 44.9805,
      "lng": -93.153,
      "height_in": null,
      "height_label": "No limit (uncovered)",
      "oversized": true,
      "notes": "Free zoo + conservatory. Surface lots.",
      "source": "comozooconservatory.org"
    },
    {
      "id": "stp-grand-ave",
      "name": "Grand Avenue District Lots",
      "addr": "1025 Grand Ave",
      "lat": 44.9401,
      "lng": -93.1349,
      "height_in": null,
      "height_label": "No limit (uncovered)",
      "oversized": false,
      "notes": "Shopping district street + lots.",
      "source": "Needs verification"
    },
    {
      "id": "stp-ua-midway",
      "name": "Midway Shopping Center / Target",
      "addr": "1390 University Ave W",
      "lat": 44.9556,
      "lng": -93.1634,
      "height_in": null,
      "height_label": "No limit (uncovered)",
      "oversized": false,
      "notes": "Midway retail district.",
      "source": "Needs verification"
    },
    {
      "id": "stp-mosaic",
      "name": "Mall of America Mosaic \u2014 Lot D",
      "addr": "60 E Broadway, Bloomington",
      "lat": 44.8557,
      "lng": -93.2423,
      "height_in": null,
      "height_label": "No limit (uncovered)",
      "oversized": true,
      "notes": "Mall of America overflow lot.",
      "source": "mallofamerica.com"
    },
    {
      "id": "stp-lone-oak-rosedale",
      "name": "Rosedale Center (Roseville)",
      "addr": "10 Rosedale Ctr, Roseville",
      "lat": 45.0119,
      "lng": -93.1706,
      "height_in": null,
      "height_label": null,
      "oversized": false,
      "notes": "Enclosed mall.",
      "source": "rosedalecenter.com",
      "entrance_lat": 45.0119068,
      "entrance_lng": -93.1721977,
      "entrance_source": "OSM parking_entrance node 9754433576"
    },
    {
      "id": "stp-minnesota-history-ctr",
      "name": "Minnesota History Center",
      "addr": "345 W Kellogg Blvd",
      "lat": 44.9504,
      "lng": -93.1036,
      "height_in": null,
      "height_label": null,
      "oversized": false,
      "notes": "Museum garage.",
      "source": "mnhs.org"
    },
    {
      "id": "stp-macalester-college",
      "name": "Macalester College Visitor Lot",
      "addr": "1600 Grand Ave",
      "lat": 44.9379,
      "lng": -93.1695,
      "height_in": null,
      "height_label": "No limit (uncovered)",
      "oversized": false,
      "notes": "Liberal arts college.",
      "source": "macalester.edu"
    },
    {
      "id": "stp-minnesota-state-fair",
      "name": "Minnesota State Fairgrounds (Falcon Heights)",
      "addr": "1265 Snelling Ave N",
      "lat": 44.9813,
      "lng": -93.1702,
      "height_in": null,
      "height_label": "No limit (uncovered)",
      "oversized": true,
      "notes": "State Fair. Massive surface lots + RV camping.",
      "source": "mnstatefair.org"
    },
    {
      "id": "stp-summit-hill",
      "name": "Summit Avenue Historic District",
      "addr": "Summit Ave",
      "lat": 44.9417,
      "lng": -93.1296,
      "height_in": null,
      "height_label": "No limit (uncovered)",
      "oversized": false,
      "notes": "Victorian mansions. Street parking.",
      "source": "Needs verification"
    },
    {
      "id": "stp-como-park-pavilion",
      "name": "Como Park Pavilion / Golf Course",
      "addr": "1199 Midway Pkwy",
      "lat": 44.982,
      "lng": -93.1478,
      "height_in": null,
      "height_label": "No limit (uncovered)",
      "oversized": true,
      "notes": "Pavilion + golf + paddle boats.",
      "source": "stpaul.gov"
    },
    {
      "id": "stp-harriet-island",
      "name": "Harriet Island Regional Park",
      "addr": "200 Dr Justus Ohage Blvd",
      "lat": 44.94,
      "lng": -93.0873,
      "height_in": null,
      "height_label": "No limit (uncovered)",
      "oversized": true,
      "notes": "Mississippi riverfront.",
      "source": "stpaul.gov"
    },
    {
      "id": "stp-indian-mounds",
      "name": "Indian Mounds Regional Park",
      "addr": "10 Mounds Blvd",
      "lat": 44.9525,
      "lng": -93.0622,
      "height_in": null,
      "height_label": "No limit (uncovered)",
      "oversized": true,
      "notes": "Historic Dakota burial mounds overlook.",
      "source": "stpaul.gov"
    },
    {
      "id": "osm-w142045375",
      "name": "Impark",
      "addr": "177 Exchange Street South",
      "lat": 44.94337,
      "lng": -93.10222,
      "height_in": null,
      "height_label": "No limit (uncovered)",
      "oversized": true,
      "structure_type": "surface_lot",
      "notes": "Imported 2026 from OSM as an oversized-vehicle-friendly surface lot: large capacity (74 spaces). 74 spaces. Operator: Impark.",
      "source": "OpenStreetMap (surface lot)"
    },
    {
      "id": "osm-w385624011",
      "name": "St. Anthony Center Parking",
      "addr": "",
      "lat": 45.01535,
      "lng": -93.21942,
      "height_in": null,
      "height_label": "No limit (uncovered)",
      "oversized": true,
      "structure_type": "surface_lot",
      "notes": "Imported 2026 from OSM as an oversized-vehicle-friendly surface lot: large capacity (80 spaces). 80 spaces.",
      "source": "OpenStreetMap (surface lot)"
    },
    {
      "id": "osm-w618933059",
      "name": "City of Oakdale",
      "addr": "",
      "lat": 44.97095,
      "lng": -92.96828,
      "height_in": null,
      "height_label": "No limit (uncovered)",
      "oversized": true,
      "structure_type": "surface_lot",
      "notes": "Imported 2026 from OSM as an oversized-vehicle-friendly surface lot: large capacity (75 spaces). 75 spaces. Free parking. Operator: City of Oakdale.",
      "source": "OpenStreetMap (surface lot)"
    }
  ],
  "tunnels": [],
  "bridges": [
    {
      "id": "stp-wabasha-st-bridge",
      "name": "Wabasha Street Bridge",
      "addr": "Wabasha St over Mississippi",
      "lat": 44.9429,
      "lng": -93.0923,
      "height_in": null,
      "height_label": "Over water",
      "notes": "Downtown St. Paul bridge to West Side.",
      "source": "MnDOT"
    },
    {
      "id": "stp-smith-ave-high",
      "name": "Smith Avenue High Bridge",
      "addr": "Smith Ave over Mississippi",
      "lat": 44.9344,
      "lng": -93.1103,
      "height_in": null,
      "height_label": "Over water",
      "notes": "Dramatic high bridge.",
      "source": "MnDOT"
    },
    {
      "id": "stp-robert-st",
      "name": "Robert Street Bridge",
      "addr": "Robert St over Mississippi",
      "lat": 44.9411,
      "lng": -93.0877,
      "height_in": null,
      "height_label": "Over water",
      "notes": "Historic 1926 arch bridge.",
      "source": "Wikipedia"
    }
  ]
}
