{
  "garages": [
    {
      "id": "sat-grand-hyatt",
      "name": "Grand Hyatt San Antonio Riverwalk Garage",
      "addr": "600 E Market St",
      "lat": 29.425,
      "lng": -98.4877,
      "height_in": null,
      "height_label": null,
      "oversized": false,
      "notes": "No oversized vehicles, toppers, or trailers per hotel policy.",
      "source": "Hyatt",
      "entrance_lat": 29.4249611,
      "entrance_lng": -98.4857654,
      "entrance_source": "OSM parking_entrance node 13190864772"
    },
    {
      "id": "sat-hyatt-regency",
      "name": "Hyatt Regency San Antonio Riverwalk Garage",
      "addr": "123 Losoya St",
      "lat": 29.426,
      "lng": -98.4889,
      "height_in": 72,
      "height_label": "6'0\"",
      "oversized": false,
      "notes": "No oversized per policy. $8 premium for oversized vehicles.\nVerified 2026-04-23 from sign reading \"CLEARANCE 6'-0\" (pano ta4Pw2kQJ_gk10k2HVyOhw, heading 0.0\u00b0, Claude confidence high [+1 more section(s)])",
      "source": "AI-verified (Street View + Claude Vision \u2014 auto-pano) \u2014 was: Hyatt",
      "entrance_lat": 29.4259379,
      "entrance_lng": -98.4900592,
      "entrance_source": "OSM parking_entrance node 9566226791",
      "verified_on": "2026-04-23",
      "pano_id": "ta4Pw2kQJ_gk10k2HVyOhw",
      "pano_heading": 0.0,
      "sections": [
        {
          "label": "Enter/Main entrance",
          "height_in": 72,
          "height_label": "6'0\""
        },
        {
          "label": "Reserved",
          "height_in": 84,
          "height_label": "7'0\""
        }
      ]
    },
    {
      "id": "sat-houston-st",
      "name": "SAPark \u2014 Houston Street Garage",
      "addr": "230 E Houston St",
      "lat": 29.4263,
      "lng": -98.4915,
      "height_in": 72,
      "height_label": "6'0\"",
      "oversized": false,
      "notes": "City-owned. Near The Alamo, Riverwalk.\nVerified 2026-04-23 from sign reading \"CLEARANCE 6'0\"\" (pano lGYkaNSF_BGlyvWgNMEAlg, heading 0\u00b0, Claude confidence medium [+1 more section(s)])",
      "source": "AI-verified (Street View + Claude Vision \u2014 auto-pano) \u2014 was: sapark.sanantonio.gov",
      "entrance_lat": 29.4259391,
      "entrance_lng": -98.490314,
      "entrance_source": "OSM parking_entrance node 9566226796",
      "verified_on": "2026-04-23",
      "pano_id": "lGYkaNSF_BGlyvWgNMEAlg",
      "pano_heading": 0,
      "sections": [
        {
          "label": "Entrance/Exit",
          "height_in": 72,
          "height_label": "6'0\""
        },
        {
          "label": "EXIT",
          "height_in": 84,
          "height_label": "7'0\""
        }
      ]
    },
    {
      "id": "sat-market-sq",
      "name": "SAPark \u2014 Market Square Garage",
      "addr": "600 Santa Rosa Ave",
      "lat": 29.4257,
      "lng": -98.4966,
      "height_in": 84,
      "height_label": "7'0\"",
      "oversized": false,
      "notes": "City-owned. Serves El Mercado, historic market.\nVerified 2026-04-23 from sign reading \"7'0\"\" (pano 5wD_pJ9vj23IY3tml08-2A, heading 90\u00b0, Claude confidence medium)",
      "source": "AI-verified (Street View + Claude Vision \u2014 auto-pano) \u2014 was: sapark.sanantonio.gov",
      "entrance_lat": 29.425631,
      "entrance_lng": -98.4978751,
      "entrance_source": "OSM parking_entrance node 3607958090",
      "verified_on": "2026-04-23",
      "pano_id": "5wD_pJ9vj23IY3tml08-2A",
      "pano_heading": 90
    },
    {
      "id": "sat-convention-ctr",
      "name": "SAPark \u2014 Convention Center Garage",
      "addr": "125 Bowie St",
      "lat": 29.4225,
      "lng": -98.4866,
      "height_in": null,
      "height_label": null,
      "oversized": false,
      "notes": "Henry B. Gonzalez Convention Center.",
      "source": "sapark.sanantonio.gov",
      "entrance_lat": 29.4233701,
      "entrance_lng": -98.4856193,
      "entrance_source": "OSM parking_entrance node 12464215928"
    },
    {
      "id": "sat-st-marys",
      "name": "SAPark \u2014 St. Mary's Garage",
      "addr": "217 N St Mary's St",
      "lat": 29.4273,
      "lng": -98.4939,
      "height_in": 84,
      "height_label": "7'0\"",
      "oversized": false,
      "notes": "Downtown core.\nVerified 2026-04-23 from sign reading \"7'0\"\" (pano 0_pMDuKtaZSgGftUYAeFfw, heading 45\u00b0, Claude confidence medium)",
      "source": "AI-verified (Street View + Claude Vision \u2014 auto-pano) \u2014 was: sapark.sanantonio.gov",
      "entrance_lat": 29.4280339,
      "entrance_lng": -98.493173,
      "entrance_source": "OSM parking_entrance node 1663731431",
      "verified_on": "2026-04-23",
      "pano_id": "0_pMDuKtaZSgGftUYAeFfw",
      "pano_heading": 45
    },
    {
      "id": "sat-rivercenter",
      "name": "Shops at Rivercenter Garage",
      "addr": "849 E Commerce St",
      "lat": 29.4245,
      "lng": -98.4855,
      "height_in": null,
      "height_label": null,
      "oversized": false,
      "notes": "Major Riverwalk mall garage.",
      "source": "Needs verification",
      "entrance_lat": 29.4249611,
      "entrance_lng": -98.4857654,
      "entrance_source": "OSM parking_entrance node 13190864772"
    },
    {
      "id": "sat-alamodome",
      "name": "Alamodome \u2014 Surface Lots",
      "addr": "100 Montana St",
      "lat": 29.417,
      "lng": -98.479,
      "height_in": null,
      "height_label": "No limit (uncovered)",
      "oversized": true,
      "notes": "Event/sports surface lots. Oversized OK.",
      "source": "Alamodome",
      "structure_type": "surface_lot"
    },
    {
      "id": "sat-atnt-center",
      "name": "AT&T Center \u2014 Spurs Parking",
      "addr": "1 AT&T Center Pkwy",
      "lat": 29.427,
      "lng": -98.4375,
      "height_in": null,
      "height_label": "No limit (uncovered)",
      "oversized": true,
      "notes": "Spurs arena. Open surface parking.",
      "source": "AT&T Center",
      "structure_type": "surface_lot"
    },
    {
      "id": "sat-pearl-garage",
      "name": "The Pearl \u2014 Full Goods Garage",
      "addr": "200 E Grayson St",
      "lat": 29.4423,
      "lng": -98.4782,
      "height_in": null,
      "height_label": null,
      "oversized": false,
      "notes": "Pearl District mixed-use.",
      "source": "Needs verification",
      "entrance_lat": 29.4430708,
      "entrance_lng": -98.4775804,
      "entrance_source": "OSM parking_entrance node 10246074206"
    },
    {
      "id": "sat-utsa-bauerle",
      "name": "UTSA \u2014 Bauerle Road Garage",
      "addr": "One UTSA Cir",
      "lat": 29.5821,
      "lng": -98.6195,
      "height_in": 84,
      "height_label": "7'0\"",
      "oversized": false,
      "notes": "UTSA Main Campus.\nVerified 2026-04-23 from sign reading \"7'0\"\" (pano BfHDCVlEBt5hQSHGi5zvEQ, heading 45\u00b0, Claude confidence high)",
      "source": "AI-verified (Street View + Claude Vision \u2014 auto-pano) \u2014 was: utsa.edu",
      "entrance_lat": 29.5823442,
      "entrance_lng": -98.6195039,
      "entrance_source": "OSM parking_entrance node 2552018192",
      "verified_on": "2026-04-23",
      "pano_id": "BfHDCVlEBt5hQSHGi5zvEQ",
      "pano_heading": 45
    },
    {
      "id": "sat-sat-airport",
      "name": "San Antonio Airport \u2014 Short/Long Term",
      "addr": "9800 Airport Blvd",
      "lat": 29.5337,
      "lng": -98.4698,
      "height_in": null,
      "height_label": null,
      "oversized": false,
      "notes": "SAT terminal garages.",
      "source": "flysanantonio.com"
    },
    {
      "id": "sat-sat-ecopark",
      "name": "San Antonio Airport \u2014 Economy/Cell",
      "addr": "9800 Airport Blvd",
      "lat": 29.5376,
      "lng": -98.4716,
      "height_in": null,
      "height_label": "No limit (uncovered)",
      "oversized": true,
      "notes": "Uncovered economy. Oversized OK.",
      "source": "flysanantonio.com",
      "structure_type": "surface_lot",
      "entrance_lat": 29.5398039,
      "entrance_lng": -98.4708283,
      "entrance_source": "Auto (nearest Street View pano within 300m, 2026-04-24)"
    },
    {
      "id": "sat-six-flags",
      "name": "Six Flags Fiesta Texas \u2014 Main Lot",
      "addr": "17000 I-10 W, San Antonio",
      "lat": 29.5996,
      "lng": -98.6098,
      "height_in": null,
      "height_label": "No limit (uncovered)",
      "oversized": true,
      "notes": "Surface lot at theme park. $30+ parking. Oversized + RV OK.",
      "source": "sixflags.com",
      "structure_type": "surface_lot"
    },
    {
      "id": "sat-seaworld",
      "name": "SeaWorld San Antonio Parking",
      "addr": "10500 SeaWorld Dr, San Antonio",
      "lat": 29.4575,
      "lng": -98.6995,
      "height_in": null,
      "height_label": "No limit (uncovered)",
      "oversized": true,
      "notes": "250-acre park surface lots. Oversized OK.",
      "source": "seaworld.com",
      "structure_type": "surface_lot"
    },
    {
      "id": "sat-alamo-garage",
      "name": "SAPark \u2014 The Alamo / Crockett Garage",
      "addr": "211 Bonham St",
      "lat": 29.4253,
      "lng": -98.4859,
      "height_in": null,
      "height_label": null,
      "oversized": false,
      "notes": "Closest garage to The Alamo. City-owned.",
      "source": "sapark.sanantonio.gov",
      "entrance_lat": 29.4249611,
      "entrance_lng": -98.4857654,
      "entrance_source": "OSM parking_entrance node 13190864772"
    },
    {
      "id": "sat-navarro",
      "name": "SAPark \u2014 Navarro Garage",
      "addr": "126 Navarro St",
      "lat": 29.4253,
      "lng": -98.4926,
      "height_in": 138,
      "height_label": "11'6\"",
      "oversized": false,
      "notes": "Riverwalk-adjacent city garage.\nVerified 2026-04-23 from sign reading \"11'6\"\" (pano byYigSTi7cjHnOsKYJURwQ, heading 45\u00b0, Claude confidence medium)",
      "source": "AI-verified (Street View + Claude Vision \u2014 auto-pano) \u2014 was: sapark.sanantonio.gov",
      "entrance_lat": 29.4246434,
      "entrance_lng": -98.4923635,
      "entrance_source": "OSM parking_entrance node 10957109771",
      "verified_on": "2026-04-23",
      "pano_id": "byYigSTi7cjHnOsKYJURwQ",
      "pano_heading": 45
    },
    {
      "id": "sat-tower-of-amer",
      "name": "Tower of the Americas Lot",
      "addr": "739 E C\u00e9sar E Ch\u00e1vez Blvd",
      "lat": 29.4182,
      "lng": -98.481,
      "height_in": null,
      "height_label": "No limit (uncovered)",
      "oversized": true,
      "notes": "HemisFair Park surface lots.",
      "source": "Needs verification",
      "structure_type": "surface_lot"
    },
    {
      "id": "sat-hemisfair",
      "name": "HemisFair Park Garage",
      "addr": "434 S Alamo St",
      "lat": 29.4191,
      "lng": -98.4839,
      "height_in": null,
      "height_label": null,
      "oversized": false,
      "notes": "Under HemisFair Park (Yanaguana Garden).",
      "source": "Needs verification"
    },
    {
      "id": "sat-alamoplaza",
      "name": "Alamo Plaza Garage",
      "addr": "401 S Alamo St",
      "lat": 29.4208,
      "lng": -98.4845,
      "height_in": 84,
      "height_label": "7'0\"",
      "oversized": false,
      "notes": "Near Convention Center, Alamodome.\nVerified 2026-04-23 from sign reading \"7'0\"\" (pano hwm9R9w-mMlvSnKRw7Gysw, heading 180\u00b0, Claude confidence high)",
      "source": "AI-verified (Street View + Claude Vision \u2014 auto-pano) \u2014 was: Needs verification",
      "entrance_lat": 29.4218702,
      "entrance_lng": -98.4834846,
      "entrance_source": "OSM parking_entrance node 937360044",
      "verified_on": "2026-04-23",
      "pano_id": "hwm9R9w-mMlvSnKRw7Gysw",
      "pano_heading": 180
    },
    {
      "id": "sat-shops-la-cantera",
      "name": "Shops at La Cantera",
      "addr": "15900 La Cantera Pkwy",
      "lat": 29.6075,
      "lng": -98.6073,
      "height_in": null,
      "height_label": null,
      "oversized": false,
      "notes": "Upscale open-air mall NW San Antonio.",
      "source": "Needs verification",
      "structure_type": "surface_lot"
    },
    {
      "id": "sat-rim",
      "name": "The Rim Shopping Center",
      "addr": "17503 La Cantera Pkwy",
      "lat": 29.6034,
      "lng": -98.618,
      "height_in": null,
      "height_label": "No limit (uncovered)",
      "oversized": false,
      "notes": "Surface lots, open-air. Near Six Flags.",
      "source": "Needs verification",
      "structure_type": "surface_lot"
    },
    {
      "id": "sat-northpark",
      "name": "North Star Mall",
      "addr": "7400 San Pedro Ave",
      "lat": 29.5355,
      "lng": -98.4943,
      "height_in": null,
      "height_label": "No limit (uncovered)",
      "oversized": false,
      "notes": "Surface lots. Free parking.",
      "source": "Needs verification",
      "entrance_lat": 29.5354517,
      "entrance_lng": -98.4932605,
      "entrance_source": "OSM parking_entrance node 10586700219",
      "structure_type": "surface_lot"
    },
    {
      "id": "sat-pearl-plaza",
      "name": "The Pearl \u2014 Plaza Garage",
      "addr": "303 Pearl Pkwy",
      "lat": 29.4419,
      "lng": -98.4803,
      "height_in": 96,
      "height_label": "8'0\"",
      "oversized": false,
      "notes": "Underground garage at Pearl District.\nVerified 2026-04-23 from sign reading \"8 FT\" (pano KMNaQKEqZswDWSoy9SyV4A, heading 315\u00b0, Claude confidence medium)",
      "source": "AI-verified (Street View + Claude Vision \u2014 auto-pano) \u2014 was: atpearl.com",
      "verified_on": "2026-04-23",
      "pano_id": "KMNaQKEqZswDWSoy9SyV4A",
      "pano_heading": 315
    },
    {
      "id": "sat-pearl-can",
      "name": "The Pearl \u2014 Can Plant Garage",
      "addr": "503 Avenue A",
      "lat": 29.4428,
      "lng": -98.4796,
      "height_in": null,
      "height_label": null,
      "oversized": false,
      "notes": "Second Pearl District garage.",
      "source": "atpearl.com",
      "entrance_lat": 29.4430708,
      "entrance_lng": -98.4775804,
      "entrance_source": "OSM parking_entrance node 10246074206"
    },
    {
      "id": "sat-mcallister",
      "name": "McAllister Park / Airport Alt Lot",
      "addr": "13102 Jones Maltsberger Rd",
      "lat": 29.5669,
      "lng": -98.4671,
      "height_in": null,
      "height_label": "No limit (uncovered)",
      "oversized": true,
      "notes": "Park surface lots. Oversized OK.",
      "source": "Needs verification",
      "structure_type": "surface_lot"
    },
    {
      "id": "sat-mi-tierra",
      "name": "Mi Tierra / Market Square Area Lot",
      "addr": "514 W Commerce St",
      "lat": 29.4248,
      "lng": -98.4983,
      "height_in": null,
      "height_label": "No limit (uncovered)",
      "oversized": false,
      "notes": "Historic market square surface parking.",
      "source": "Needs verification",
      "entrance_lat": 29.425631,
      "entrance_lng": -98.4978751,
      "entrance_source": "OSM parking_entrance node 3607958090",
      "structure_type": "surface_lot"
    },
    {
      "id": "sat-missions-garage",
      "name": "San Antonio Missions NHP Lots (Mission Concepci\u00f3n)",
      "addr": "807 Mission Rd",
      "lat": 29.3897,
      "lng": -98.483,
      "height_in": null,
      "height_label": "No limit (uncovered)",
      "oversized": true,
      "notes": "Surface lot, free. Part of Missions World Heritage Site.",
      "source": "nps.gov/saan",
      "structure_type": "surface_lot"
    },
    {
      "id": "sat-mission-san-jose",
      "name": "Mission San Jos\u00e9 Lot",
      "addr": "6701 San Jos\u00e9 Dr",
      "lat": 29.365,
      "lng": -98.4765,
      "height_in": null,
      "height_label": "No limit (uncovered)",
      "oversized": true,
      "notes": "NPS lot. Oversized OK.",
      "source": "nps.gov/saan",
      "structure_type": "surface_lot",
      "entrance_lat": 29.365404,
      "entrance_lng": -98.475802,
      "entrance_source": "Auto (nearest Street View pano within 300m, 2026-04-24)"
    },
    {
      "id": "sat-witte",
      "name": "Witte Museum Lot",
      "addr": "3801 Broadway St",
      "lat": 29.4632,
      "lng": -98.4673,
      "height_in": null,
      "height_label": "No limit (uncovered)",
      "oversized": false,
      "notes": "Brackenridge Park area museum surface lot.",
      "source": "Needs verification",
      "structure_type": "surface_lot"
    },
    {
      "id": "sat-brackenridge-park",
      "name": "Brackenridge Park Surface Lots",
      "addr": "3700 N St Mary's St",
      "lat": 29.4625,
      "lng": -98.4712,
      "height_in": null,
      "height_label": "No limit (uncovered)",
      "oversized": true,
      "notes": "Park surface lots. Oversized OK.",
      "source": "sanantonio.gov/parksandrec",
      "structure_type": "surface_lot"
    },
    {
      "id": "sat-zoo",
      "name": "San Antonio Zoo \u2014 Main Lot",
      "addr": "3903 N St Mary's St",
      "lat": 29.4643,
      "lng": -98.4749,
      "height_in": null,
      "height_label": "No limit (uncovered)",
      "oversized": true,
      "notes": "Zoo surface lot. Oversized accommodated.",
      "source": "sazoo.org",
      "entrance_lat": 29.4640758,
      "entrance_lng": -98.4762071,
      "entrance_source": "OSM parking_entrance node 11778150469",
      "structure_type": "surface_lot"
    },
    {
      "id": "osm-n13410853559",
      "name": "RV Park (unnamed)",
      "addr": "",
      "lat": 29.34954,
      "lng": -98.42484,
      "height_in": null,
      "height_label": "No limit (uncovered)",
      "oversized": true,
      "structure_type": "surface_lot",
      "notes": "Imported 2026 from OSM as an oversized-vehicle-friendly surface lot: RV park (OSM tourism=caravan_site).",
      "source": "OpenStreetMap (surface lot)"
    },
    {
      "id": "osm-w51336823",
      "name": "Lot 7",
      "addr": "",
      "lat": 29.43167,
      "lng": -98.4378,
      "height_in": null,
      "height_label": "No limit (uncovered)",
      "oversized": true,
      "structure_type": "surface_lot",
      "notes": "Imported 2026 from OSM as an oversized-vehicle-friendly surface lot: large capacity (700 spaces). 700 spaces. Operator: AT&T Center.",
      "source": "OpenStreetMap (surface lot)"
    },
    {
      "id": "osm-w51336829",
      "name": "Lot 4",
      "addr": "",
      "lat": 29.42856,
      "lng": -98.43523,
      "height_in": null,
      "height_label": "No limit (uncovered)",
      "oversized": true,
      "structure_type": "surface_lot",
      "notes": "Imported 2026 from OSM as an oversized-vehicle-friendly surface lot: large capacity (600 spaces). 600 spaces. Operator: AT&T Center.",
      "source": "OpenStreetMap (surface lot)"
    },
    {
      "id": "osm-w78576362",
      "name": "KOA Kampground",
      "addr": "602 Gembler Road",
      "lat": 29.43355,
      "lng": -98.42226,
      "height_in": null,
      "height_label": "No limit (uncovered)",
      "oversized": true,
      "structure_type": "surface_lot",
      "notes": "Imported 2026 from OSM as an oversized-vehicle-friendly surface lot: RV park (OSM tourism=caravan_site).",
      "source": "OpenStreetMap (surface lot)"
    },
    {
      "id": "osm-w91193514",
      "name": "Fort Sam Houston Recreation Vehicle Park",
      "addr": "",
      "lat": 29.46443,
      "lng": -98.41934,
      "height_in": null,
      "height_label": "No limit (uncovered)",
      "oversized": true,
      "structure_type": "surface_lot",
      "notes": "Imported 2026 from OSM as an oversized-vehicle-friendly surface lot: RV park (OSM tourism=caravan_site). 68 spaces. Paid parking.",
      "source": "OpenStreetMap (surface lot)"
    },
    {
      "id": "osm-w264474609",
      "name": "Cozy Cove RV Park",
      "addr": "5215 Crestway Drive",
      "lat": 29.52388,
      "lng": -98.38698,
      "height_in": null,
      "height_label": "No limit (uncovered)",
      "oversized": true,
      "structure_type": "surface_lot",
      "notes": "Imported 2026 from OSM as an oversized-vehicle-friendly surface lot: RV park (OSM tourism=caravan_site).",
      "source": "OpenStreetMap (surface lot)"
    },
    {
      "id": "osm-w315706672",
      "name": "Braunig Lake RV Resort",
      "addr": "13550 Donop Road",
      "lat": 29.28441,
      "lng": -98.39171,
      "height_in": null,
      "height_label": "No limit (uncovered)",
      "oversized": true,
      "structure_type": "surface_lot",
      "notes": "Imported 2026 from OSM as an oversized-vehicle-friendly surface lot: RV park (OSM tourism=caravan_site).",
      "source": "OpenStreetMap (surface lot)"
    },
    {
      "id": "osm-w318803803",
      "name": "Westhill Mobile Home and RV Park",
      "addr": "",
      "lat": 29.41584,
      "lng": -98.6259,
      "height_in": null,
      "height_label": "No limit (uncovered)",
      "oversized": true,
      "structure_type": "surface_lot",
      "notes": "Imported 2026 from OSM as an oversized-vehicle-friendly surface lot: RV park (OSM tourism=caravan_site).",
      "source": "OpenStreetMap (surface lot)"
    },
    {
      "id": "osm-w327754702",
      "name": "Hemisfair Tower Parking Lot",
      "addr": "",
      "lat": 29.41796,
      "lng": -98.48314,
      "height_in": null,
      "height_label": "No limit (uncovered)",
      "oversized": true,
      "structure_type": "surface_lot",
      "notes": "Imported 2026 from OSM as an oversized-vehicle-friendly surface lot: large capacity (200 spaces). 200 spaces. Paid parking. Operator: City of San Antonio.",
      "source": "OpenStreetMap (surface lot)"
    },
    {
      "id": "osm-w374649454",
      "name": "Lackland RV Park",
      "addr": "7650 West US Highway 90",
      "lat": 29.39762,
      "lng": -98.64034,
      "height_in": null,
      "height_label": "No limit (uncovered)",
      "oversized": true,
      "structure_type": "surface_lot",
      "notes": "Imported 2026 from OSM as an oversized-vehicle-friendly surface lot: RV park (OSM tourism=caravan_site).",
      "source": "OpenStreetMap (surface lot)"
    },
    {
      "id": "osm-w486222513",
      "name": "RV Park (unnamed)",
      "addr": "",
      "lat": 29.52719,
      "lng": -98.57678,
      "height_in": null,
      "height_label": "No limit (uncovered)",
      "oversized": true,
      "structure_type": "surface_lot",
      "notes": "Imported 2026 from OSM as an oversized-vehicle-friendly surface lot: RV park (OSM tourism=caravan_site).",
      "source": "OpenStreetMap (surface lot)"
    },
    {
      "id": "osm-w521821878",
      "name": "Traveler's World RV Resort",
      "addr": "2617 Roosevelt Avenue",
      "lat": 29.37356,
      "lng": -98.48304,
      "height_in": null,
      "height_label": "No limit (uncovered)",
      "oversized": true,
      "structure_type": "surface_lot",
      "notes": "Imported 2026 from OSM as an oversized-vehicle-friendly surface lot: RV park (OSM tourism=caravan_site).",
      "source": "OpenStreetMap (surface lot)"
    },
    {
      "id": "osm-w664428708",
      "name": "Lot 6",
      "addr": "",
      "lat": 29.43159,
      "lng": -98.43513,
      "height_in": null,
      "height_label": "No limit (uncovered)",
      "oversized": true,
      "structure_type": "surface_lot",
      "notes": "Imported 2026 from OSM as an oversized-vehicle-friendly surface lot: large capacity (400 spaces). 400 spaces. Operator: AT&T Center.",
      "source": "OpenStreetMap (surface lot)"
    },
    {
      "id": "osm-w704228247",
      "name": "Westwood Mobile Home Estates",
      "addr": "7600 West Military Drive",
      "lat": 29.41981,
      "lng": -98.62797,
      "height_in": null,
      "height_label": "No limit (uncovered)",
      "oversized": true,
      "structure_type": "surface_lot",
      "notes": "Imported 2026 from OSM as an oversized-vehicle-friendly surface lot: RV park (OSM tourism=caravan_site). Operator: Kinglsey Living.",
      "source": "OpenStreetMap (surface lot)"
    },
    {
      "id": "osm-w842142638",
      "name": "Mission City RV Park",
      "addr": "1011 Gembler Road",
      "lat": 29.43653,
      "lng": -98.41525,
      "height_in": null,
      "height_label": "No limit (uncovered)",
      "oversized": true,
      "structure_type": "surface_lot",
      "notes": "Imported 2026 from OSM as an oversized-vehicle-friendly surface lot: RV park (OSM tourism=caravan_site).",
      "source": "OpenStreetMap (surface lot)"
    },
    {
      "id": "osm-w1120653096",
      "name": "Fam Camp",
      "addr": "",
      "lat": 29.39859,
      "lng": -98.61364,
      "height_in": null,
      "height_label": "No limit (uncovered)",
      "oversized": true,
      "structure_type": "surface_lot",
      "notes": "Imported 2026 from OSM as an oversized-vehicle-friendly surface lot: RV park (OSM tourism=caravan_site).",
      "source": "OpenStreetMap (surface lot)"
    },
    {
      "id": "osm-w1331715459",
      "name": "Greenlake RV Resort",
      "addr": "",
      "lat": 29.30875,
      "lng": -98.3849,
      "height_in": null,
      "height_label": "No limit (uncovered)",
      "oversized": true,
      "structure_type": "surface_lot",
      "notes": "Imported 2026 from OSM as an oversized-vehicle-friendly surface lot: RV park (OSM tourism=caravan_site).",
      "source": "OpenStreetMap (surface lot)"
    },
    {
      "id": "osm-w1383553989",
      "name": "RV Park (unnamed)",
      "addr": "",
      "lat": 29.291,
      "lng": -98.61796,
      "height_in": null,
      "height_label": "No limit (uncovered)",
      "oversized": true,
      "structure_type": "surface_lot",
      "notes": "Imported 2026 from OSM as an oversized-vehicle-friendly surface lot: RV park (OSM tourism=caravan_site).",
      "source": "OpenStreetMap (surface lot)"
    }
  ],
  "tunnels": [],
  "bridges": [
    {
      "id": "sat-riverwalk-bridges",
      "name": "Riverwalk Pedestrian Bridges",
      "addr": "San Antonio River Walk area",
      "lat": 29.4243,
      "lng": -98.4896,
      "height_in": 84,
      "height_label": "7'0\" (pedestrian)",
      "notes": "Not for vehicle access \u2014 listed for awareness. River-level pedestrian bridges. Street-level traffic unaffected.",
      "source": "sanantonioriverwalk.com"
    },
    {
      "id": "nbi-48-150150007212185",
      "name": "Low on-bridge clearance: SP 421-CULEBRA",
      "addr": "SP 421-CULEBRA",
      "lat": 29.44403,
      "lng": -98.51487,
      "height_in": 180,
      "height_label": "15'0\"",
      "notes": "FHWA NBI; on-bridge clearance; built 1948",
      "source": "FHWA National Bridge Inventory"
    },
    {
      "id": "nbi-48-AFTXJBSF03280",
      "name": "Low clearance: SALADO CRK & PETROLEUM D under PETROLEUM DRIVE",
      "addr": "SALADO CRK & PETROLEUM D",
      "lat": 29.46557,
      "lng": -98.42697,
      "height_in": 172,
      "height_label": "14'4\"",
      "notes": "FHWA NBI; under-bridge clearance; built 2009; bridge carries PETROLEUM DRIVE",
      "source": "FHWA National Bridge Inventory"
    }
  ]
}
