{
  "garages": [
    {
      "id": "sat-grand-hyatt",
      "name": "Grand Hyatt San Antonio Riverwalk Garage",
      "addr": "600 E Market St",
      "lat": 29.425,
      "lng": -98.4877,
      "height_in": null,
      "height_label": null,
      "oversized": false,
      "notes": "No oversized vehicles, toppers, or trailers per hotel policy.",
      "source": "Hyatt"
    },
    {
      "id": "sat-hyatt-regency",
      "name": "Hyatt Regency San Antonio Riverwalk Garage",
      "addr": "123 Losoya St",
      "lat": 29.426,
      "lng": -98.4889,
      "height_in": null,
      "height_label": null,
      "oversized": false,
      "notes": "No oversized per policy. $8 premium for oversized vehicles.",
      "source": "Hyatt"
    },
    {
      "id": "sat-houston-st",
      "name": "SAPark \u2014 Houston Street Garage",
      "addr": "230 E Houston St",
      "lat": 29.4263,
      "lng": -98.4915,
      "height_in": null,
      "height_label": null,
      "oversized": false,
      "notes": "City-owned. Near The Alamo, Riverwalk.",
      "source": "sapark.sanantonio.gov"
    },
    {
      "id": "sat-market-sq",
      "name": "SAPark \u2014 Market Square Garage",
      "addr": "600 Santa Rosa Ave",
      "lat": 29.4257,
      "lng": -98.4966,
      "height_in": null,
      "height_label": null,
      "oversized": false,
      "notes": "City-owned. Serves El Mercado, historic market.",
      "source": "sapark.sanantonio.gov"
    },
    {
      "id": "sat-convention-ctr",
      "name": "SAPark \u2014 Convention Center Garage",
      "addr": "125 Bowie St",
      "lat": 29.4225,
      "lng": -98.4866,
      "height_in": null,
      "height_label": null,
      "oversized": false,
      "notes": "Henry B. Gonzalez Convention Center.",
      "source": "sapark.sanantonio.gov"
    },
    {
      "id": "sat-st-marys",
      "name": "SAPark \u2014 St. Mary's Garage",
      "addr": "217 N St Mary's St",
      "lat": 29.4273,
      "lng": -98.4939,
      "height_in": null,
      "height_label": null,
      "oversized": false,
      "notes": "Downtown core.",
      "source": "sapark.sanantonio.gov"
    },
    {
      "id": "sat-rivercenter",
      "name": "Shops at Rivercenter Garage",
      "addr": "849 E Commerce St",
      "lat": 29.4245,
      "lng": -98.4855,
      "height_in": null,
      "height_label": null,
      "oversized": false,
      "notes": "Major Riverwalk mall garage.",
      "source": "Needs verification"
    },
    {
      "id": "sat-alamodome",
      "name": "Alamodome \u2014 Surface Lots",
      "addr": "100 Montana St",
      "lat": 29.417,
      "lng": -98.479,
      "height_in": null,
      "height_label": "No limit (uncovered)",
      "oversized": true,
      "notes": "Event/sports surface lots. Oversized OK.",
      "source": "Alamodome"
    },
    {
      "id": "sat-atnt-center",
      "name": "AT&T Center \u2014 Spurs Parking",
      "addr": "1 AT&T Center Pkwy",
      "lat": 29.427,
      "lng": -98.4375,
      "height_in": null,
      "height_label": "No limit (uncovered)",
      "oversized": true,
      "notes": "Spurs arena. Open surface parking.",
      "source": "AT&T Center"
    },
    {
      "id": "sat-pearl-garage",
      "name": "The Pearl \u2014 Full Goods Garage",
      "addr": "200 E Grayson St",
      "lat": 29.4423,
      "lng": -98.4782,
      "height_in": null,
      "height_label": null,
      "oversized": false,
      "notes": "Pearl District mixed-use.",
      "source": "Needs verification"
    },
    {
      "id": "sat-utsa-bauerle",
      "name": "UTSA \u2014 Bauerle Road Garage",
      "addr": "One UTSA Cir",
      "lat": 29.5821,
      "lng": -98.6195,
      "height_in": null,
      "height_label": null,
      "oversized": false,
      "notes": "UTSA Main Campus.",
      "source": "utsa.edu"
    },
    {
      "id": "sat-sat-airport",
      "name": "San Antonio Airport \u2014 Short/Long Term",
      "addr": "9800 Airport Blvd",
      "lat": 29.5337,
      "lng": -98.4698,
      "height_in": null,
      "height_label": null,
      "oversized": false,
      "notes": "SAT terminal garages.",
      "source": "flysanantonio.com"
    },
    {
      "id": "sat-sat-ecopark",
      "name": "San Antonio Airport \u2014 Economy/Cell",
      "addr": "9800 Airport Blvd",
      "lat": 29.5376,
      "lng": -98.4716,
      "height_in": null,
      "height_label": "No limit (uncovered)",
      "oversized": true,
      "notes": "Uncovered economy. Oversized OK.",
      "source": "flysanantonio.com"
    },
    {
      "id": "sat-six-flags",
      "name": "Six Flags Fiesta Texas \u2014 Main Lot",
      "addr": "17000 I-10 W, San Antonio",
      "lat": 29.5996,
      "lng": -98.6098,
      "height_in": null,
      "height_label": "No limit (uncovered)",
      "oversized": true,
      "notes": "Surface lot at theme park. $30+ parking. Oversized + RV OK.",
      "source": "sixflags.com"
    },
    {
      "id": "sat-seaworld",
      "name": "SeaWorld San Antonio Parking",
      "addr": "10500 SeaWorld Dr, San Antonio",
      "lat": 29.4575,
      "lng": -98.6995,
      "height_in": null,
      "height_label": "No limit (uncovered)",
      "oversized": true,
      "notes": "250-acre park surface lots. Oversized OK.",
      "source": "seaworld.com"
    },
    {
      "id": "sat-alamo-garage",
      "name": "SAPark \u2014 The Alamo / Crockett Garage",
      "addr": "211 Bonham St",
      "lat": 29.4253,
      "lng": -98.4859,
      "height_in": null,
      "height_label": null,
      "oversized": false,
      "notes": "Closest garage to The Alamo. City-owned.",
      "source": "sapark.sanantonio.gov"
    },
    {
      "id": "sat-navarro",
      "name": "SAPark \u2014 Navarro Garage",
      "addr": "126 Navarro St",
      "lat": 29.4253,
      "lng": -98.4926,
      "height_in": null,
      "height_label": null,
      "oversized": false,
      "notes": "Riverwalk-adjacent city garage.",
      "source": "sapark.sanantonio.gov"
    },
    {
      "id": "sat-tower-of-amer",
      "name": "Tower of the Americas Lot",
      "addr": "739 E C\u00e9sar E Ch\u00e1vez Blvd",
      "lat": 29.4182,
      "lng": -98.481,
      "height_in": null,
      "height_label": "No limit (uncovered)",
      "oversized": true,
      "notes": "HemisFair Park surface lots.",
      "source": "Needs verification"
    },
    {
      "id": "sat-hemisfair",
      "name": "HemisFair Park Garage",
      "addr": "434 S Alamo St",
      "lat": 29.4191,
      "lng": -98.4839,
      "height_in": null,
      "height_label": null,
      "oversized": false,
      "notes": "Under HemisFair Park (Yanaguana Garden).",
      "source": "Needs verification"
    },
    {
      "id": "sat-alamoplaza",
      "name": "Alamo Plaza Garage",
      "addr": "401 S Alamo St",
      "lat": 29.4208,
      "lng": -98.4845,
      "height_in": null,
      "height_label": null,
      "oversized": false,
      "notes": "Near Convention Center, Alamodome.",
      "source": "Needs verification"
    },
    {
      "id": "sat-shops-la-cantera",
      "name": "Shops at La Cantera",
      "addr": "15900 La Cantera Pkwy",
      "lat": 29.6075,
      "lng": -98.6073,
      "height_in": null,
      "height_label": null,
      "oversized": false,
      "notes": "Upscale open-air mall NW San Antonio.",
      "source": "Needs verification"
    },
    {
      "id": "sat-rim",
      "name": "The Rim Shopping Center",
      "addr": "17503 La Cantera Pkwy",
      "lat": 29.6034,
      "lng": -98.618,
      "height_in": null,
      "height_label": "No limit (uncovered)",
      "oversized": false,
      "notes": "Surface lots, open-air. Near Six Flags.",
      "source": "Needs verification"
    },
    {
      "id": "sat-northpark",
      "name": "North Star Mall",
      "addr": "7400 San Pedro Ave",
      "lat": 29.5355,
      "lng": -98.4943,
      "height_in": null,
      "height_label": "No limit (uncovered)",
      "oversized": false,
      "notes": "Surface lots. Free parking.",
      "source": "Needs verification"
    },
    {
      "id": "sat-pearl-plaza",
      "name": "The Pearl \u2014 Plaza Garage",
      "addr": "303 Pearl Pkwy",
      "lat": 29.4419,
      "lng": -98.4803,
      "height_in": null,
      "height_label": null,
      "oversized": false,
      "notes": "Underground garage at Pearl District.",
      "source": "atpearl.com"
    },
    {
      "id": "sat-pearl-can",
      "name": "The Pearl \u2014 Can Plant Garage",
      "addr": "503 Avenue A",
      "lat": 29.4428,
      "lng": -98.4796,
      "height_in": null,
      "height_label": null,
      "oversized": false,
      "notes": "Second Pearl District garage.",
      "source": "atpearl.com"
    },
    {
      "id": "sat-mcallister",
      "name": "McAllister Park / Airport Alt Lot",
      "addr": "13102 Jones Maltsberger Rd",
      "lat": 29.5669,
      "lng": -98.4671,
      "height_in": null,
      "height_label": "No limit (uncovered)",
      "oversized": true,
      "notes": "Park surface lots. Oversized OK.",
      "source": "Needs verification"
    },
    {
      "id": "sat-mi-tierra",
      "name": "Mi Tierra / Market Square Area Lot",
      "addr": "514 W Commerce St",
      "lat": 29.4248,
      "lng": -98.4983,
      "height_in": null,
      "height_label": "No limit (uncovered)",
      "oversized": false,
      "notes": "Historic market square surface parking.",
      "source": "Needs verification"
    },
    {
      "id": "sat-missions-garage",
      "name": "San Antonio Missions NHP Lots (Mission Concepci\u00f3n)",
      "addr": "807 Mission Rd",
      "lat": 29.3897,
      "lng": -98.483,
      "height_in": null,
      "height_label": "No limit (uncovered)",
      "oversized": true,
      "notes": "Surface lot, free. Part of Missions World Heritage Site.",
      "source": "nps.gov/saan"
    },
    {
      "id": "sat-mission-san-jose",
      "name": "Mission San Jos\u00e9 Lot",
      "addr": "6701 San Jos\u00e9 Dr",
      "lat": 29.365,
      "lng": -98.4765,
      "height_in": null,
      "height_label": "No limit (uncovered)",
      "oversized": true,
      "notes": "NPS lot. Oversized OK.",
      "source": "nps.gov/saan"
    },
    {
      "id": "sat-witte",
      "name": "Witte Museum Lot",
      "addr": "3801 Broadway St",
      "lat": 29.4632,
      "lng": -98.4673,
      "height_in": null,
      "height_label": "No limit (uncovered)",
      "oversized": false,
      "notes": "Brackenridge Park area museum surface lot.",
      "source": "Needs verification"
    },
    {
      "id": "sat-brackenridge-park",
      "name": "Brackenridge Park Surface Lots",
      "addr": "3700 N St Mary's St",
      "lat": 29.4625,
      "lng": -98.4712,
      "height_in": null,
      "height_label": "No limit (uncovered)",
      "oversized": true,
      "notes": "Park surface lots. Oversized OK.",
      "source": "sanantonio.gov/parksandrec"
    },
    {
      "id": "sat-zoo",
      "name": "San Antonio Zoo \u2014 Main Lot",
      "addr": "3903 N St Mary's St",
      "lat": 29.4643,
      "lng": -98.4749,
      "height_in": null,
      "height_label": "No limit (uncovered)",
      "oversized": true,
      "notes": "Zoo surface lot. Oversized accommodated.",
      "source": "sazoo.org"
    }
  ],
  "tunnels": [],
  "bridges": [
    {
      "id": "sat-riverwalk-bridges",
      "name": "Riverwalk Pedestrian Bridges",
      "addr": "San Antonio River Walk area",
      "lat": 29.4243,
      "lng": -98.4896,
      "height_in": 84,
      "height_label": "7'0\" (pedestrian)",
      "notes": "Not for vehicle access \u2014 listed for awareness. River-level pedestrian bridges. Street-level traffic unaffected.",
      "source": "sanantonioriverwalk.com"
    },
    {
      "id": "nbi-48-150150007212185",
      "name": "Low on-bridge clearance: SP 421-CULEBRA",
      "addr": "SP 421-CULEBRA",
      "lat": 29.44403,
      "lng": -98.51487,
      "height_in": 180,
      "height_label": "15'0\"",
      "notes": "FHWA NBI; on-bridge clearance; built 1948",
      "source": "FHWA National Bridge Inventory"
    },
    {
      "id": "nbi-48-AFTXJBSF03280",
      "name": "Low clearance: SALADO CRK & PETROLEUM D under PETROLEUM DRIVE",
      "addr": "SALADO CRK & PETROLEUM D",
      "lat": 29.46557,
      "lng": -98.42697,
      "height_in": 172,
      "height_label": "14'4\"",
      "notes": "FHWA NBI; under-bridge clearance; built 2009; bridge carries PETROLEUM DRIVE",
      "source": "FHWA National Bridge Inventory"
    }
  ]
}
