{
  "garages": [
    {
      "id": "osm-n3804958107",
      "name": "Lakeside RV Travel Park",
      "addr": "6401 West Tennessee Street",
      "lat": 30.45571,
      "lng": -84.37716,
      "height_in": null,
      "height_label": "No limit (uncovered)",
      "oversized": true,
      "structure_type": "surface_lot",
      "notes": "Imported 2026 from OSM as an oversized-vehicle-friendly surface lot: RV park (OSM tourism=caravan_site).",
      "source": "OpenStreetMap (surface lot)"
    },
    {
      "id": "osm-w464452598",
      "name": "Big Oak RV Park",
      "addr": "4024 North Monroe Street",
      "lat": 30.50818,
      "lng": -84.33854,
      "height_in": null,
      "height_label": "No limit (uncovered)",
      "oversized": true,
      "structure_type": "surface_lot",
      "notes": "Imported 2026 from OSM as an oversized-vehicle-friendly surface lot: RV park (OSM tourism=caravan_site).",
      "source": "OpenStreetMap (surface lot)"
    },
    {
      "id": "osm-w539308360",
      "name": "Tallahassee RV Park",
      "addr": "6504 Mahan Drive",
      "lat": 30.48308,
      "lng": -84.17006,
      "height_in": null,
      "height_label": "No limit (uncovered)",
      "oversized": true,
      "structure_type": "surface_lot",
      "notes": "Imported 2026 from OSM as an oversized-vehicle-friendly surface lot: RV park (OSM tourism=caravan_site).",
      "source": "OpenStreetMap (surface lot)",
      "entrance_lat": 30.4831677,
      "entrance_lng": -84.1691878,
      "entrance_source": "Auto (nearest Street View pano within 300m, 2026-04-24 surface-lot pass)"
    }
  ],
  "tunnels": [],
  "bridges": [
    {
      "id": "nbi-12-550071",
      "name": "Low on-bridge clearance: I10 SR8",
      "addr": "I10 SR8",
      "lat": 30.48485,
      "lng": -84.30074,
      "height_in": 169,
      "height_label": "14'1\"",
      "notes": "FHWA NBI; on-bridge clearance; built 1974",
      "source": "FHWA National Bridge Inventory"
    },
    {
      "id": "nbi-12-550171",
      "name": "Low clearance: St. Marks Trail under SR373",
      "addr": "St. Marks Trail",
      "lat": 30.41253,
      "lng": -84.29869,
      "height_in": 170,
      "height_label": "14'2\"",
      "notes": "FHWA NBI; under-bridge clearance; built 2014; bridge carries SR373",
      "source": "FHWA National Bridge Inventory"
    },
    {
      "id": "nbi-12-559004",
      "name": "Low on-bridge clearance: Ped.&Veh.Overpass",
      "addr": "Ped.&Veh.Overpass",
      "lat": 30.43729,
      "lng": -84.28436,
      "height_in": 84,
      "height_label": "7'0\"",
      "notes": "FHWA NBI; on-bridge clearance; built 1970",
      "source": "FHWA National Bridge Inventory"
    }
  ]
}
