{
  "garages": [
    {
      "id": "osm-w159410125",
      "name": "99th Street Transit Center",
      "addr": "",
      "lat": 45.69044,
      "lng": -122.66457,
      "height_in": null,
      "height_label": "No limit (uncovered)",
      "oversized": true,
      "structure_type": "surface_lot",
      "notes": "Imported 2026 from OSM as an oversized-vehicle-friendly surface lot: large capacity (610 spaces). 610 spaces. Operator: C-TRAN.",
      "source": "OpenStreetMap (surface lot)"
    },
    {
      "id": "osm-w331951563",
      "name": "Fairground Chevron RV Park",
      "addr": "",
      "lat": 45.75105,
      "lng": -122.66501,
      "height_in": null,
      "height_label": "No limit (uncovered)",
      "oversized": true,
      "structure_type": "surface_lot",
      "notes": "Imported 2026 from OSM as an oversized-vehicle-friendly surface lot: RV park (OSM tourism=caravan_site).",
      "source": "OpenStreetMap (surface lot)"
    },
    {
      "id": "osm-w340557802",
      "name": "Delta Park/Vanport Park and Ride",
      "addr": "1940 North Victory Boulevard",
      "lat": 45.59592,
      "lng": -122.68617,
      "height_in": null,
      "height_label": "No limit (uncovered)",
      "oversized": true,
      "structure_type": "surface_lot",
      "notes": "Imported 2026 from OSM as an oversized-vehicle-friendly surface lot: large capacity (129 spaces). 129 spaces. Operator: TriMet.",
      "source": "OpenStreetMap (surface lot)"
    },
    {
      "id": "osm-w368025248",
      "name": "99 RV Park",
      "addr": "1913 Northeast Leichner Road",
      "lat": 45.71311,
      "lng": -122.65213,
      "height_in": null,
      "height_label": "No limit (uncovered)",
      "oversized": true,
      "structure_type": "surface_lot",
      "notes": "Imported 2026 from OSM as an oversized-vehicle-friendly surface lot: RV park (OSM tourism=caravan_site).",
      "source": "OpenStreetMap (surface lot)"
    },
    {
      "id": "osm-w388345676",
      "name": "Janzen Beach RV Park",
      "addr": "",
      "lat": 45.61637,
      "lng": -122.68797,
      "height_in": null,
      "height_label": "No limit (uncovered)",
      "oversized": true,
      "structure_type": "surface_lot",
      "notes": "Imported 2026 from OSM as an oversized-vehicle-friendly surface lot: RV park (OSM tourism=caravan_site).",
      "source": "OpenStreetMap (surface lot)"
    },
    {
      "id": "osm-w395013671",
      "name": "Columbia River RV Park",
      "addr": "10649 Northeast 13th Avenue",
      "lat": 45.5997,
      "lng": -122.65523,
      "height_in": null,
      "height_label": "No limit (uncovered)",
      "oversized": true,
      "structure_type": "surface_lot",
      "notes": "Imported 2026 from OSM as an oversized-vehicle-friendly surface lot: RV park (OSM tourism=caravan_site). Paid parking.",
      "source": "OpenStreetMap (surface lot)",
      "entrance_lat": 45.6005541,
      "entrance_lng": -122.6559479,
      "entrance_source": "Auto (nearest Street View pano within 300m, 2026-04-24 surface-lot pass)"
    },
    {
      "id": "osm-w396606133",
      "name": "Vancouver Mall RV Park",
      "addr": "",
      "lat": 45.66106,
      "lng": -122.56703,
      "height_in": null,
      "height_label": "No limit (uncovered)",
      "oversized": true,
      "structure_type": "surface_lot",
      "notes": "Imported 2026 from OSM as an oversized-vehicle-friendly surface lot: RV park (OSM tourism=caravan_site).",
      "source": "OpenStreetMap (surface lot)"
    },
    {
      "id": "osm-w403991104",
      "name": "Reeder Beach RV Park",
      "addr": "",
      "lat": 45.70989,
      "lng": -122.77238,
      "height_in": null,
      "height_label": "No limit (uncovered)",
      "oversized": true,
      "structure_type": "surface_lot",
      "notes": "Imported 2026 from OSM as an oversized-vehicle-friendly surface lot: RV park (OSM tourism=caravan_site).",
      "source": "OpenStreetMap (surface lot)"
    },
    {
      "id": "osm-w410416632",
      "name": "Vancouver RV Park",
      "addr": "7603 Northeast 13th Avenue",
      "lat": 45.67703,
      "lng": -122.65737,
      "height_in": null,
      "height_label": "No limit (uncovered)",
      "oversized": true,
      "structure_type": "surface_lot",
      "notes": "Imported 2026 from OSM as an oversized-vehicle-friendly surface lot: RV park (OSM tourism=caravan_site). Operator: RV Inn Style.",
      "source": "OpenStreetMap (surface lot)"
    },
    {
      "id": "osm-w435714302",
      "name": "Piper RV Park",
      "addr": "",
      "lat": 45.68348,
      "lng": -122.6622,
      "height_in": null,
      "height_label": "No limit (uncovered)",
      "oversized": true,
      "structure_type": "surface_lot",
      "notes": "Imported 2026 from OSM as an oversized-vehicle-friendly surface lot: RV park (OSM tourism=caravan_site).",
      "source": "OpenStreetMap (surface lot)"
    },
    {
      "id": "osm-w652167488",
      "name": "Expo Center Park and Ride",
      "addr": "",
      "lat": 45.60599,
      "lng": -122.68598,
      "height_in": null,
      "height_label": "No limit (uncovered)",
      "oversized": true,
      "structure_type": "surface_lot",
      "notes": "Imported 2026 from OSM as an oversized-vehicle-friendly surface lot: large capacity (300 spaces). 300 spaces. Operator: TriMet.",
      "source": "OpenStreetMap (surface lot)"
    },
    {
      "id": "osm-w870611360",
      "name": "Island Cove RV Park",
      "addr": "31361 Northwest Reeder Road",
      "lat": 45.74929,
      "lng": -122.77237,
      "height_in": null,
      "height_label": "No limit (uncovered)",
      "oversized": true,
      "structure_type": "surface_lot",
      "notes": "Imported 2026 from OSM as an oversized-vehicle-friendly surface lot: RV park (OSM tourism=caravan_site).",
      "source": "OpenStreetMap (surface lot)"
    },
    {
      "id": "osm-w1379135305",
      "name": "Dicky's RV Resort",
      "addr": "",
      "lat": 45.74724,
      "lng": -122.65822,
      "height_in": null,
      "height_label": "No limit (uncovered)",
      "oversized": true,
      "structure_type": "surface_lot",
      "notes": "Imported 2026 from OSM as an oversized-vehicle-friendly surface lot: RV park (OSM tourism=caravan_site).",
      "source": "OpenStreetMap (surface lot)",
      "entrance_lat": 45.7460063,
      "entrance_lng": -122.6581244,
      "entrance_source": "Auto (nearest Street View pano within 300m, 2026-04-24 surface-lot pass)"
    }
  ],
  "tunnels": [],
  "bridges": [
    {
      "id": "nbi-41-17107001C30731",
      "name": "Low clearance: Bikepath under Hwy 001 Conn",
      "addr": "Bikepath",
      "lat": 45.60387,
      "lng": -122.68125,
      "height_in": 120,
      "height_label": "10'0\"",
      "notes": "FHWA NBI; under-bridge clearance; built 1992; bridge carries Hwy 001 Conn",
      "source": "FHWA National Bridge Inventory"
    }
  ]
}
