{
  "garages": [
    {
      "id": "dc-reagan-building",
      "name": "Ronald Reagan Building Garage",
      "addr": "1300 Pennsylvania Ave NW",
      "lat": 38.8942,
      "lng": -77.0281,
      "height_in": 84,
      "height_label": "7'0\"",
      "oversized": false,
      "notes": "Premium for Smithsonian access. Max 7'0\".",
      "source": "rrbitc.com",
      "entrance_lat": 38.8956122,
      "entrance_lng": -77.0272244,
      "entrance_source": "OSM parking_entrance node 13194611438"
    },
    {
      "id": "dc-capital-one-arena",
      "name": "Capital One Arena Garage (events only)",
      "addr": "601 F St NW",
      "lat": 38.8984,
      "lng": -77.0214,
      "height_in": null,
      "height_label": null,
      "oversized": false,
      "notes": "Concerts only. Not open to public for Caps/Wizards games.",
      "source": "capitalonearena.com",
      "entrance_lat": 38.8972189,
      "entrance_lng": -77.021173,
      "entrance_source": "OSM parking_entrance node 12451835493"
    },
    {
      "id": "dc-union-station",
      "name": "Union Station Parking Garage",
      "addr": "50 Massachusetts Ave NE",
      "lat": 38.8974,
      "lng": -77.0065,
      "height_in": null,
      "height_label": null,
      "oversized": false,
      "notes": "Amtrak + Metro hub.",
      "source": "unionstationdc.com"
    },
    {
      "id": "dc-walter-washington",
      "name": "Walter E. Washington Convention Center Garage",
      "addr": "801 Mt Vernon Pl NW",
      "lat": 38.9048,
      "lng": -77.0222,
      "height_in": null,
      "height_label": null,
      "oversized": false,
      "notes": "Convention center underground.",
      "source": "events.dc.gov",
      "entrance_lat": 38.904046,
      "entrance_lng": -77.021014,
      "entrance_source": "OSM parking_entrance node 13250739630"
    },
    {
      "id": "dc-smithsonian-mall-lot",
      "name": "National Mall Surface Lots (limited)",
      "addr": "Madison Dr NW",
      "lat": 38.891,
      "lng": -77.0251,
      "height_in": null,
      "height_label": "No limit (uncovered)",
      "oversized": false,
      "notes": "Limited Mall-adjacent street + lot. No dedicated Smithsonian garage.",
      "source": "nps.gov/nama"
    },
    {
      "id": "dc-rfk-lots",
      "name": "RFK Stadium Lots (overflow/tour buses)",
      "addr": "2400 E Capitol St SE",
      "lat": 38.8901,
      "lng": -76.972,
      "height_in": null,
      "height_label": "No limit (uncovered)",
      "oversized": true,
      "notes": "Surface lots. Oversized + RV + tour bus friendly.",
      "source": "eventsdc.com"
    },
    {
      "id": "dc-audi-field",
      "name": "Audi Field \u2014 DC United Lots",
      "addr": "100 Potomac Ave SW",
      "lat": 38.8682,
      "lng": -77.0126,
      "height_in": null,
      "height_label": "No limit (uncovered)",
      "oversized": false,
      "notes": "MLS stadium surface lots.",
      "source": "dcunited.com"
    },
    {
      "id": "dc-nats-park",
      "name": "Nationals Park \u2014 Garage A/B/C",
      "addr": "1500 S Capitol St SE",
      "lat": 38.873,
      "lng": -77.0074,
      "height_in": null,
      "height_label": null,
      "oversized": false,
      "notes": "Nats ballpark garages.",
      "source": "mlb.com/nationals",
      "entrance_lat": 38.8737636,
      "entrance_lng": -77.0063092,
      "entrance_source": "OSM parking_entrance node 11053779367"
    },
    {
      "id": "dc-gallery-place",
      "name": "Gallery Place Garage",
      "addr": "701 H St NW",
      "lat": 38.8985,
      "lng": -77.0222,
      "height_in": null,
      "height_label": null,
      "oversized": false,
      "notes": "Chinatown / Capital One Arena adjacent.",
      "source": "Needs verification",
      "entrance_lat": 38.8990044,
      "entrance_lng": -77.0227698,
      "entrance_source": "OSM parking_entrance node 13194697662"
    },
    {
      "id": "dc-cityctr",
      "name": "CityCenterDC Garage",
      "addr": "900 I St NW",
      "lat": 38.9001,
      "lng": -77.0251,
      "height_in": null,
      "height_label": null,
      "oversized": false,
      "notes": "Upscale downtown retail garage.",
      "source": "citycenterdc.com",
      "entrance_lat": 38.9001791,
      "entrance_lng": -77.0241051,
      "entrance_source": "OSM parking_entrance node 13250739638"
    },
    {
      "id": "dc-washington-hilton",
      "name": "Washington Hilton Garage",
      "addr": "1919 Connecticut Ave NW",
      "lat": 38.9164,
      "lng": -77.0452,
      "height_in": null,
      "height_label": null,
      "oversized": false,
      "notes": "Hotel + event garage.",
      "source": "Needs verification",
      "entrance_lat": 38.9161268,
      "entrance_lng": -77.0436907,
      "entrance_source": "OSM parking_entrance node 12423436311"
    },
    {
      "id": "dc-dupont",
      "name": "Dupont Circle Area Garages",
      "addr": "1150 Connecticut Ave NW",
      "lat": 38.9057,
      "lng": -77.0417,
      "height_in": null,
      "height_label": null,
      "oversized": false,
      "notes": "Multiple small downtown garages.",
      "source": "Needs verification",
      "entrance_lat": 38.9051327,
      "entrance_lng": -77.0415295,
      "entrance_source": "OSM parking_entrance node 9672573881"
    },
    {
      "id": "dc-georgetown",
      "name": "Georgetown Park Garage",
      "addr": "3222 M St NW",
      "lat": 38.904,
      "lng": -77.0638,
      "height_in": null,
      "height_label": null,
      "oversized": false,
      "notes": "Serves Georgetown shopping.",
      "source": "Needs verification",
      "entrance_lat": 38.9044341,
      "entrance_lng": -77.065142,
      "entrance_source": "OSM parking_entrance node 9140635545"
    },
    {
      "id": "dc-kennedy-ctr",
      "name": "Kennedy Center Garage",
      "addr": "2700 F St NW",
      "lat": 38.8954,
      "lng": -77.0556,
      "height_in": null,
      "height_label": null,
      "oversized": false,
      "notes": "Iconic performing arts venue underground.",
      "source": "kennedy-center.org",
      "entrance_lat": 38.8949702,
      "entrance_lng": -77.0547669,
      "entrance_source": "OSM parking_entrance node 6867720120"
    },
    {
      "id": "dc-the-wharf",
      "name": "The Wharf Garage",
      "addr": "800 Wharf St SW",
      "lat": 38.8768,
      "lng": -77.0249,
      "height_in": null,
      "height_label": null,
      "oversized": false,
      "notes": "SW Waterfront + Anthem venue.",
      "source": "wharfdc.com"
    },
    {
      "id": "dc-smithsonian-zoo",
      "name": "National Zoo Parking Lots",
      "addr": "3001 Connecticut Ave NW",
      "lat": 38.9294,
      "lng": -77.0499,
      "height_in": null,
      "height_label": "No limit (uncovered)",
      "oversized": true,
      "notes": "Hills + surface lots. Oversized accommodated.",
      "source": "nationalzoo.si.edu"
    },
    {
      "id": "dc-howard-univ",
      "name": "Howard University Visitor Garage",
      "addr": "2400 Sherman Ave NW",
      "lat": 38.9238,
      "lng": -77.0236,
      "height_in": null,
      "height_label": null,
      "oversized": false,
      "notes": "HU visitor parking.",
      "source": "howard.edu"
    },
    {
      "id": "dc-tysons-corner",
      "name": "Tysons Corner Center (VA)",
      "addr": "1961 Chain Bridge Rd, McLean VA",
      "lat": 38.9179,
      "lng": -77.2213,
      "height_in": null,
      "height_label": null,
      "oversized": false,
      "notes": "Major VA mall just outside DC.",
      "source": "tysonscornercenter.com",
      "entrance_lat": 38.9172782,
      "entrance_lng": -77.2209041,
      "entrance_source": "OSM parking_entrance node 11815478650"
    },
    {
      "id": "dc-pentagon-city",
      "name": "Fashion Centre at Pentagon City (VA)",
      "addr": "1100 S Hayes St, Arlington VA",
      "lat": 38.8625,
      "lng": -77.0587,
      "height_in": null,
      "height_label": null,
      "oversized": false,
      "notes": "Mall garage.",
      "source": "simon.com",
      "entrance_lat": 38.8627321,
      "entrance_lng": -77.0583442,
      "entrance_source": "OSM parking_entrance node 9146864675"
    },
    {
      "id": "dca-daily-garage-a",
      "name": "DCA Reagan \u2014 Garage A",
      "addr": "2401 S Smith Blvd, Arlington VA",
      "lat": 38.8513,
      "lng": -77.0408,
      "height_in": null,
      "height_label": null,
      "oversized": false,
      "notes": "Terminal 1 (old A).",
      "source": "flyreagan.com"
    },
    {
      "id": "dca-daily-garage-bc",
      "name": "DCA Reagan \u2014 Garage B/C",
      "addr": "2401 S Smith Blvd",
      "lat": 38.8522,
      "lng": -77.04,
      "height_in": null,
      "height_label": null,
      "oversized": false,
      "notes": "Terminal 2 (B/C).",
      "source": "flyreagan.com"
    },
    {
      "id": "iad-daily-garage",
      "name": "IAD Dulles \u2014 Daily Garage 1/2",
      "addr": "1 Saarinen Cir, Dulles VA",
      "lat": 38.953,
      "lng": -77.4531,
      "height_in": null,
      "height_label": null,
      "oversized": false,
      "notes": "Dulles terminal garage.",
      "source": "flydulles.com",
      "entrance_lat": 38.9532467,
      "entrance_lng": -77.4528708,
      "entrance_source": "OSM parking_entrance node 9504074093"
    },
    {
      "id": "iad-economy",
      "name": "IAD \u2014 Economy Lots",
      "addr": "Saarinen Cir",
      "lat": 38.95,
      "lng": -77.4465,
      "height_in": null,
      "height_label": "No limit (uncovered)",
      "oversized": true,
      "notes": "Uncovered. Oversized OK.",
      "source": "flydulles.com"
    },
    {
      "id": "bwi-hourly",
      "name": "BWI \u2014 Hourly Garage",
      "addr": "7070 Elm Rd, Baltimore MD",
      "lat": 39.1774,
      "lng": -76.6683,
      "height_in": null,
      "height_label": null,
      "oversized": false,
      "notes": "BWI terminal garage (Baltimore \u2014 listed for DC metro).",
      "source": "bwiairport.com"
    },
    {
      "id": "osm-n12444658764",
      "name": "Colonial Parking",
      "addr": "425 8th Street Northwest",
      "lat": 38.89524,
      "lng": -77.0228,
      "height_in": 78,
      "height_label": "6'6\"",
      "oversized": false,
      "notes": "paid; hrs: Mo-Fr 06:00-24:00; Sa-Su 09:00-24:00",
      "source": "OpenStreetMap",
      "entrance_lat": 38.895252,
      "entrance_lng": -77.0228181,
      "entrance_source": "OSM parking_entrance node 12451835490"
    },
    {
      "id": "osm-w23502759",
      "name": "Stadium Drive Garage",
      "addr": "4025 Stadium Drive",
      "lat": 38.99105,
      "lng": -76.94855,
      "height_in": 178,
      "height_label": "14'10\"",
      "oversized": false,
      "notes": "paid",
      "source": "OpenStreetMap",
      "entrance_lat": 38.9916671,
      "entrance_lng": -76.9478234,
      "entrance_source": "OSM parking_entrance node 3732371554"
    },
    {
      "id": "osm-w23502762",
      "name": "Terrapin Trail Parking Garage",
      "addr": "4155 Terrapin Trail",
      "lat": 38.99499,
      "lng": -76.94336,
      "height_in": 195,
      "height_label": "16'3\"",
      "oversized": false,
      "notes": "Imported from OpenStreetMap.",
      "source": "OpenStreetMap",
      "entrance_lat": 38.9952079,
      "entrance_lng": -76.9441343,
      "entrance_source": "OSM parking_entrance node 6550214815"
    },
    {
      "id": "osm-w153515337",
      "name": "Unnamed parking structure",
      "addr": "",
      "lat": 38.88128,
      "lng": -77.11723,
      "height_in": 197,
      "height_label": "16'5\"",
      "oversized": false,
      "notes": "paid",
      "source": "OpenStreetMap",
      "entrance_lat": 38.8812008,
      "entrance_lng": -77.117824,
      "entrance_source": "OSM parking_entrance node 6164809978"
    },
    {
      "id": "osm-w176731206",
      "name": "Unnamed parking structure",
      "addr": "7857 Walker Drive",
      "lat": 38.99938,
      "lng": -76.89478,
      "height_in": 106,
      "height_label": "8'10\"",
      "oversized": false,
      "notes": "Imported from OpenStreetMap.",
      "source": "OpenStreetMap"
    },
    {
      "id": "osm-w184499920",
      "name": "Unnamed parking structure",
      "addr": "3325 Toledo Road",
      "lat": 38.96946,
      "lng": -76.95081,
      "height_in": 173,
      "height_label": "14'5\"",
      "oversized": false,
      "notes": "paid",
      "source": "OpenStreetMap",
      "entrance_lat": 38.9698714,
      "entrance_lng": -76.9509195,
      "entrance_source": "OSM parking_entrance node 4308257771"
    },
    {
      "id": "osm-w184640039",
      "name": "Unnamed parking structure",
      "addr": "6248 Greenbelt Road",
      "lat": 38.99998,
      "lng": -76.90712,
      "height_in": 183,
      "height_label": "15'3\"",
      "oversized": false,
      "notes": "Imported from OpenStreetMap.",
      "source": "OpenStreetMap"
    },
    {
      "id": "osm-w199333548",
      "name": "Unnamed parking structure",
      "addr": "5832 University Research Court",
      "lat": 38.972,
      "lng": -76.92346,
      "height_in": 187,
      "height_label": "15'7\"",
      "oversized": false,
      "notes": "Imported from OpenStreetMap.",
      "source": "OpenStreetMap",
      "entrance_lat": 38.9715311,
      "entrance_lng": -76.9234114,
      "entrance_source": "OSM parking_entrance node 6558916365"
    },
    {
      "id": "osm-w245392958",
      "name": "City of College Park Downtown Parking Garage",
      "addr": "4509 Knox Road",
      "lat": 38.98037,
      "lng": -76.93709,
      "height_in": 170,
      "height_label": "14'2\"",
      "oversized": false,
      "notes": "paid",
      "source": "OpenStreetMap",
      "entrance_lat": 38.9803482,
      "entrance_lng": -76.9368833,
      "entrance_source": "OSM parking_entrance node 6575605239"
    },
    {
      "id": "osm-w248766712",
      "name": "Unnamed parking structure",
      "addr": "2900 Belcrest Center Drive",
      "lat": 38.96625,
      "lng": -76.95675,
      "height_in": 204,
      "height_label": "17'0\"",
      "oversized": false,
      "notes": "Imported from OpenStreetMap.",
      "source": "OpenStreetMap",
      "entrance_lat": 38.9659313,
      "entrance_lng": -76.9567909,
      "entrance_source": "OSM parking_entrance node 4308255532"
    },
    {
      "id": "osm-w612764465",
      "name": "Unnamed parking structure",
      "addr": "",
      "lat": 38.99918,
      "lng": -76.95968,
      "height_in": 212,
      "height_label": "17'8\"",
      "oversized": false,
      "notes": "Imported from OpenStreetMap.",
      "source": "OpenStreetMap",
      "entrance_lat": 38.9997245,
      "entrance_lng": -76.9596703,
      "entrance_source": "OSM parking_entrance node 9712617396"
    },
    {
      "id": "osm-w615364279",
      "name": "Hyattsville Crossing Metro Station Parking",
      "addr": "3575 East West Highway",
      "lat": 38.96529,
      "lng": -76.95601,
      "height_in": 173,
      "height_label": "14'5\"",
      "oversized": false,
      "notes": "1124 spaces; paid",
      "source": "OpenStreetMap",
      "entrance_lat": 38.9656056,
      "entrance_lng": -76.9565948,
      "entrance_source": "OSM parking_entrance node 3780360071"
    },
    {
      "id": "osm-w686332533",
      "name": "Unnamed parking structure",
      "addr": "4600 Van Buren Street",
      "lat": 38.97013,
      "lng": -76.93544,
      "height_in": 183,
      "height_label": "15'3\"",
      "oversized": false,
      "notes": "free",
      "source": "OpenStreetMap",
      "entrance_lat": 38.9702998,
      "entrance_lng": -76.9358669,
      "entrance_source": "OSM parking_entrance node 6534451161"
    },
    {
      "id": "osm-w1421282483",
      "name": "Unnamed parking structure",
      "addr": "4201 River Road",
      "lat": 38.9759,
      "lng": -76.92833,
      "height_in": 141,
      "height_label": "11'9\"",
      "oversized": false,
      "notes": "Imported from OpenStreetMap.",
      "source": "OpenStreetMap",
      "entrance_lat": 38.9759914,
      "entrance_lng": -76.9285233,
      "entrance_source": "OSM parking_entrance node 2292011493"
    }
  ],
  "tunnels": [
    {
      "id": "dc-third-st-tunnel",
      "name": "3rd Street Tunnel (I-395)",
      "addr": "I-395 under Mall",
      "lat": 38.8945,
      "lng": -77.0148,
      "height_in": 168,
      "height_label": "14'0\"",
      "notes": "Urban freeway tunnel under Mall area. Standard clearance.",
      "source": "DDOT"
    },
    {
      "id": "dc-center-leg-fwy",
      "name": "Center Leg Freeway Tunnel (I-395)",
      "addr": "I-395 SB approach",
      "lat": 38.8905,
      "lng": -77.0156,
      "height_in": 168,
      "height_label": "14'0\"",
      "notes": "Continuation of 3rd St Tunnel concept. Standard.",
      "source": "DDOT"
    },
    {
      "id": "dc-9th-st",
      "name": "9th Street Expressway Tunnel",
      "addr": "I-395 HOV lane",
      "lat": 38.888,
      "lng": -77.0235,
      "height_in": 168,
      "height_label": "14'0\"",
      "notes": "Short HOV tunnel.",
      "source": "DDOT"
    }
  ],
  "bridges": [
    {
      "id": "dc-mem-bridge",
      "name": "Arlington Memorial Bridge",
      "addr": "Memorial Ave over Potomac",
      "lat": 38.8884,
      "lng": -77.0533,
      "height_in": null,
      "height_label": "Over water",
      "notes": "Lincoln Memorial approach. Recently rebuilt.",
      "source": "nps.gov"
    },
    {
      "id": "dc-key-bridge",
      "name": "Francis Scott Key Bridge",
      "addr": "M St NW over Potomac",
      "lat": 38.9025,
      "lng": -77.0684,
      "height_in": null,
      "height_label": "Over water",
      "notes": "Connects Georgetown to Rosslyn VA.",
      "source": "Wikipedia"
    },
    {
      "id": "dc-rock-creek-pkwy-low",
      "name": "Rock Creek Parkway \u2014 Low Bridges",
      "addr": "Rock Creek & Potomac Pkwy NW",
      "lat": 38.9054,
      "lng": -77.051,
      "height_in": 120,
      "height_label": "10'0\"",
      "notes": "NPS parkway. Low bridges \u2014 trucks prohibited by rule.",
      "source": "NPS"
    },
    {
      "id": "nbi-24-200000M-PK06020",
      "name": "Low on-bridge clearance: BEACH DRIVE",
      "addr": "BEACH DRIVE",
      "lat": 39.03232,
      "lng": -77.08525,
      "height_in": 180,
      "height_label": "15'0\"",
      "notes": "FHWA NBI; on-bridge clearance; built 1966",
      "source": "FHWA National Bridge Inventory"
    },
    {
      "id": "nbi-51-000000000000121",
      "name": "Low on-bridge clearance: WASHINGTON BLVD.",
      "addr": "WASHINGTON BLVD.",
      "lat": 38.86515,
      "lng": -77.06839,
      "height_in": 175,
      "height_label": "14'7\"",
      "notes": "FHWA NBI; on-bridge clearance; built 1944",
      "source": "FHWA National Bridge Inventory"
    },
    {
      "id": "nbi-51-000000000000174",
      "name": "Low on-bridge clearance: CUSTIS MEM. HWY.",
      "addr": "CUSTIS MEM. HWY.",
      "lat": 38.89338,
      "lng": -77.06741,
      "height_in": 180,
      "height_label": "15'0\"",
      "notes": "FHWA NBI; on-bridge clearance; built 1965",
      "source": "FHWA National Bridge Inventory"
    },
    {
      "id": "nbi-51-000000000000221",
      "name": "Low clearance: PARKING LOT CONNECTOR under SOUTH GLEBE ROAD",
      "addr": "PARKING LOT CONNECTOR",
      "lat": 38.84367,
      "lng": -77.05662,
      "height_in": 117,
      "height_label": "9'9\"",
      "notes": "FHWA NBI; under-bridge clearance; built 1976; bridge carries SOUTH GLEBE ROAD",
      "source": "FHWA National Bridge Inventory"
    },
    {
      "id": "nbi-51-000000000006640",
      "name": "Low clearance: RAMP C_OF RTE.495 under RAMP A OF RTE.495",
      "addr": "RAMP C_OF RTE.495",
      "lat": 38.86527,
      "lng": -77.21722,
      "height_in": 172,
      "height_label": "14'4\"",
      "notes": "FHWA NBI; under-bridge clearance; built 1986; bridge carries RAMP A OF RTE.495",
      "source": "FHWA National Bridge Inventory"
    },
    {
      "id": "nbi-51-000000000029831",
      "name": "Low clearance: Greenway Trail & Underpa under FURNACE ROAD",
      "addr": "Greenway Trail & Underpa",
      "lat": 38.70485,
      "lng": -77.24806,
      "height_in": 144,
      "height_label": "12'0\"",
      "notes": "FHWA NBI; under-bridge clearance; built 2015; bridge carries FURNACE ROAD",
      "source": "FHWA National Bridge Inventory"
    },
    {
      "id": "nbi-51-000000000030426",
      "name": "Low clearance: Pedestrian Underpass under Ramp I from WB 267",
      "addr": "Pedestrian Underpass",
      "lat": 38.9362,
      "lng": -77.24792,
      "height_in": 124,
      "height_label": "10'4\"",
      "notes": "FHWA NBI; under-bridge clearance; built 2017; bridge carries Ramp I from WB 267",
      "source": "FHWA National Bridge Inventory"
    },
    {
      "id": "nbi-51-000000000031133",
      "name": "Low on-bridge clearance: I-66 RAMP TO US 50",
      "addr": "I-66 RAMP TO US 50",
      "lat": 38.8909,
      "lng": -77.0657,
      "height_in": 171,
      "height_label": "14'3\"",
      "notes": "FHWA NBI; on-bridge clearance; built 1964",
      "source": "FHWA National Bridge Inventory"
    },
    {
      "id": "nbi-51-2110001P0000000",
      "name": "Low clearance: ABINGDON DRIVE under SMITH BOULEVARD",
      "addr": "ABINGDON DRIVE",
      "lat": 38.84756,
      "lng": -77.04728,
      "height_in": 156,
      "height_label": "13'0\"",
      "notes": "FHWA NBI; under-bridge clearance; built 1941; bridge carries SMITH BOULEVARD",
      "source": "FHWA National Bridge Inventory"
    },
    {
      "id": "nbi-51-2110003P0000000",
      "name": "Low clearance: RAMP \"R under RAMP \"G",
      "addr": "RAMP \"R",
      "lat": 38.85672,
      "lng": -77.04506,
      "height_in": 174,
      "height_label": "14'6\"",
      "notes": "FHWA NBI; under-bridge clearance; built 1992; bridge carries RAMP \"G",
      "source": "FHWA National Bridge Inventory"
    },
    {
      "id": "nbi-51-2110004P0000000",
      "name": "Low clearance: RAMP \"N under RAMP \"H",
      "addr": "RAMP \"N",
      "lat": 38.85122,
      "lng": -77.04225,
      "height_in": 160,
      "height_label": "13'4\"",
      "notes": "FHWA NBI; under-bridge clearance; built 1997; bridge carries RAMP \"H",
      "source": "FHWA National Bridge Inventory"
    },
    {
      "id": "nbi-11-0032",
      "name": "Low on-bridge clearance: WHITEHURST FRWY",
      "addr": "WHITEHURST FRWY",
      "lat": 38.90449,
      "lng": -77.065,
      "height_in": 169,
      "height_label": "14'1\"",
      "notes": "FHWA NBI; on-bridge clearance; built 1949",
      "source": "FHWA National Bridge Inventory"
    },
    {
      "id": "nbi-11-0036(N&SRamps)",
      "name": "Low on-bridge clearance: RAMPS TO&FROM",
      "addr": "RAMPS TO&FROM",
      "lat": 38.90254,
      "lng": -77.05759,
      "height_in": 131,
      "height_label": "10'11\"",
      "notes": "FHWA NBI; on-bridge clearance; built 1940",
      "source": "FHWA National Bridge Inventory"
    },
    {
      "id": "nbi-11-0049",
      "name": "Low on-bridge clearance: T STREET",
      "addr": "T STREET",
      "lat": 38.91558,
      "lng": -77.009,
      "height_in": 180,
      "height_label": "15'0\"",
      "notes": "FHWA NBI; on-bridge clearance; built 1963",
      "source": "FHWA National Bridge Inventory"
    },
    {
      "id": "nbi-11-0250",
      "name": "Low clearance: D.C. Convention Center under L Street  N.W.",
      "addr": "D.C. Convention Center",
      "lat": 38.90418,
      "lng": -77.02382,
      "height_in": 180,
      "height_label": "15'0\"",
      "notes": "FHWA NBI; under-bridge clearance; built 2005; bridge carries L Street  N.W.",
      "source": "FHWA National Bridge Inventory"
    },
    {
      "id": "nbi-11-0251",
      "name": "Low clearance: D.C. Convention Center under M Street  N.W.",
      "addr": "D.C. Convention Center",
      "lat": 38.90565,
      "lng": -77.02391,
      "height_in": 180,
      "height_label": "15'0\"",
      "notes": "FHWA NBI; under-bridge clearance; built 2005; bridge carries M Street  N.W.",
      "source": "FHWA National Bridge Inventory"
    },
    {
      "id": "nbi-11-1102R(RAMPC)",
      "name": "Low on-bridge clearance: RAMP C I695 EAST",
      "addr": "RAMP C I695 EAST",
      "lat": 38.88318,
      "lng": -77.0123,
      "height_in": 175,
      "height_label": "14'7\"",
      "notes": "FHWA NBI; on-bridge clearance; built 1960",
      "source": "FHWA National Bridge Inventory"
    },
    {
      "id": "nbi-11-1103(RAMPC)",
      "name": "Low clearance: 2ND ST TO HALF ST SW under SOUTHWEST FREEWAY",
      "addr": "2ND ST TO HALF ST SW",
      "lat": 38.88201,
      "lng": -77.01123,
      "height_in": 120,
      "height_label": "10'0\"",
      "notes": "FHWA NBI; under-bridge clearance; built 1963; bridge carries SOUTHWEST FREEWAY",
      "source": "FHWA National Bridge Inventory"
    },
    {
      "id": "nbi-11-1104(RAMPG)",
      "name": "Low on-bridge clearance: SOUTHWEST FREEWAY",
      "addr": "SOUTHWEST FREEWAY",
      "lat": 38.88089,
      "lng": -77.00887,
      "height_in": 178,
      "height_label": "14'10\"",
      "notes": "FHWA NBI; on-bridge clearance; built 1964",
      "source": "FHWA National Bridge Inventory"
    },
    {
      "id": "nbi-11-1107",
      "name": "Low on-bridge clearance: 9TH ST BRIDGE",
      "addr": "9TH ST BRIDGE",
      "lat": 38.88288,
      "lng": -77.02397,
      "height_in": 177,
      "height_label": "14'9\"",
      "notes": "FHWA NBI; on-bridge clearance; built 1961",
      "source": "FHWA National Bridge Inventory"
    },
    {
      "id": "nbi-11-1114",
      "name": "Low clearance: D STREET  S.W. under LEnfant Promenade",
      "addr": "D STREET  S.W.",
      "lat": 38.88509,
      "lng": -77.02599,
      "height_in": 168,
      "height_label": "14'0\"",
      "notes": "FHWA NBI; under-bridge clearance; built 1961; bridge carries LEnfant Promenade",
      "source": "FHWA National Bridge Inventory"
    },
    {
      "id": "nbi-11-1200(RAMPD)",
      "name": "Low on-bridge clearance: RAMP D TO RT 50",
      "addr": "RAMP D TO RT 50",
      "lat": 38.89226,
      "lng": -77.06454,
      "height_in": 171,
      "height_label": "14'3\"",
      "notes": "FHWA NBI; on-bridge clearance; built 1964",
      "source": "FHWA National Bridge Inventory"
    },
    {
      "id": "nbi-11-1206",
      "name": "Low on-bridge clearance: TR BRIDGE(RAMP F)",
      "addr": "TR BRIDGE(RAMP F)",
      "lat": 38.89556,
      "lng": -77.05396,
      "height_in": 175,
      "height_label": "14'7\"",
      "notes": "FHWA NBI; on-bridge clearance; built 1964",
      "source": "FHWA National Bridge Inventory"
    },
    {
      "id": "nbi-11-1417",
      "name": "Low clearance: Anacostia River under I-695",
      "addr": "Anacostia River",
      "lat": 38.87286,
      "lng": -76.99032,
      "height_in": 174,
      "height_label": "14'6\"",
      "notes": "FHWA NBI; under-bridge clearance; built 2012; bridge carries I-695",
      "source": "FHWA National Bridge Inventory"
    }
  ]
}
